[
    {
        "id": "5e454282-526f-4a08-809c-3ec9c7280935",
        "name": "Broken Brix",
        "brewery_type": "micro",
        "address_1": "225 W Main St",
        "address_2": null,
        "address_3": null,
        "city": "Saint Charles",
        "state_province": "Illinois",
        "postal_code": "60174-4591",
        "country": "United States",
        "longitude": "-88.31655168919889",
        "latitude": "41.91325118606758",
        "phone": "6303771338",
        "website_url": "http://www.homebrewshopltd.com",
        "state": "Illinois",
        "street": "225 W Main St"
    },
    {
        "id": "3603ecd0-8aae-44ec-8098-058724396b05",
        "name": "Broken Cauldron Taproom and Brewery",
        "brewery_type": "micro",
        "address_1": "1012 W Church St",
        "address_2": null,
        "address_3": null,
        "city": "Orlando",
        "state_province": "Florida",
        "postal_code": "32805-2216",
        "country": "United States",
        "longitude": null,
        "latitude": null,
        "phone": "4079861012",
        "website_url": "http://www.brokencauldrontaproom.com",
        "state": "Florida",
        "street": "1012 W Church St"
    },
    {
        "id": "9f079ccb-8469-4fe9-a2d6-679f40facc8b",
        "name": "Broken Chair Brewery",
        "brewery_type": "micro",
        "address_1": "424 East Penn Ave",
        "address_2": null,
        "address_3": null,
        "city": "West Reading",
        "state_province": "Pennsylvania",
        "postal_code": "19611-1130",
        "country": "United States",
        "longitude": null,
        "latitude": null,
        "phone": "4848663948",
        "website_url": "http://www.brokenchairbrewery.com",
        "state": "Pennsylvania",
        "street": "424 East Penn Ave"
    },
    {
        "id": "6b1d81d7-c53e-48f0-b4ee-2b901aad23b0",
        "name": "Broken Clock Brewing Cooperative",
        "brewery_type": "micro",
        "address_1": "3134 California St NE Ste 122",
        "address_2": null,
        "address_3": null,
        "city": "Minneapolis",
        "state_province": "Minnesota",
        "postal_code": "55418-1789",
        "country": "United States",
        "longitude": null,
        "latitude": null,
        "phone": "9703330135",
        "website_url": "http://www.brokenclockbrew.com",
        "state": "Minnesota",
        "street": "3134 California St NE Ste 122"
    },
    {
        "id": "b8852f37-7df8-49d3-aac5-2ef793e589bf",
        "name": "Broken Coat Brewing",
        "brewery_type": "planning",
        "address_1": null,
        "address_2": null,
        "address_3": null,
        "city": "Lake Worth",
        "state_province": "Florida",
        "postal_code": "33467-1002",
        "country": "United States",
        "longitude": null,
        "latitude": null,
        "phone": null,
        "website_url": null,
        "state": "Florida",
        "street": null
    },
    {
        "id": "afcf3dcd-8b14-4d09-87d0-eb17a55d3570",
        "name": "Broken Compass Brewing",
        "brewery_type": "micro",
        "address_1": "68 Continental Ct Unit B-12",
        "address_2": null,
        "address_3": null,
        "city": "Breckenridge",
        "state_province": "Colorado",
        "postal_code": "80424-8515",
        "country": "United States",
        "longitude": null,
        "latitude": null,
        "phone": "5419053016",
        "website_url": "http://www.brokencompassbrewing.com",
        "state": "Colorado",
        "street": "68 Continental Ct Unit B-12"
    },
    {
        "id": "33f3c0ee-2a5c-4698-8345-b4db2950dd0d",
        "name": "Broken Gate Brewing",
        "brewery_type": "planning",
        "address_1": null,
        "address_2": null,
        "address_3": null,
        "city": "Baltimore",
        "state_province": "Maryland",
        "postal_code": "21230-4464",
        "country": "United States",
        "longitude": null,
        "latitude": null,
        "phone": "3103453570",
        "website_url": null,
        "state": "Maryland",
        "street": null
    },
    {
        "id": "9852df06-5377-40b5-9ba1-e008bfa15d70",
        "name": "Broken Goblet Brewing",
        "brewery_type": "brewpub",
        "address_1": "1500 Grundy Ln Bldg 1",
        "address_2": null,
        "address_3": null,
        "city": "Bristol",
        "state_province": "Pennsylvania",
        "postal_code": "19007-1521",
        "country": "United States",
        "longitude": null,
        "latitude": null,
        "phone": "2678125653",
        "website_url": "http://www.brokengoblet.com",
        "state": "Pennsylvania",
        "street": "1500 Grundy Ln Bldg 1"
    },
    {
        "id": "0a97a495-46ba-44e9-8755-342aad301296",
        "name": "Broken Horn Brewing Company",
        "brewery_type": "micro",
        "address_1": "201 S Mission St",
        "address_2": null,
        "address_3": null,
        "city": "McCall",
        "state_province": "Idaho",
        "postal_code": "83638",
        "country": "United States",
        "longitude": "-116.104522",
        "latitude": "44.896502",
        "phone": "2083155772",
        "website_url": "http://www.brokenhornbrewing.com",
        "state": "Idaho",
        "street": "201 S Mission St"
    },
    {
        "id": "17ebc359-76a6-4d9d-b5e2-27255c25d82f",
        "name": "Broken Plow Brewery",
        "brewery_type": "micro",
        "address_1": "4731 W 10th St Unit G",
        "address_2": null,
        "address_3": null,
        "city": "Greeley",
        "state_province": "Colorado",
        "postal_code": "80634-2046",
        "country": "United States",
        "longitude": null,
        "latitude": null,
        "phone": "9703978373",
        "website_url": "http://www.brokenplowbrewery.com",
        "state": "Colorado",
        "street": "4731 W 10th St Unit G"
    },
    {
        "id": "cadced11-9b86-49ba-a329-f8dcdd51426f",
        "name": "Broken Rock Brewery",
        "brewery_type": "brewpub",
        "address_1": "282 Grindstone Rd Bird Creek Farms",
        "address_2": null,
        "address_3": null,
        "city": "Port Austin",
        "state_province": "Michigan",
        "postal_code": "48467-9390",
        "country": "United States",
        "longitude": null,
        "latitude": null,
        "phone": "2487033114",
        "website_url": "http://birdcreekfarms.com",
        "state": "Michigan",
        "street": "282 Grindstone Rd Bird Creek Farms"
    },
    {
        "id": "e6c27ded-48b1-4290-b7a2-3deda657a7b8",
        "name": "Broken Symmetry Gastro Brewery",
        "brewery_type": "brewpub",
        "address_1": "5 Depot Pl",
        "address_2": null,
        "address_3": null,
        "city": "Bethel",
        "state_province": "Connecticut",
        "postal_code": "06801-2507",
        "country": "United States",
        "longitude": "-73.41424776",
        "latitude": "41.37097334",
        "phone": "2037311735",
        "website_url": null,
        "state": "Connecticut",
        "street": "5 Depot Pl"
    },
    {
        "id": "e9d8d2f1-c53c-46f6-8195-3799d6c3e818",
        "name": "Broken Tooth Brewing Co",
        "brewery_type": "brewpub",
        "address_1": "2021 Spar Ave",
        "address_2": null,
        "address_3": null,
        "city": "Anchorage",
        "state_province": "Alaska",
        "postal_code": "99501-1815",
        "country": "United States",
        "longitude": "-149.8437638",
        "latitude": "61.2225517",
        "phone": "9072784999",
        "website_url": "https://brokentoothbrewing.net",
        "state": "Alaska",
        "street": "2021 Spar Ave"
    },
    {
        "id": "b57658a7-b65b-4b79-bb7e-e0fa8c401415",
        "name": "Broken Trail Brewery & Distillery",
        "brewery_type": "micro",
        "address_1": "2921 Stanford Dr NE",
        "address_2": null,
        "address_3": null,
        "city": "Albuquerque",
        "state_province": "New Mexico",
        "postal_code": "87107-1813",
        "country": "United States",
        "longitude": "-106.6175091",
        "latitude": "35.11440682",
        "phone": "5052216281",
        "website_url": "http://www.brokentrailspirits.com",
        "state": "New Mexico",
        "street": "2921 Stanford Dr NE"
    },
    {
        "id": "cab32ebd-9d23-425f-ad99-fc0959be6858",
        "name": "Broken Wheel Brewery",
        "brewery_type": "brewpub",
        "address_1": "109 Tunica Dr E",
        "address_2": null,
        "address_3": null,
        "city": "Marksville",
        "state_province": "Louisiana",
        "postal_code": "71351-3005",
        "country": "United States",
        "longitude": "-92.06931518",
        "latitude": "31.12386287",
        "phone": "3182536543",
        "website_url": null,
        "state": "Louisiana",
        "street": "109 Tunica Dr E"
    },
    {
        "id": "8964c08b-1e2a-4c49-9277-64f04c81e549",
        "name": "Brokerage Brewing Company",
        "brewery_type": "micro",
        "address_1": "2516 Covington St",
        "address_2": null,
        "address_3": null,
        "city": "West Lafayette",
        "state_province": "Indiana",
        "postal_code": "47906-1404",
        "country": "United States",
        "longitude": "-86.91414689",
        "latitude": "40.45361124",
        "phone": "7652332767",
        "website_url": "http://www.brokeragebrewing.com",
        "state": "Indiana",
        "street": "2516 Covington St"
    },
    {
        "id": "2ebb09a1-929b-4a1b-8f02-0a5536728b3c",
        "name": "Brolly Brewing",
        "brewery_type": "taproom",
        "address_1": "Fittleworth Road",
        "address_2": null,
        "address_3": null,
        "city": "Billinghurst",
        "state_province": "West Sussex",
        "postal_code": "RH14 0ES",
        "country": "England",
        "longitude": "-0.521971",
        "latitude": "51.010214",
        "phone": "7720847017",
        "website_url": "https://www.brollybrewing.co.uk/",
        "state": "West Sussex",
        "street": "Fittleworth Road"
    },
    {
        "id": "87a0e300-085f-4701-bfc1-cd9a4d45785a",
        "name": "Bron Yr Aur Brewing",
        "brewery_type": "micro",
        "address_1": "12160 US Highway 12",
        "address_2": null,
        "address_3": null,
        "city": "Naches",
        "state_province": "Washington",
        "postal_code": "98937-9222",
        "country": "United States",
        "longitude": "-120.7393151",
        "latitude": "46.73961615",
        "phone": "5096531109",
        "website_url": "https://bronyraurbrewing.com",
        "state": "Washington",
        "street": "12160 US Highway 12"
    },
    {
        "id": "0a7c8d20-eaa1-4141-8edf-bb597c195aa5",
        "name": "Country Town Farm Brewery",
        "brewery_type": "planning",
        "address_1": null,
        "address_2": null,
        "address_3": null,
        "city": "Friendship",
        "state_province": "New York",
        "postal_code": "14739",
        "country": "United States",
        "longitude": null,
        "latitude": null,
        "phone": "5858088995",
        "website_url": null,
        "state": "New York",
        "street": null
    },
    {
        "id": "68b69497-3a9f-49b3-a523-26bd686d4be2",
        "name": "Bronze Owl Brewing",
        "brewery_type": "brewpub",
        "address_1": "506 Vine St",
        "address_2": null,
        "address_3": null,
        "city": "Poplar Bluff",
        "state_province": "Missouri",
        "postal_code": "63901-7331",
        "country": "United States",
        "longitude": "-90.39577338",
        "latitude": "36.75663108",
        "phone": "5738405202",
        "website_url": "http://www.bronzeowlbrewing.com",
        "state": "Missouri",
        "street": "506 Vine St"
    },
    {
        "id": "47ce7e5f-74fe-4a8e-8fe0-35ecd8338537",
        "name": "Brookeville Beer Farm",
        "brewery_type": "micro",
        "address_1": "20315 Georgia Ave",
        "address_2": null,
        "address_3": null,
        "city": "Brookeville",
        "state_province": "Maryland",
        "postal_code": "20833-1711",
        "country": "United States",
        "longitude": "-77.0579247",
        "latitude": "39.1780888",
        "phone": "3012601000",
        "website_url": "http://www.brookevillebeerfarm.com",
        "state": "Maryland",
        "street": "20315 Georgia Ave"
    },
    {
        "id": "5ec37fdc-66c6-42ba-b23e-e985eb0c6558",
        "name": "Brooklyn Brewery",
        "brewery_type": "regional",
        "address_1": "79 N 11th St #1 Brewers Row",
        "address_2": null,
        "address_3": null,
        "city": "Brooklyn",
        "state_province": "New York",
        "postal_code": "11249-1913",
        "country": "United States",
        "longitude": null,
        "latitude": null,
        "phone": "7184867422",
        "website_url": "http://www.brooklynbrewery.com",
        "state": "New York",
        "street": "79 N 11th St #1 Brewers Row"
    },
    {
        "id": "3899ff1a-adc2-45a9-87f9-695cd1f9644f",
        "name": "Brooks Brewing",
        "brewery_type": "micro",
        "address_1": "52033 Van Dyke",
        "address_2": null,
        "address_3": null,
        "city": "Shelby Charter Township",
        "state_province": "Michigan",
        "postal_code": "48316",
        "country": "United States",
        "longitude": null,
        "latitude": null,
        "phone": "5868844741",
        "website_url": "http://www.bbrewing.com",
        "state": "Michigan",
        "street": "52033 Van Dyke"
    },
    {
        "id": "cc1c45a6-09d4-4f32-bf72-cde81102a8bd",
        "name": "Broomtail Craft Brewery",
        "brewery_type": "micro",
        "address_1": "6404 Amsterdam Way Ste 100",
        "address_2": null,
        "address_3": null,
        "city": "Wilmington",
        "state_province": "North Carolina",
        "postal_code": "28405-2563",
        "country": "United States",
        "longitude": null,
        "latitude": null,
        "phone": "9102641369",
        "website_url": "http://www.broomtailcraftbrewery.com",
        "state": "North Carolina",
        "street": "6404 Amsterdam Way Ste 100"
    },
    {
        "id": "809d5238-5077-4731-82fa-7ec6d4ca10d9",
        "name": "Brother Ass Brewing",
        "brewery_type": "micro",
        "address_1": "11700 NE 54th Ct",
        "address_2": null,
        "address_3": null,
        "city": "Vancouver",
        "state_province": "Washington",
        "postal_code": "98686-4589",
        "country": "United States",
        "longitude": "-122.6170235",
        "latitude": "45.70699686",
        "phone": "3606073275",
        "website_url": "http://www.brotherassbrewing.com",
        "state": "Washington",
        "street": "11700 NE 54th Ct"
    },
    {
        "id": "c657e584-d468-40a7-835a-aa0bd8ecbf92",
        "name": "Brothers Cascadia Brewing",
        "brewery_type": "micro",
        "address_1": "9811 NE 15th Ave",
        "address_2": null,
        "address_3": null,
        "city": "Vancouver",
        "state_province": "Washington",
        "postal_code": "98665-9102",
        "country": "United States",
        "longitude": "-122.6553318",
        "latitude": "45.6499058",
        "phone": "3607188927",
        "website_url": "http://www.brotherscascadiabrewing.com",
        "state": "Washington",
        "street": "9811 NE 15th Ave"
    },
    {
        "id": "8deb98b6-acb0-4202-9f83-85c80f60eaac",
        "name": "Brothers Craft Brewing",
        "brewery_type": "micro",
        "address_1": "800 N Main St",
        "address_2": null,
        "address_3": null,
        "city": "Harrisonburg",
        "state_province": "Virginia",
        "postal_code": "22802-4625",
        "country": "United States",
        "longitude": "-78.861099",
        "latitude": "38.45757",
        "phone": "5404216599",
        "website_url": "http://www.brotherscraftbrewing.com",
        "state": "Virginia",
        "street": "800 N Main St"
    },
    {
        "id": "a197e0fb-e5bb-4549-a179-c9688005081f",
        "name": "Brotherton Brewing Company",
        "brewery_type": "micro",
        "address_1": "340 Forked Neck Rd",
        "address_2": null,
        "address_3": null,
        "city": "Shamong",
        "state_province": "New Jersey",
        "postal_code": "08088",
        "country": "United States",
        "longitude": "-74.72540127",
        "latitude": "39.78817758",
        "phone": "6098012686",
        "website_url": "http://www.brothertonbrewing.com",
        "state": "New Jersey",
        "street": "340 Forked Neck Rd"
    },
    {
        "id": "68e4d79f-cb2d-4c7c-ad44-0052927e5b59",
        "name": "Brotherwell Brewing",
        "brewery_type": "micro",
        "address_1": "400 E Bridge St",
        "address_2": null,
        "address_3": null,
        "city": "Waco",
        "state_province": "Texas",
        "postal_code": "76704-2505",
        "country": "United States",
        "longitude": "-97.124214",
        "latitude": "31.56428",
        "phone": "2147638755",
        "website_url": null,
        "state": "Texas",
        "street": "400 E Bridge St"
    },
    {
        "id": "67840cfb-5c46-4a2b-912c-49165bc73d88",
        "name": "Brouwerij Cursus Keme",
        "brewery_type": "brewpub",
        "address_1": "155 Thompson St",
        "address_2": null,
        "address_3": null,
        "city": "Asheville",
        "state_province": "North Carolina",
        "postal_code": "28803-1443",
        "country": "United States",
        "longitude": "-82.52572837",
        "latitude": "35.57438843",
        "phone": null,
        "website_url": null,
        "state": "North Carolina",
        "street": "155 Thompson St"
    },
    {
        "id": "6a5fa9b2-e8fe-4156-8a2a-d27e5b678ddd",
        "name": "Brouwerij Les Deplorables",
        "brewery_type": "nano",
        "address_1": "19812 163rd Ave NE",
        "address_2": null,
        "address_3": null,
        "city": "Woodinville",
        "state_province": "Washington",
        "postal_code": "98072-7027",
        "country": "United States",
        "longitude": "-122.1225485",
        "latitude": "47.7711936",
        "phone": "2067902496",
        "website_url": null,
        "state": "Washington",
        "street": "19812 163rd Ave NE"
    },
    {
        "id": "8a2ef743-8539-4d41-828b-fc91dcecf6a1",
        "name": "Brouwerij West",
        "brewery_type": "micro",
        "address_1": "110 E 22nd St",
        "address_2": null,
        "address_3": null,
        "city": "San Pedro",
        "state_province": "California",
        "postal_code": "90731-7202",
        "country": "United States",
        "longitude": "-118.2801245",
        "latitude": "33.72755547",
        "phone": "3108339330",
        "website_url": "http://www.brouwerijwest.com",
        "state": "California",
        "street": "110 E 22nd St"
    },
    {
        "id": "6bb73725-a04f-4453-bfb4-103c88d1dcac",
        "name": "Browar Caminus",
        "brewery_type": "brewpub",
        "address_1": "1 Maja 11",
        "address_2": null,
        "address_3": null,
        "city": "K\u0105ty Wroc\u0142awskie",
        "state_province": "dolno\u015bl\u0105skie",
        "postal_code": "55-080",
        "country": "Poland",
        "longitude": "16.7665208",
        "latitude": "51.0308894",
        "phone": null,
        "website_url": null,
        "state": "dolno\u015bl\u0105skie",
        "street": "1 Maja 11"
    },
    {
        "id": "a9d8d2a9-23f3-4975-85fe-77de5ea72a43",
        "name": "Browar Cztery \u015aciany",
        "brewery_type": "micro",
        "address_1": "Milicka 32",
        "address_2": null,
        "address_3": null,
        "city": "Trzebnica",
        "state_province": "dolno\u015bl\u0105skie",
        "postal_code": "55-100",
        "country": "Poland",
        "longitude": "17.0722456",
        "latitude": "51.3226873",
        "phone": null,
        "website_url": null,
        "state": "dolno\u015bl\u0105skie",
        "street": "Milicka 32"
    },
    {
        "id": "e46b3eae-e40f-4624-b606-b2abc8d25dab",
        "name": "Browar Dolina Bobru",
        "brewery_type": "micro",
        "address_1": "Zarzecze 1",
        "address_2": null,
        "address_3": null,
        "city": "Wle\u0144",
        "state_province": "dolno\u015bl\u0105skie",
        "postal_code": "59-610",
        "country": "Poland",
        "longitude": "15.6675929",
        "latitude": "51.0220276",
        "phone": null,
        "website_url": null,
        "state": "dolno\u015bl\u0105skie",
        "street": "Zarzecze 1"
    },
    {
        "id": "1457f05e-4ca2-4788-b76e-8c77a3d38998",
        "name": "Browar Jamrozowa Polana",
        "brewery_type": "micro",
        "address_1": "Olimpijska 1",
        "address_2": null,
        "address_3": null,
        "city": "Duszniki-Zdr\u00f3j",
        "state_province": "dolno\u015bl\u0105skie",
        "postal_code": "57-340",
        "country": "Poland",
        "longitude": "16.367628",
        "latitude": "50.3893103",
        "phone": null,
        "website_url": null,
        "state": "dolno\u015bl\u0105skie",
        "street": "Olimpijska 1"
    },
    {
        "id": "c53ce4ff-0b18-4759-80b9-c3d632162909",
        "name": "Browar Jedlinka",
        "brewery_type": "micro",
        "address_1": "Zamkowa 8",
        "address_2": null,
        "address_3": null,
        "city": "Jedlina-Zdr\u00f3j",
        "state_province": "dolno\u015bl\u0105skie",
        "postal_code": "58-330",
        "country": "Poland",
        "longitude": "16.3587951",
        "latitude": "50.712874",
        "phone": null,
        "website_url": null,
        "state": "dolno\u015bl\u0105skie",
        "street": "Zamkowa 8"
    },
    {
        "id": "c6794a77-7c9e-42d6-8baf-99841750d529",
        "name": "Browar Kamienica",
        "brewery_type": "micro",
        "address_1": "Kamienica 1a",
        "address_2": null,
        "address_3": null,
        "city": "Kamienica",
        "state_province": "dolno\u015bl\u0105skie",
        "postal_code": "57-550",
        "country": "Poland",
        "longitude": "16.8867481",
        "latitude": "50.251714",
        "phone": null,
        "website_url": null,
        "state": "dolno\u015bl\u0105skie",
        "street": "Kamienica 1a"
    },
    {
        "id": "886dedd2-fecc-4183-ba3b-746e9ae5f5fa",
        "name": "Browar \u0141a\u017cany",
        "brewery_type": "micro",
        "address_1": "S\u0142owia\u0144ska 23",
        "address_2": null,
        "address_3": null,
        "city": "\u017bar\u00f3w",
        "state_province": "dolno\u015bl\u0105skie",
        "postal_code": "58-130",
        "country": "Poland",
        "longitude": "16.5012637",
        "latitude": "50.9372257",
        "phone": null,
        "website_url": null,
        "state": "dolno\u015bl\u0105skie",
        "street": "S\u0142owia\u0144ska 23"
    },
    {
        "id": "da14fe75-eedf-47d8-a83f-7c2d23932637",
        "name": "Browar Lw\u00f3wek",
        "brewery_type": "regional",
        "address_1": "Traugutta 7",
        "address_2": null,
        "address_3": null,
        "city": "Lw\u00f3wek \u015al\u0105ski",
        "state_province": "dolno\u015bl\u0105skie",
        "postal_code": "59-600",
        "country": "Poland",
        "longitude": "15.5841981",
        "latitude": "51.109468",
        "phone": null,
        "website_url": null,
        "state": "dolno\u015bl\u0105skie",
        "street": "Traugutta 7"
    },
    {
        "id": "acaf83f9-7aaf-48db-baa7-f1a2c13926c2",
        "name": "Browar Mariental",
        "brewery_type": "brewpub",
        "address_1": "1 Maja 11",
        "address_2": null,
        "address_3": null,
        "city": "Szklarska Por\u0119ba",
        "state_province": "dolno\u015bl\u0105skie",
        "postal_code": "58-580",
        "country": "Poland",
        "longitude": "15.5249165",
        "latitude": "50.8259305",
        "phone": null,
        "website_url": null,
        "state": "dolno\u015bl\u0105skie",
        "street": "1 Maja 11"
    },
    {
        "id": "4943fcf7-31fa-4156-ba4c-6e0fcf3b2abf",
        "name": "Browar Miedzianka",
        "brewery_type": "micro",
        "address_1": "Miedzianka 57B",
        "address_2": null,
        "address_3": null,
        "city": "Miedzianka",
        "state_province": "dolno\u015bl\u0105skie",
        "postal_code": "58-520",
        "country": "Poland",
        "longitude": "15.9390136",
        "latitude": "50.877833",
        "phone": null,
        "website_url": null,
        "state": "dolno\u015bl\u0105skie",
        "street": "Miedzianka 57B"
    },
    {
        "id": "c88968bb-bd4a-4606-ad4e-583bd1797974",
        "name": "Browar Milicz",
        "brewery_type": "micro",
        "address_1": "Zielona 5",
        "address_2": null,
        "address_3": null,
        "city": "Milicz",
        "state_province": "dolno\u015bl\u0105skie",
        "postal_code": "56-300",
        "country": "Poland",
        "longitude": "17.2844713",
        "latitude": "51.5228333",
        "phone": null,
        "website_url": null,
        "state": "dolno\u015bl\u0105skie",
        "street": "Zielona 5"
    },
    {
        "id": "b26c3126-b9f8-450a-994d-1f19f3bf1262",
        "name": "Browar Profesja",
        "brewery_type": "regional",
        "address_1": "Kwidzy\u0144ska 6E",
        "address_2": null,
        "address_3": null,
        "city": "Wroc\u0142aw",
        "state_province": "dolno\u015bl\u0105skie",
        "postal_code": "51-416",
        "country": "Poland",
        "longitude": "17.0946435",
        "latitude": "51.1297761",
        "phone": null,
        "website_url": null,
        "state": "dolno\u015bl\u0105skie",
        "street": "Kwidzy\u0144ska 6E"
    },
    {
        "id": "e163f605-c2e2-45cf-b684-77f60dde6c9f",
        "name": "Browar Restauracyjny Prost",
        "brewery_type": "brewpub",
        "address_1": "Paprotna 4",
        "address_2": null,
        "address_3": null,
        "city": "Wroc\u0142aw",
        "state_province": "dolno\u015bl\u0105skie",
        "postal_code": "51-117",
        "country": "Poland",
        "longitude": "17.0228782",
        "latitude": "51.1507632",
        "phone": null,
        "website_url": null,
        "state": "dolno\u015bl\u0105skie",
        "street": "Paprotna 4"
    },
    {
        "id": "99eacd23-0305-4a47-87ed-086e0da1ae35",
        "name": "Browar Roch",
        "brewery_type": "micro",
        "address_1": "Nowe Rochowice 22",
        "address_2": null,
        "address_3": null,
        "city": "Nowe Rochowice",
        "state_province": "dolno\u015bl\u0105skie",
        "postal_code": "59-420",
        "country": "Poland",
        "longitude": "16.0398406",
        "latitude": "50.9407953",
        "phone": null,
        "website_url": null,
        "state": "dolno\u015bl\u0105skie",
        "street": "Nowe Rochowice 22"
    },
    {
        "id": "12738d11-80b2-41af-b991-fd5fed99f3d3",
        "name": "Browar Sowiduch",
        "brewery_type": "brewpub",
        "address_1": "Konstytucji 3 Maja 45A",
        "address_2": null,
        "address_3": null,
        "city": "Karpacz",
        "state_province": "dolno\u015bl\u0105skie",
        "postal_code": "58-540",
        "country": "Poland",
        "longitude": "15.7558721",
        "latitude": "50.7751604",
        "phone": null,
        "website_url": null,
        "state": "dolno\u015bl\u0105skie",
        "street": "Konstytucji 3 Maja 45A"
    },
    {
        "id": "95e49f64-c6ad-476e-8012-c87463562f18",
        "name": "Browar Stu Most\u00f3w",
        "brewery_type": "regional",
        "address_1": "Jana D\u0142ugosza 2/6",
        "address_2": null,
        "address_3": null,
        "city": "Wroc\u0142aw",
        "state_province": "dolno\u015bl\u0105skie",
        "postal_code": "51-162",
        "country": "Poland",
        "longitude": "17.0592865",
        "latitude": "51.1318701",
        "phone": null,
        "website_url": null,
        "state": "dolno\u015bl\u0105skie",
        "street": "Jana D\u0142ugosza 2/6"
    },
    {
        "id": "adb8817e-9b7c-4dd3-a3cd-09755d9f36d0",
        "name": "Browar \u015awidnica",
        "brewery_type": "micro",
        "address_1": "Bystrzycka 28B",
        "address_2": null,
        "address_3": null,
        "city": "\u015awidnica ",
        "state_province": "dolno\u015bl\u0105skie",
        "postal_code": "58-100",
        "country": "Poland",
        "longitude": "16.4994665",
        "latitude": "50.828839",
        "phone": null,
        "website_url": null,
        "state": "dolno\u015bl\u0105skie",
        "street": "Bystrzycka 28B"
    },
    {
        "id": "dfd46e8d-b3b0-4a2e-b4d2-28b9cc19f3c8",
        "name": "Browar Wagabunda",
        "brewery_type": "micro",
        "address_1": "Przemys\u0142owa 8",
        "address_2": null,
        "address_3": null,
        "city": "Niechl\u00f3w",
        "state_province": "dolno\u015bl\u0105skie",
        "postal_code": "56-215",
        "country": "Poland",
        "longitude": "16.3703998",
        "latitude": "51.6903932",
        "phone": null,
        "website_url": null,
        "state": "dolno\u015bl\u0105skie",
        "street": "Przemys\u0142owa 8"
    },
    {
        "id": "34b1ec5d-e881-4e08-b075-93eab766c992",
        "name": "Browar Widawa",
        "brewery_type": "micro",
        "address_1": "Wroc\u0142awska 97",
        "address_2": null,
        "address_3": null,
        "city": "Chrz\u0105stawa Ma\u0142a",
        "state_province": "dolno\u015bl\u0105skie",
        "postal_code": "55-003",
        "country": "Poland",
        "longitude": "17.284289",
        "latitude": "51.0839992",
        "phone": null,
        "website_url": null,
        "state": "dolno\u015bl\u0105skie",
        "street": "Wroc\u0142awska 97"
    },
    {
        "id": "2e352c87-84e1-4cc3-8d87-75815cc89e3a",
        "name": "Browar Wielka Sowa",
        "brewery_type": "micro",
        "address_1": "\u017beromskiego 9",
        "address_2": null,
        "address_3": null,
        "city": "Bielawa",
        "state_province": "dolno\u015bl\u0105skie",
        "postal_code": "58-260",
        "country": "Poland",
        "longitude": "16.6361506",
        "latitude": "50.696817",
        "phone": null,
        "website_url": null,
        "state": "dolno\u015bl\u0105skie",
        "street": "\u017beromskiego 9"
    },
    {
        "id": "89d617ce-5481-4421-937a-4996789cb583",
        "name": "Browar Wie\u017cyca",
        "brewery_type": "micro",
        "address_1": "Armii Krajowej 13",
        "address_2": null,
        "address_3": null,
        "city": "Sob\u00f3tka",
        "state_province": "dolno\u015bl\u0105skie",
        "postal_code": "55-050",
        "country": "Poland",
        "longitude": "16.7270842",
        "latitude": "50.892739",
        "phone": null,
        "website_url": null,
        "state": "dolno\u015bl\u0105skie",
        "street": "Armii Krajowej 13"
    },
    {
        "id": "14fa56bf-a922-44bb-aac2-2844a5710797",
        "name": "Browar Zbroz\u0142o",
        "brewery_type": "micro",
        "address_1": "Grunwaldzka 25",
        "address_2": null,
        "address_3": null,
        "city": "Oborniki \u015al\u0105skie",
        "state_province": "dolno\u015bl\u0105skie",
        "postal_code": "55-120",
        "country": "Poland",
        "longitude": "16.8990216",
        "latitude": "51.2960637",
        "phone": null,
        "website_url": null,
        "state": "dolno\u015bl\u0105skie",
        "street": "Grunwaldzka 25"
    },
    {
        "id": "a90fa39a-8a9e-4d6a-92a1-8d6b2e34261f",
        "name": "Browar Zielone Wzg\u00f3rze",
        "brewery_type": "micro",
        "address_1": "Parkowa 3",
        "address_2": null,
        "address_3": null,
        "city": "Sulistrowiczki",
        "state_province": "dolno\u015bl\u0105skie",
        "postal_code": "55-050",
        "country": "Poland",
        "longitude": "16.7350128",
        "latitude": "50.8458752",
        "phone": null,
        "website_url": null,
        "state": "dolno\u015bl\u0105skie",
        "street": "Parkowa 3"
    },
    {
        "id": "5137aaa8-be5a-40b1-95b1-2f3e0e0770e9",
        "name": "Browar Z\u0142oty Pies",
        "brewery_type": "brewpub",
        "address_1": "Wita Stwosza 1-2",
        "address_2": null,
        "address_3": null,
        "city": "Wroc\u0142aw",
        "state_province": "dolno\u015bl\u0105skie",
        "postal_code": "51-116",
        "country": "Poland",
        "longitude": "17.0336486",
        "latitude": "51.110441",
        "phone": null,
        "website_url": null,
        "state": "dolno\u015bl\u0105skie",
        "street": "Wita Stwosza 1-2"
    },
    {
        "id": "41ce95a9-1acd-4019-afcc-9abeded5c31f",
        "name": "Browarnia Sob\u00f3tka",
        "brewery_type": "micro",
        "address_1": "Osiedle Browarniane 34",
        "address_2": null,
        "address_3": null,
        "city": "Sob\u00f3tka-G\u00f3rka",
        "state_province": "dolno\u015bl\u0105skie",
        "postal_code": "55-050",
        "country": "Poland",
        "longitude": "16.7040764",
        "latitude": "50.8919594",
        "phone": null,
        "website_url": null,
        "state": "dolno\u015bl\u0105skie",
        "street": "Osiedle Browarniane 34"
    },
    {
        "id": "b09140d2-fce4-4996-86ea-2c0aafc6682d",
        "name": "Brown Iron Brewhouse",
        "brewery_type": "brewpub",
        "address_1": "57695 Van Dyke Rd",
        "address_2": null,
        "address_3": null,
        "city": "Washington",
        "state_province": "Michigan",
        "postal_code": "48094-2879",
        "country": "United States",
        "longitude": "-83.03578521",
        "latitude": "42.71929931",
        "phone": "586697330",
        "website_url": "http://www.browniron.com",
        "state": "Michigan",
        "street": "57695 Van Dyke Rd"
    },
    {
        "id": "57d05506-be15-4281-bb0b-1b139d75e66a",
        "name": "Brown Truck Brewery",
        "brewery_type": "micro",
        "address_1": "1234 N Main St",
        "address_2": null,
        "address_3": null,
        "city": "High Point",
        "state_province": "North Carolina",
        "postal_code": "27262-3118",
        "country": "United States",
        "longitude": "-80.0158688",
        "latitude": "35.9709266",
        "phone": "3368861234",
        "website_url": "http://www.browntruckbrewery.com",
        "state": "North Carolina",
        "street": "1234 N Main St"
    },
    {
        "id": "0353cf46-744c-4538-81c4-febe1d8a0be7",
        "name": "Brown's Brewing Co",
        "brewery_type": "brewpub",
        "address_1": "50 Factory Hill Rd",
        "address_2": null,
        "address_3": null,
        "city": "North Hoosick",
        "state_province": "New York",
        "postal_code": "12133",
        "country": "United States",
        "longitude": "-73.34515821",
        "latitude": "42.92661444",
        "phone": "5182732337",
        "website_url": "http://www.brownsbrewing.com",
        "state": "New York",
        "street": "50 Factory Hill Rd"
    },
    {
        "id": "cac29608-c079-4fd2-b3c6-c13b8ac693eb",
        "name": "Brown's Brewing Co",
        "brewery_type": "brewpub",
        "address_1": "417 River St",
        "address_2": null,
        "address_3": null,
        "city": "Troy",
        "state_province": "New York",
        "postal_code": "12180-2822",
        "country": "United States",
        "longitude": "-73.68755002",
        "latitude": "42.73567746",
        "phone": "5183654846",
        "website_url": "http://www.brownsbrewing.com",
        "state": "New York",
        "street": "417 River St"
    },
    {
        "id": "a623138e-cc2d-4549-abca-4bc2021b8c45",
        "name": "BR\u00da Brewery",
        "brewery_type": "micro",
        "address_1": "Unit 5 \u2013 Site 6",
        "address_2": "Oaktree Business Park",
        "address_3": null,
        "city": "Trim",
        "state_province": "Meath",
        "postal_code": "C15 RW10",
        "country": "Ireland",
        "longitude": "-6.794949763",
        "latitude": "53.5660948",
        "phone": "353469438616",
        "website_url": "https://www.brubrewery.ie/",
        "state": "Meath",
        "street": "Unit 5 \u2013 Site 6"
    },
    {
        "id": "48a7cc57-7544-472d-bc89-2e12ab8e6d53",
        "name": "BRU Handbuilt Ales and Eats",
        "brewery_type": "brewpub",
        "address_1": "5290 Arapahoe Ave",
        "address_2": null,
        "address_3": null,
        "city": "Boulder",
        "state_province": "Colorado",
        "postal_code": "80303-1269",
        "country": "United States",
        "longitude": "-105.2293345",
        "latitude": "40.0141462",
        "phone": "7206385193",
        "website_url": "http://www.bruboulder.com",
        "state": "Colorado",
        "street": "5290 Arapahoe Ave"
    },
    {
        "id": "6f687fce-bdae-4938-8ad5-3615520d9664",
        "name": "Brubaker's Brewery & Pub",
        "brewery_type": "planning",
        "address_1": null,
        "address_2": null,
        "address_3": null,
        "city": "Sylvania",
        "state_province": "Ohio",
        "postal_code": "43560-9586",
        "country": "United States",
        "longitude": null,
        "latitude": null,
        "phone": null,
        "website_url": null,
        "state": "Ohio",
        "street": null
    },
    {
        "id": "badb2bd3-2200-4496-88a9-b2d0af2862af",
        "name": "Bruehol Brewing LLC",
        "brewery_type": "proprietor",
        "address_1": "4828 E 2nd St",
        "address_2": null,
        "address_3": null,
        "city": "Benicia",
        "state_province": "California",
        "postal_code": "94510-1023",
        "country": "United States",
        "longitude": "-122.1275637",
        "latitude": "38.08086313",
        "phone": "7073276768",
        "website_url": "http://www.bruehol.com",
        "state": "California",
        "street": "4828 E 2nd St"
    },
    {
        "id": "6817baf7-52fc-4ab6-8d28-79d598676fad",
        "name": "Brueprint Brewing Company LLC",
        "brewery_type": "micro",
        "address_1": "1229 Perry Rd Ste 101",
        "address_2": null,
        "address_3": null,
        "city": "Apex",
        "state_province": "North Carolina",
        "postal_code": "27502-6898",
        "country": "United States",
        "longitude": "-78.85014375",
        "latitude": "35.70884819",
        "phone": "9199718846",
        "website_url": "http://www.brueprint.com",
        "state": "North Carolina",
        "street": "1229 Perry Rd Ste 101"
    },
    {
        "id": "a3ee5b9a-f9a9-42d1-a176-5ae6d98be4a9",
        "name": "Bruery Terreux",
        "brewery_type": "micro",
        "address_1": "1174 N Grove St",
        "address_2": null,
        "address_3": null,
        "city": "Anaheim",
        "state_province": "California",
        "postal_code": "92806-2129",
        "country": "United States",
        "longitude": "-117.8418759",
        "latitude": "33.85793692",
        "phone": "7149966258",
        "website_url": "http://www.thebruery.com",
        "state": "California",
        "street": "1174 N Grove St"
    },
    {
        "id": "54a69c5d-8605-441b-bd39-ead94e777450",
        "name": "Bruery, The",
        "brewery_type": "micro",
        "address_1": "717 Dunn Way",
        "address_2": null,
        "address_3": null,
        "city": "Placentia",
        "state_province": "California",
        "postal_code": "92870-6806",
        "country": "United States",
        "longitude": "-117.8791616",
        "latitude": "33.8623093",
        "phone": "7149966258",
        "website_url": "http://www.thebruery.com",
        "state": "California",
        "street": "717 Dunn Way"
    },
    {
        "id": "5ad3e5b9-e203-40eb-bc84-6e28356993d6",
        "name": "Brues Alehouse Brewing Company",
        "brewery_type": "brewpub",
        "address_1": "120 Riverwalk Place",
        "address_2": null,
        "address_3": null,
        "city": "Pueblo",
        "state_province": "Colorado",
        "postal_code": "81003",
        "country": "United States",
        "longitude": null,
        "latitude": null,
        "phone": "7199249670",
        "website_url": "http://www.bruesalehouse.com",
        "state": "Colorado",
        "street": "120 Riverwalk Place"
    },
    {
        "id": "8029560b-c49b-4979-a971-461bfac424f6",
        "name": "Brugge Brasserie",
        "brewery_type": "brewpub",
        "address_1": "1011A E Westfield Blvd",
        "address_2": null,
        "address_3": null,
        "city": "Indianapolis",
        "state_province": "Indiana",
        "postal_code": "46220-",
        "country": "United States",
        "longitude": null,
        "latitude": null,
        "phone": "3172550978",
        "website_url": "http://www.bruggebrasserie.com",
        "state": "Indiana",
        "street": "1011A E Westfield Blvd"
    },
    {
        "id": "131050bc-6ba0-4eab-a7ba-7cb42becdbeb",
        "name": "BruRm At Bar",
        "brewery_type": "brewpub",
        "address_1": "254 Crown St",
        "address_2": null,
        "address_3": null,
        "city": "New Haven",
        "state_province": "Connecticut",
        "postal_code": "06511-6610",
        "country": "United States",
        "longitude": "-72.9302577",
        "latitude": "41.3061639",
        "phone": "2034958924",
        "website_url": "http://www.barnightclub.com",
        "state": "Connecticut",
        "street": "254 Crown St"
    },
    {
        "id": "5349a160-b8e9-4447-bb32-947718daf82f",
        "name": "Brush Creek Brewing Company",
        "brewery_type": "brewpub",
        "address_1": "102 N Main St",
        "address_2": null,
        "address_3": null,
        "city": "Atkinson",
        "state_province": "Nebraska",
        "postal_code": "68713-4946",
        "country": "United States",
        "longitude": "-98.97836727",
        "latitude": "42.53141502",
        "phone": "4029252629",
        "website_url": null,
        "state": "Nebraska",
        "street": "102 N Main St"
    },
    {
        "id": "1b93afb3-f335-4c76-b247-16021324c687",
        "name": "Brutopia Brewery and Kitchen",
        "brewery_type": "brewpub",
        "address_1": "505 Atwood Ave",
        "address_2": null,
        "address_3": null,
        "city": "Cranston",
        "state_province": "Rhode Island",
        "postal_code": "02920-5327",
        "country": "United States",
        "longitude": "-71.47169613",
        "latitude": "41.78983825",
        "phone": "4014648877",
        "website_url": "http://www.brutopiabrewery.com",
        "state": "Rhode Island",
        "street": "505 Atwood Ave"
    },
    {
        "id": "83aef3a5-e9ba-47e7-bb58-3b061caff00d",
        "name": "Bruz Beers",
        "brewery_type": "micro",
        "address_1": "1675 W 67th Ave Ste 100",
        "address_2": null,
        "address_3": null,
        "city": "Denver",
        "state_province": "Colorado",
        "postal_code": "80221-2595",
        "country": "United States",
        "longitude": null,
        "latitude": null,
        "phone": "3036502337",
        "website_url": "http://www.bruzbeers.com",
        "state": "Colorado",
        "street": "1675 W 67th Ave Ste 100"
    },
    {
        "id": "84574ef8-dd32-4f5d-836c-bb67a35584a5",
        "name": "BRZN",
        "brewery_type": "micro",
        "address_1": "New England Road",
        "address_2": null,
        "address_3": null,
        "city": "Brighton",
        "state_province": "East Sussex",
        "postal_code": "BN1 4ZR",
        "country": "England",
        "longitude": "-0.140921",
        "latitude": "50.833413",
        "phone": null,
        "website_url": null,
        "state": "East Sussex",
        "street": "New England Road"
    },
    {
        "id": "91fe878b-f118-4ed2-b733-bcde32a53f1d",
        "name": "BS Brewing",
        "brewery_type": "micro",
        "address_1": "1408 Old Lehmann Rd",
        "address_2": null,
        "address_3": null,
        "city": "Seguin",
        "state_province": "Texas",
        "postal_code": "78155-5048",
        "country": "United States",
        "longitude": "-97.90477894",
        "latitude": "29.69091561",
        "phone": "8306608124",
        "website_url": "http://www.bsbrewingtx.com",
        "state": "Texas",
        "street": "1408 Old Lehmann Rd"
    },
    {
        "id": "77ff798d-2961-4062-8c4d-c50b49bbbe2e",
        "name": "Bubba Brew's Brewing Company",
        "brewery_type": "micro",
        "address_1": "8091 Airport Rd",
        "address_2": null,
        "address_3": null,
        "city": "Bonnerdale",
        "state_province": "Arkansas",
        "postal_code": "71933-6648",
        "country": "United States",
        "longitude": null,
        "latitude": null,
        "phone": "8703564001",
        "website_url": "http://www.bubbabrewsbrewingco.com",
        "state": "Arkansas",
        "street": "8091 Airport Rd"
    },
    {
        "id": "a75a8cd7-7531-4df5-8edb-48782916a3da",
        "name": "Bubes Brewery",
        "brewery_type": "brewpub",
        "address_1": "102 N Market St",
        "address_2": null,
        "address_3": null,
        "city": "Mount Joy",
        "state_province": "Pennsylvania",
        "postal_code": "17552-1306",
        "country": "United States",
        "longitude": "-76.50290152",
        "latitude": "40.11180762",
        "phone": "7176532056",
        "website_url": "http://www.bubesbrewery.com",
        "state": "Pennsylvania",
        "street": "102 N Market St"
    },
    {
        "id": "e869121f-a5be-4382-8243-8a51ab8af429",
        "name": "Buchanan Craft LLC",
        "brewery_type": "planning",
        "address_1": null,
        "address_2": null,
        "address_3": null,
        "city": "Chicago",
        "state_province": "Illinois",
        "postal_code": "60647-9735",
        "country": "United States",
        "longitude": null,
        "latitude": null,
        "phone": "6307722199",
        "website_url": null,
        "state": "Illinois",
        "street": null
    },
    {
        "id": "80a6159f-2196-4c18-bfdb-4fc34a723524",
        "name": "Buck Bald Brewing Corporation",
        "brewery_type": "planning",
        "address_1": null,
        "address_2": null,
        "address_3": null,
        "city": "Blue Ridge",
        "state_province": "Georgia",
        "postal_code": "30513",
        "country": "United States",
        "longitude": null,
        "latitude": null,
        "phone": "7703169971",
        "website_url": "http://www.buckbaldbrewing.com",
        "state": "Georgia",
        "street": null
    },
    {
        "id": "6ba05499-27cc-40c8-9fc6-003190f93adb",
        "name": "Buck Hill Brewery and Restaurant",
        "brewery_type": "brewpub",
        "address_1": "45 Route 94",
        "address_2": null,
        "address_3": null,
        "city": "Blairstown",
        "state_province": "New Jersey",
        "postal_code": "07825",
        "country": "United States",
        "longitude": null,
        "latitude": null,
        "phone": "9088545300",
        "website_url": "http://www.buckhillbrewery.com",
        "state": "New Jersey",
        "street": "45 Route 94"
    },
    {
        "id": "3e7df4e6-1fb8-4509-9943-124da33f3bec",
        "name": "Buck's Brewing Co",
        "brewery_type": "micro",
        "address_1": "993 Mount Vernon Rd",
        "address_2": null,
        "address_3": null,
        "city": "Newark",
        "state_province": "Ohio",
        "postal_code": "43055-4728",
        "country": "United States",
        "longitude": "-82.41752143",
        "latitude": "40.08367829",
        "phone": "7406412337",
        "website_url": null,
        "state": "Ohio",
        "street": "993 Mount Vernon Rd"
    },
    {
        "id": "fcf8351b-616e-4c8e-a372-a026c64746cf",
        "name": "Bucket Brigade Brewery",
        "brewery_type": "micro",
        "address_1": "205 N Main St",
        "address_2": null,
        "address_3": null,
        "city": "Cape May Court House",
        "state_province": "New Jersey",
        "postal_code": "08210-2121",
        "country": "United States",
        "longitude": "-74.81946353",
        "latitude": "39.086856",
        "phone": "6097782641",
        "website_url": "http://www.bucketbrigadebrewery.com",
        "state": "New Jersey",
        "street": "205 N Main St"
    },
    {
        "id": "c2cb20bd-eb6d-40af-afef-44896bb4e3d8",
        "name": "Buckeye Beer Engine",
        "brewery_type": "brewpub",
        "address_1": "15315 Madison Ave",
        "address_2": null,
        "address_3": null,
        "city": "Lakewood",
        "state_province": "Ohio",
        "postal_code": "44107-4020",
        "country": "United States",
        "longitude": "-81.803918",
        "latitude": "41.477245",
        "phone": "2162262337",
        "website_url": "http://www.buckeyebeerengine.com",
        "state": "Ohio",
        "street": "15315 Madison Ave"
    },
    {
        "id": "2af8709e-55ca-41bc-8686-673157606216",
        "name": "Buckeye Lake Brewery",
        "brewery_type": "micro",
        "address_1": "5176 Walnut Rd",
        "address_2": null,
        "address_3": null,
        "city": "Buckeye Lake",
        "state_province": "Ohio",
        "postal_code": "43008",
        "country": "United States",
        "longitude": "-82.488973",
        "latitude": "39.928559",
        "phone": "7405356225",
        "website_url": null,
        "state": "Ohio",
        "street": "5176 Walnut Rd"
    },
    {
        "id": "6f2a1d53-ab52-4a33-b9cf-0d3352156a7e",
        "name": "Buckhorn Brewers LLC",
        "brewery_type": "micro",
        "address_1": "4229 W Eisenhower Blvd",
        "address_2": null,
        "address_3": null,
        "city": "Loveland",
        "state_province": "Colorado",
        "postal_code": "80537-9202",
        "country": "United States",
        "longitude": "-105.0925735",
        "latitude": "40.4058904",
        "phone": "9709808688",
        "website_url": null,
        "state": "Colorado",
        "street": "4229 W Eisenhower Blvd"
    },
    {
        "id": "cbe836b4-5236-4448-9587-b9da70e18355",
        "name": "BuckleDown Brewing",
        "brewery_type": "micro",
        "address_1": "8700 47th St",
        "address_2": null,
        "address_3": null,
        "city": "Lyons",
        "state_province": "Illinois",
        "postal_code": "60534-1626",
        "country": "United States",
        "longitude": "-87.8034082",
        "latitude": "41.8083636",
        "phone": "7087771842",
        "website_url": "http://buckledownbrewing.com",
        "state": "Illinois",
        "street": "8700 47th St"
    },
    {
        "id": "f58e18b4-a2ff-4917-8bb3-d9a5e852add6",
        "name": "Bucks County Brewery",
        "brewery_type": "micro",
        "address_1": "31 Appletree Ln",
        "address_2": null,
        "address_3": null,
        "city": "Pipersville",
        "state_province": "Pennsylvania",
        "postal_code": "18947-1083",
        "country": "United States",
        "longitude": null,
        "latitude": null,
        "phone": "6094392468",
        "website_url": "http://www.buckscountybrewery.com",
        "state": "Pennsylvania",
        "street": "31 Appletree Ln"
    },
    {
        "id": "7ce4f9c5-bf79-4d42-b7bb-aaa70cd2e069",
        "name": "Buffalo Bayou Brewing Co",
        "brewery_type": "micro",
        "address_1": "5301 Nolda St",
        "address_2": null,
        "address_3": null,
        "city": "Houston",
        "state_province": "Texas",
        "postal_code": "77007-2234",
        "country": "United States",
        "longitude": "-95.4160849",
        "latitude": "29.775978",
        "phone": "7137509795",
        "website_url": "http://www.buffbrew.com",
        "state": "Texas",
        "street": "5301 Nolda St"
    },
    {
        "id": "d0d1897a-d4d4-46e1-9f35-5c21cf0b49a5",
        "name": "Buffalo Bills Brewery",
        "brewery_type": "brewpub",
        "address_1": "1082 B St",
        "address_2": null,
        "address_3": null,
        "city": "Hayward",
        "state_province": "California",
        "postal_code": "94541-4108",
        "country": "United States",
        "longitude": "-122.0768666",
        "latitude": "37.6770284",
        "phone": "5108869823",
        "website_url": "http://www.buffalobillsbrewery.com",
        "state": "California",
        "street": "1082 B St"
    },
    {
        "id": "28001115-35a0-41eb-93f3-c5f2de448461",
        "name": "Buffalo Brewing Co",
        "brewery_type": "planning",
        "address_1": "790 Hop Rd",
        "address_2": null,
        "address_3": null,
        "city": "Toppenish",
        "state_province": "Washington",
        "postal_code": "98948-9674",
        "country": "United States",
        "longitude": "-120.1634675",
        "latitude": "46.23727233",
        "phone": null,
        "website_url": null,
        "state": "Washington",
        "street": "790 Hop Rd"
    },
    {
        "id": "3bcf5ff2-81b5-4805-ad50-92ec6d059d3c",
        "name": "Buffalo Brewing Company",
        "brewery_type": "micro",
        "address_1": "314 Myrtle Ave",
        "address_2": null,
        "address_3": null,
        "city": "Buffalo",
        "state_province": "New York",
        "postal_code": "14204-2058",
        "country": "United States",
        "longitude": "-78.85968835",
        "latitude": "42.87851264",
        "phone": "7168682218",
        "website_url": "http://www.buffalo-brewing-company.com",
        "state": "New York",
        "street": "314 Myrtle Ave"
    },
    {
        "id": "56325083-b952-40de-b38c-76beb3b3b876",
        "name": "Buffalo Brewing Company At The Water Buffalo",
        "brewery_type": "micro",
        "address_1": "106 S Rodney Parham Rd",
        "address_2": null,
        "address_3": null,
        "city": "Little Rock",
        "state_province": "Arkansas",
        "postal_code": "72205",
        "country": "United States",
        "longitude": "-92.366648",
        "latitude": "34.752616",
        "phone": "5012311062",
        "website_url": "http://www.thewaterbuffalo.com",
        "state": "Arkansas",
        "street": "106 S Rodney Parham Rd"
    },
    {
        "id": "b52360f6-016f-453a-b9e1-67c5d0ca9b60",
        "name": "Buffalo Brewpub",
        "brewery_type": "brewpub",
        "address_1": "6861 Main St",
        "address_2": null,
        "address_3": null,
        "city": "Buffalo",
        "state_province": "New York",
        "postal_code": "14221-5929",
        "country": "United States",
        "longitude": "-78.831057",
        "latitude": "42.946564",
        "phone": "7166320552",
        "website_url": "http://www.buffalobrewpub.com",
        "state": "New York",
        "street": "6861 Main St"
    },
    {
        "id": "6bd08522-4294-441d-8727-1e7c61e19e41",
        "name": "Buffalo Commons Brewing Company",
        "brewery_type": "micro",
        "address_1": "2307 Memorial Hwy",
        "address_2": null,
        "address_3": null,
        "city": "Mandan",
        "state_province": "North Dakota",
        "postal_code": "58554-4624",
        "country": "United States",
        "longitude": "-100.8618267",
        "latitude": "46.82409056",
        "phone": "7015952255",
        "website_url": "http://www.buffalocommonsbeer.com",
        "state": "North Dakota",
        "street": "2307 Memorial Hwy"
    },
    {
        "id": "0e2a877e-eb87-46bc-a614-c27999391442",
        "name": "Buffalo Creek Brewing",
        "brewery_type": "micro",
        "address_1": "360 Historical Ln",
        "address_2": null,
        "address_3": null,
        "city": "Long Grove",
        "state_province": "Illinois",
        "postal_code": "60047-9613",
        "country": "United States",
        "longitude": "-87.99776222",
        "latitude": "42.17719457",
        "phone": "8478216140",
        "website_url": "http://www.facebook.com/buffalocreekbrewing",
        "state": "Illinois",
        "street": "360 Historical Ln"
    },
    {
        "id": "c32ab865-0ed9-4136-bffe-f5d61dff11f4",
        "name": "Buffalo Mountain Brewery",
        "brewery_type": "micro",
        "address_1": "332 Webbs Mill Rd N",
        "address_2": null,
        "address_3": null,
        "city": "Floyd",
        "state_province": "Virginia",
        "postal_code": "24091",
        "country": "United States",
        "longitude": "-80.32462582",
        "latitude": "36.92079563",
        "phone": null,
        "website_url": null,
        "state": "Virginia",
        "street": "332 Webbs Mill Rd N"
    },
    {
        "id": "52c75863-28c7-43cf-8700-3357885beea3",
        "name": "Buffalo Ridge Brewing",
        "brewery_type": "micro",
        "address_1": "102 N Main Ave",
        "address_2": null,
        "address_3": null,
        "city": "Hartford",
        "state_province": "South Dakota",
        "postal_code": "57033-2165",
        "country": "United States",
        "longitude": "-96.94549247",
        "latitude": "43.62226751",
        "phone": "6055282739",
        "website_url": "http://buffaloridgebrewing.com",
        "state": "South Dakota",
        "street": "102 N Main Ave"
    },
    {
        "id": "84d94163-0441-44eb-bd8d-c8d05005ff32",
        "name": "Buffalo RiverWorks Brewery",
        "brewery_type": "brewpub",
        "address_1": "359 Ganson St",
        "address_2": null,
        "address_3": null,
        "city": "Buffalo",
        "state_province": "New York",
        "postal_code": "14203-3062",
        "country": "United States",
        "longitude": "-78.87249292",
        "latitude": "42.8696795",
        "phone": "7163422292",
        "website_url": "http://www.buffaloriverworks.com",
        "state": "New York",
        "street": "359 Ganson St"
    },
    {
        "id": "89c19afc-7874-4372-8edf-1e86f9e0fe90",
        "name": "Buffalo Theory Brewing Co. LLC",
        "brewery_type": "planning",
        "address_1": null,
        "address_2": null,
        "address_3": null,
        "city": "Merritt Island",
        "state_province": "Florida",
        "postal_code": "32953-3222",
        "country": "United States",
        "longitude": null,
        "latitude": null,
        "phone": null,
        "website_url": "http://www.Buffalotheorybrewingco.com",
        "state": "Florida",
        "street": null
    },
    {
        "id": "b9a37b8e-13e6-4c20-aeda-c19bdc6a0804",
        "name": "Buffalo Water Beer Co",
        "brewery_type": "closed",
        "address_1": "309 N Water St, #315",
        "address_2": null,
        "address_3": null,
        "city": "Milwaukee",
        "state_province": "Wisconsin",
        "postal_code": "53202-5710",
        "country": "United States",
        "longitude": "-87.9092089",
        "latitude": "43.0341323",
        "phone": "4142734680",
        "website_url": "http://www.buffalowaterbeer.com",
        "state": "Wisconsin",
        "street": "309 N Water St, #315"
    },
    {
        "id": "ebeb8215-5ffe-4bd6-af1f-d39016bc77e4",
        "name": "Bugnutty Brewing Company",
        "brewery_type": "brewpub",
        "address_1": "715 N Courtenay Pkwy",
        "address_2": null,
        "address_3": null,
        "city": "Merritt Island",
        "state_province": "Florida",
        "postal_code": "32953-4651",
        "country": "United States",
        "longitude": null,
        "latitude": null,
        "phone": "3214524460",
        "website_url": "http://www.bugnutty.com",
        "state": "Florida",
        "street": "715 N Courtenay Pkwy"
    },
    {
        "id": "f20f4c6b-9e45-4ff6-af3e-c3f11d6a1828",
        "name": "Building 8 Brewing",
        "brewery_type": "micro",
        "address_1": "320 Riverside Dr Ste 8",
        "address_2": null,
        "address_3": null,
        "city": "Florence",
        "state_province": "Massachusetts",
        "postal_code": "01062-2750",
        "country": "United States",
        "longitude": null,
        "latitude": null,
        "phone": "4132501602",
        "website_url": null,
        "state": "Massachusetts",
        "street": "320 Riverside Dr Ste 8"
    },
    {
        "id": "3a0cfc97-fb6d-4485-9aee-1df7b8c8091a",
        "name": "Bull & Bones Brewhaus & Grill",
        "brewery_type": "brewpub",
        "address_1": "1470 S Main St Ste 120",
        "address_2": null,
        "address_3": null,
        "city": "Blacksburg",
        "state_province": "Virginia",
        "postal_code": "24060-5571",
        "country": "United States",
        "longitude": null,
        "latitude": null,
        "phone": "5409532855",
        "website_url": "http://www.bullandbones.com",
        "state": "Virginia",
        "street": "1470 S Main St Ste 120"
    },
    {
        "id": "a235f4c4-1a4f-4ef7-bbaf-b95142e2bd44",
        "name": "Bull & Bush Brewery",
        "brewery_type": "brewpub",
        "address_1": "4700 E Cherry Creek South Dr",
        "address_2": null,
        "address_3": null,
        "city": "Denver",
        "state_province": "Colorado",
        "postal_code": "80246-1819",
        "country": "United States",
        "longitude": "-104.9488456",
        "latitude": "39.7116689",
        "phone": "3037590333",
        "website_url": "http://www.bullandbush.com",
        "state": "Colorado",
        "street": "4700 E Cherry Creek South Dr"
    },
    {
        "id": "efc9b189-81df-447a-a2eb-c94828d4d275",
        "name": "Bull and Barrel Brew Pub",
        "brewery_type": "brewpub",
        "address_1": "988 Route 22",
        "address_2": null,
        "address_3": null,
        "city": "Brewster",
        "state_province": "New York",
        "postal_code": "10509-1576",
        "country": "United States",
        "longitude": null,
        "latitude": null,
        "phone": "8452782855",
        "website_url": "http://www.bullandbarrelbrewpub.com",
        "state": "New York",
        "street": "988 Route 22"
    },
    {
        "id": "cd922df7-7e27-4fdd-9beb-a203c859b25f",
        "name": "Bull and Goat Brewery",
        "brewery_type": "micro",
        "address_1": "204 Banjo Ln",
        "address_2": null,
        "address_3": null,
        "city": "Centreville",
        "state_province": "Maryland",
        "postal_code": "21617-1067",
        "country": "United States",
        "longitude": null,
        "latitude": null,
        "phone": null,
        "website_url": "http://www.bullandgoatbrewery.com",
        "state": "Maryland",
        "street": "204 Banjo Ln"
    },
    {
        "id": "d89ba7ba-c249-48a2-bae7-48f3b39cb18f",
        "name": "Bull City Burger And Brewery",
        "brewery_type": "brewpub",
        "address_1": "107 E Parrish St Ste 105",
        "address_2": null,
        "address_3": null,
        "city": "Durham",
        "state_province": "North Carolina",
        "postal_code": "27701-3318",
        "country": "United States",
        "longitude": null,
        "latitude": null,
        "phone": "9196802333",
        "website_url": "http://www.bullcityburgerandbrewery.com",
        "state": "North Carolina",
        "street": "107 E Parrish St Ste 105"
    },
    {
        "id": "2a1e79cc-7f90-4309-a7c7-ab03566417dd",
        "name": "Bull Creek Brewing Company",
        "brewery_type": "proprietor",
        "address_1": "7100 FM3405",
        "address_2": null,
        "address_3": null,
        "city": "Liberty Hill",
        "state_province": "Texas",
        "postal_code": "78642",
        "country": "United States",
        "longitude": null,
        "latitude": null,
        "phone": "5128399510",
        "website_url": "http://www.bullcreekbrewing.com",
        "state": "Texas",
        "street": "7100 FM3405"
    },
    {
        "id": "6e967aa2-6e2b-4396-ac4e-d4cd8119cbb3",
        "name": "Bull Durham Beer Co",
        "brewery_type": "micro",
        "address_1": "409 Blackwell St",
        "address_2": null,
        "address_3": null,
        "city": "Durham",
        "state_province": "North Carolina",
        "postal_code": "27701-3972",
        "country": "United States",
        "longitude": "-78.90481568",
        "latitude": "35.9915653",
        "phone": "9197443568",
        "website_url": "http://www.bulldurhambeer.com",
        "state": "North Carolina",
        "street": "409 Blackwell St"
    },
    {
        "id": "553af7a3-d288-43f0-b635-aee72520cf49",
        "name": "Bull Falls Brewery LLC",
        "brewery_type": "micro",
        "address_1": "901 E Thomas St",
        "address_2": null,
        "address_3": null,
        "city": "Wausau",
        "state_province": "Wisconsin",
        "postal_code": "54403-6450",
        "country": "United States",
        "longitude": "-89.6174386",
        "latitude": "44.951511",
        "phone": "715842",
        "website_url": "http://www.bullfallsbrewery.com",
        "state": "Wisconsin",
        "street": "901 E Thomas St"
    },
    {
        "id": "1f031549-a4ca-4e92-99ff-f1f75118edd0",
        "name": "Bull Island Brewing Company",
        "brewery_type": "brewpub",
        "address_1": "758 Settlers Landing Rd",
        "address_2": null,
        "address_3": null,
        "city": "Hampton",
        "state_province": "Virginia",
        "postal_code": "23669-4035",
        "country": "United States",
        "longitude": "-76.34206545",
        "latitude": "37.02487345",
        "phone": "7577889489",
        "website_url": "http://www.bullislandbrewing.com",
        "state": "Virginia",
        "street": "758 Settlers Landing Rd"
    },
    {
        "id": "4ce7444f-655c-4a51-9dc6-47406b1896ca",
        "name": "Bulldog Brewing",
        "brewery_type": "brewpub",
        "address_1": "1409 119th St",
        "address_2": null,
        "address_3": null,
        "city": "Whiting",
        "state_province": "Indiana",
        "postal_code": "46394-1714",
        "country": "United States",
        "longitude": "-87.4951351",
        "latitude": "41.679491",
        "phone": "2196555284",
        "website_url": "http://www.bulldogbrewingco.com",
        "state": "Indiana",
        "street": "1409 119th St"
    },
    {
        "id": "b495c351-4df5-430d-9776-fc48d062b311",
        "name": "Bullfrog Brewery",
        "brewery_type": "brewpub",
        "address_1": "229 W 4th St",
        "address_2": null,
        "address_3": null,
        "city": "Williamsport",
        "state_province": "Pennsylvania",
        "postal_code": "17701-6112",
        "country": "United States",
        "longitude": "-77.051529",
        "latitude": "41.2399548",
        "phone": "5703264700",
        "website_url": "http://www.bullfrogbrewery.com",
        "state": "Pennsylvania",
        "street": "229 W 4th St"
    },
    {
        "id": "eb1f4dd4-a8f7-44ea-8bbe-958893a45b22",
        "name": "Bullfrog Brewery - Production Only",
        "brewery_type": "micro",
        "address_1": "229 W 4th St",
        "address_2": null,
        "address_3": null,
        "city": "Williamsport",
        "state_province": "Pennsylvania",
        "postal_code": "17701-6112",
        "country": "United States",
        "longitude": "-77.051529",
        "latitude": "41.2399548",
        "phone": "5703264700",
        "website_url": null,
        "state": "Pennsylvania",
        "street": "229 W 4th St"
    },
    {
        "id": "5aeae53c-94dd-42aa-9bf0-bbd23df9b767",
        "name": "Bullfrog Creek Brewing Company",
        "brewery_type": "micro",
        "address_1": "3632 Lithia Pinecrest Rd",
        "address_2": null,
        "address_3": null,
        "city": "Valrico",
        "state_province": "Florida",
        "postal_code": "33596-6305",
        "country": "United States",
        "longitude": "-82.2695872",
        "latitude": "27.9229731",
        "phone": "8137038835",
        "website_url": "http://www.bullfrogcreekbrewing.com",
        "state": "Florida",
        "street": "3632 Lithia Pinecrest Rd"
    },
    {
        "id": "68e24159-8a63-4f9e-9230-4fb8f629668a",
        "name": "Bullquarian Brewhouse",
        "brewery_type": "brewpub",
        "address_1": "1128 17th Ave",
        "address_2": null,
        "address_3": null,
        "city": "Monroe",
        "state_province": "Wisconsin",
        "postal_code": "53566-2007",
        "country": "United States",
        "longitude": "-89.6383093",
        "latitude": "42.60032375",
        "phone": "6084266720",
        "website_url": "https://www.facebook.com/Bullquarianbrewhouse",
        "state": "Wisconsin",
        "street": "1128 17th Ave"
    },
    {
        "id": "140ab37b-0136-42c2-99f6-f8b4c2c48b59",
        "name": "Bullthistle Brewing Co.",
        "brewery_type": "brewpub",
        "address_1": "45 S Main St",
        "address_2": null,
        "address_3": null,
        "city": "Sherburne",
        "state_province": "New York",
        "postal_code": "13460-9202",
        "country": "United States",
        "longitude": "-75.49576861",
        "latitude": "42.67156527",
        "phone": "6076742337",
        "website_url": null,
        "state": "New York",
        "street": "45 S Main St"
    },
    {
        "id": "7669b9ef-f467-4bc6-a8c2-95be8ed156a9",
        "name": "Bunker Brewing Co",
        "brewery_type": "micro",
        "address_1": "17 Westfield St Unit D",
        "address_2": null,
        "address_3": null,
        "city": "Portland",
        "state_province": "Maine",
        "postal_code": "04102-2730",
        "country": "United States",
        "longitude": null,
        "latitude": null,
        "phone": "2074505014",
        "website_url": "http://www.bunkerbrewingco.com",
        "state": "Maine",
        "street": "17 Westfield St Unit D"
    },
    {
        "id": "3cb1a817-c050-4afc-af5e-40d83e9e2e84",
        "name": "Bunsenbrewer",
        "brewery_type": "brewpub",
        "address_1": "16506 362nd Dr",
        "address_2": null,
        "address_3": null,
        "city": "Sandy",
        "state_province": "Oregon",
        "postal_code": "97055-9279",
        "country": "United States",
        "longitude": "-122.2904067",
        "latitude": "45.4042245",
        "phone": "5033083150",
        "website_url": "http://www.bunsenbrewer.com",
        "state": "Oregon",
        "street": "16506 362nd Dr"
    },
    {
        "id": "fdec8f24-19f5-4415-b7a0-b029db48735f",
        "name": "Buon Appetito Ristorante",
        "brewery_type": "brewpub",
        "address_1": "6147 York Rd",
        "address_2": null,
        "address_3": null,
        "city": "Spring Grove",
        "state_province": "Pennsylvania",
        "postal_code": "17362-9120",
        "country": "United States",
        "longitude": null,
        "latitude": null,
        "phone": "7172250666",
        "website_url": "http://www.buon-appetito-ristorante.com",
        "state": "Pennsylvania",
        "street": "6147 York Rd"
    },
    {
        "id": "43cc17d8-347f-4d72-9a2c-fdc75e562b77",
        "name": "Buoy Beer Company",
        "brewery_type": "micro",
        "address_1": "1 8th St",
        "address_2": null,
        "address_3": null,
        "city": "Astoria",
        "state_province": "Oregon",
        "postal_code": "97103-4506",
        "country": "United States",
        "longitude": "-123.835151",
        "latitude": "46.1913235",
        "phone": "5033254540",
        "website_url": "http://www.buoybeer.com",
        "state": "Oregon",
        "street": "1 8th St"
    },
    {
        "id": "e08ccb72-2e87-42f2-92d8-e5987c724b02",
        "name": "Bur Oak Brewing Company",
        "brewery_type": "micro",
        "address_1": "8250 E Trade Center Dr",
        "address_2": null,
        "address_3": null,
        "city": "Columbia",
        "state_province": "Missouri",
        "postal_code": "65201-7635",
        "country": "United States",
        "longitude": "-92.210993",
        "latitude": "38.954686",
        "phone": "5738142178",
        "website_url": "http://www.buroakbeer.com",
        "state": "Missouri",
        "street": "8250 E Trade Center Dr"
    },
    {
        "id": "b340b266-417c-42f7-8344-1545ced2ee6c",
        "name": "Burdick Brewery",
        "brewery_type": "closed",
        "address_1": "8520 14th Ave S",
        "address_2": null,
        "address_3": null,
        "city": "Seattle",
        "state_province": "Washington",
        "postal_code": "98108-4803",
        "country": "United States",
        "longitude": "-122.3145617",
        "latitude": "47.5267286",
        "phone": "2069099632",
        "website_url": "http://www.burdickbrewery.com",
        "state": "Washington",
        "street": "8520 14th Ave S"
    },
    {
        "id": "89440fb9-0739-4f65-adc1-591bf30c62ff",
        "name": "Burgeon Beer Company",
        "brewery_type": "micro",
        "address_1": "6350 Yarrow Dr Ste C",
        "address_2": null,
        "address_3": null,
        "city": "Carlsbad",
        "state_province": "California",
        "postal_code": "92011-1544",
        "country": "United States",
        "longitude": "-117.2732302",
        "latitude": "33.11992082",
        "phone": "7608142548",
        "website_url": "http://www.burgeonbeer.com",
        "state": "California",
        "street": "6350 Yarrow Dr Ste C"
    },
    {
        "id": "358b70d1-d86d-4001-9a3f-2acf644cc88b",
        "name": "Burgh\u00e2\u0080\u0099ers Brewing",
        "brewery_type": "micro",
        "address_1": "22410 Perry Hwy Ste 410E",
        "address_2": null,
        "address_3": null,
        "city": "Zelienople",
        "state_province": "Pennsylvania",
        "postal_code": "16063-2935",
        "country": "United States",
        "longitude": null,
        "latitude": null,
        "phone": "4129739628",
        "website_url": "http://Burgherspgh.com",
        "state": "Pennsylvania",
        "street": "22410 Perry Hwy Ste 410E"
    },
    {
        "id": "7bdc2c91-ce80-4fb3-b2a2-bb9f7c8ab5bf",
        "name": "Burgundian Brewing Co.",
        "brewery_type": "micro",
        "address_1": "4725 Lipan St",
        "address_2": null,
        "address_3": null,
        "city": "Denver",
        "state_province": "Colorado",
        "postal_code": "80211-2334",
        "country": "United States",
        "longitude": "-105.0024095",
        "latitude": "39.7825168",
        "phone": "4704400420",
        "website_url": "http://www.facebook.com/BurgundianBrewing",
        "state": "Colorado",
        "street": "4725 Lipan St"
    },
    {
        "id": "b571a872-4317-48e2-a0a2-18607eedb6e7",
        "name": "Burial Beer Co",
        "brewery_type": "micro",
        "address_1": "40 Collier Ave",
        "address_2": null,
        "address_3": null,
        "city": "Asheville",
        "state_province": "North Carolina",
        "postal_code": "28801-4024",
        "country": "United States",
        "longitude": "-82.55379062",
        "latitude": "35.5879562",
        "phone": null,
        "website_url": "http://www.burialbeer.com",
        "state": "North Carolina",
        "street": "40 Collier Ave"
    },
    {
        "id": "854f374d-ad3e-4b8a-b1e5-b780eba1918a",
        "name": "Burial Beer Co Forestry Camp",
        "brewery_type": "micro",
        "address_1": null,
        "address_2": null,
        "address_3": null,
        "city": "Asheville",
        "state_province": "North Carolina",
        "postal_code": "28803-2719",
        "country": "United States",
        "longitude": null,
        "latitude": null,
        "phone": null,
        "website_url": null,
        "state": "North Carolina",
        "street": null
    },
    {
        "id": "7a574a98-f92d-4d8e-9cdb-20a3facda0a0",
        "name": "Buried Acorn Brewing Company",
        "brewery_type": "planning",
        "address_1": null,
        "address_2": null,
        "address_3": null,
        "city": "Syracuse",
        "state_province": "New York",
        "postal_code": "13204-1156",
        "country": "United States",
        "longitude": null,
        "latitude": null,
        "phone": "3155521499",
        "website_url": "http://www.buriedacorn.com",
        "state": "New York",
        "street": null
    },
    {
        "id": "a743ab27-0175-4ef3-b65f-1d5e67af200a",
        "name": "Burke-Gilman Brewing",
        "brewery_type": "micro",
        "address_1": "3626 NE 45th St Ste 102",
        "address_2": null,
        "address_3": null,
        "city": "Seattle",
        "state_province": "Washington",
        "postal_code": "98105-5652",
        "country": "United States",
        "longitude": "-122.2880715",
        "latitude": "47.66183205",
        "phone": "2062680220",
        "website_url": "http://www.burkegilmanbrewing.com/",
        "state": "Washington",
        "street": "3626 NE 45th St Ste 102"
    },
    {
        "id": "e098a1d2-6efb-4aff-854f-4013ba2b9e57",
        "name": "Burke's Alewerks",
        "brewery_type": "micro",
        "address_1": "200 Webster St Ste 3",
        "address_2": null,
        "address_3": null,
        "city": "Hanover",
        "state_province": "Massachusetts",
        "postal_code": "02339-1230",
        "country": "United States",
        "longitude": null,
        "latitude": null,
        "phone": "7813128207",
        "website_url": "http://www.burkesalewerks.com",
        "state": "Massachusetts",
        "street": "200 Webster St Ste 3"
    },
    {
        "id": "90e8f363-3b72-4ca9-bef8-b3a2ab6008df",
        "name": "Burley Oak Craft Brewery",
        "brewery_type": "micro",
        "address_1": "10016 Old Ocean City Blvd",
        "address_2": null,
        "address_3": null,
        "city": "Berlin",
        "state_province": "Maryland",
        "postal_code": "21811-1145",
        "country": "United States",
        "longitude": "-75.2169864",
        "latitude": "38.3336448",
        "phone": "4104228887",
        "website_url": "http://www.burleyoak.com",
        "state": "Maryland",
        "street": "10016 Old Ocean City Blvd"
    },
    {
        "id": "bc2ab74e-761e-45de-91ae-00deb4e0dd9b",
        "name": "Burlington Beer Company",
        "brewery_type": "micro",
        "address_1": "25 Omega Dr Ste 150",
        "address_2": null,
        "address_3": null,
        "city": "Williston",
        "state_province": "Vermont",
        "postal_code": "05495-7334",
        "country": "United States",
        "longitude": null,
        "latitude": null,
        "phone": "8028632337",
        "website_url": "http://www.burlingtonbeercompany.com",
        "state": "Vermont",
        "street": "25 Omega Dr Ste 150"
    },
    {
        "id": "793cbd77-2732-4885-b54b-4731b9cb226c",
        "name": "Burly Brewing Company, LLC",
        "brewery_type": "micro",
        "address_1": "680 Atchison Way Ste 700-800",
        "address_2": null,
        "address_3": null,
        "city": "Castle Rock",
        "state_province": "Colorado",
        "postal_code": "80109-3106",
        "country": "United States",
        "longitude": null,
        "latitude": null,
        "phone": null,
        "website_url": "http://www.burlybrewing.com",
        "state": "Colorado",
        "street": "680 Atchison Way Ste 700-800"
    },
    {
        "id": "c0c4af99-eb53-4114-b976-de76d111596f",
        "name": "Burn'Em Brewing",
        "brewery_type": "brewpub",
        "address_1": "718 Freyer Rd",
        "address_2": null,
        "address_3": null,
        "city": "Michigan City",
        "state_province": "Indiana",
        "postal_code": "46360-1911",
        "country": "United States",
        "longitude": "-86.82979191",
        "latitude": "41.73849717",
        "phone": "2193938606",
        "website_url": "http://www.burnembrewing.com",
        "state": "Indiana",
        "street": "718 Freyer Rd"
    },
    {
        "id": "d6ca5aa0-a5de-454f-8cf6-66b68310f73f",
        "name": "Burnin Daylight Brewing Company",
        "brewery_type": "planning",
        "address_1": null,
        "address_2": null,
        "address_3": null,
        "city": "Lomita",
        "state_province": "California",
        "postal_code": "90717",
        "country": "United States",
        "longitude": "-118.3195014",
        "latitude": "33.8036545",
        "phone": "3107417621",
        "website_url": null,
        "state": "California",
        "street": null
    },
    {
        "id": "af0aba6a-a22a-43eb-8f5c-3097f38f156f",
        "name": "Burning Beard Brewing",
        "brewery_type": "micro",
        "address_1": "785 Vernon Way",
        "address_2": null,
        "address_3": null,
        "city": "El Cajon",
        "state_province": "California",
        "postal_code": "92020-1938",
        "country": "United States",
        "longitude": "-116.9717836",
        "latitude": "32.81201287",
        "phone": "6194569185",
        "website_url": "http://www.burningbeardbrewing.com",
        "state": "California",
        "street": "785 Vernon Way"
    },
    {
        "id": "80003377-c4c9-4ab6-83e2-11046a1a287a",
        "name": "Burning Brothers Brewing",
        "brewery_type": "micro",
        "address_1": "1750 Thomas Ave Ste 2",
        "address_2": null,
        "address_3": null,
        "city": "Saint Paul",
        "state_province": "Minnesota",
        "postal_code": "55104-2918",
        "country": "United States",
        "longitude": null,
        "latitude": null,
        "phone": "6514448882",
        "website_url": "http://burnbrosbrew.com",
        "state": "Minnesota",
        "street": "1750 Thomas Ave Ste 2"
    },
    {
        "id": "46cf9ab8-ae15-4f2f-9ad6-50b200e8ba94",
        "name": "Burning Bush Brewery",
        "brewery_type": "planning",
        "address_1": null,
        "address_2": null,
        "address_3": null,
        "city": "Wilmette",
        "state_province": "Illinois",
        "postal_code": "60091-2703",
        "country": "United States",
        "longitude": null,
        "latitude": null,
        "phone": null,
        "website_url": null,
        "state": "Illinois",
        "street": null
    },
    {
        "id": "1b59fbb0-0fd2-4daa-9041-5799da9320db",
        "name": "Burning Sky Brewery Ltd",
        "brewery_type": "micro",
        "address_1": "Place Barn",
        "address_2": null,
        "address_3": null,
        "city": "Lewes",
        "state_province": "East Sussex",
        "postal_code": "BN8 6LP",
        "country": "England",
        "longitude": "0.087961",
        "latitude": "50.844723",
        "phone": "1273858080",
        "website_url": "https://www.burningskybeer.com/",
        "state": "East Sussex",
        "street": "Place Barn"
    },
    {
        "id": "8475bb73-3d83-4191-9b9f-ecd918b1ec0f",
        "name": "Burns Family Artisan Ales",
        "brewery_type": "planning",
        "address_1": null,
        "address_2": null,
        "address_3": null,
        "city": "Denver",
        "state_province": "Colorado",
        "postal_code": "80219-1655",
        "country": "United States",
        "longitude": null,
        "latitude": null,
        "phone": "2482242697",
        "website_url": null,
        "state": "Colorado",
        "street": null
    },
    {
        "id": "94570768-e3ca-4d69-a292-35dea27a24c9",
        "name": "Burnside Brewing Co",
        "brewery_type": "micro",
        "address_1": "701 E Burnside St",
        "address_2": null,
        "address_3": null,
        "city": "Portland",
        "state_province": "Oregon",
        "postal_code": "97214-1218",
        "country": "United States",
        "longitude": "-122.6584695",
        "latitude": "45.5233261",
        "phone": "5032083476",
        "website_url": "http://www.burnsidebrewco.com",
        "state": "Oregon",
        "street": "701 E Burnside St"
    },
    {
        "id": "a4aa30b0-6073-4a0b-b9ca-c8669fa9f816",
        "name": "Burnt City Brewing",
        "brewery_type": "micro",
        "address_1": "2747 N Lincoln Ave",
        "address_2": null,
        "address_3": null,
        "city": "Chicago",
        "state_province": "Illinois",
        "postal_code": "60614-1320",
        "country": "United States",
        "longitude": "-87.65722732",
        "latitude": "41.93185255",
        "phone": "7732951270",
        "website_url": "http://www.burntcitybrewing.com",
        "state": "Illinois",
        "street": "2747 N Lincoln Ave"
    },
    {
        "id": "179ddd44-f2d8-4a98-ab38-ceeca78c11ad",
        "name": "Burnt Hickory Brewery",
        "brewery_type": "micro",
        "address_1": "2260 Moon Station Ct NW Ste 210",
        "address_2": null,
        "address_3": null,
        "city": "Kennesaw",
        "state_province": "Georgia",
        "postal_code": "30144-5653",
        "country": "United States",
        "longitude": null,
        "latitude": null,
        "phone": "7705148812",
        "website_url": "http://www.burnthickorybrewery.com",
        "state": "Georgia",
        "street": "2260 Moon Station Ct NW Ste 210"
    },
    {
        "id": "e528714d-4002-4d80-8415-a8cf895ed4ab",
        "name": "Burnt Timber Brewing",
        "brewery_type": "brewpub",
        "address_1": "96 Lehner St",
        "address_2": null,
        "address_3": null,
        "city": "Wolfeboro",
        "state_province": "New Hampshire",
        "postal_code": "03894",
        "country": "United States",
        "longitude": "-71.20968924",
        "latitude": "43.58632316",
        "phone": "6036303605",
        "website_url": "http://www.burnttimbertavern.com",
        "state": "New Hampshire",
        "street": "96 Lehner St"
    },
    {
        "id": "5215f56d-865c-4e1a-ac01-6588a2bf05cc",
        "name": "Burren Brewery",
        "brewery_type": "brewpub",
        "address_1": "Kincora Rd",
        "address_2": "Rathbaun",
        "address_3": null,
        "city": "Lisdoonvarna",
        "state_province": "Clare",
        "postal_code": "V95 T85K",
        "country": "Ireland",
        "longitude": "-9.2928309",
        "latitude": "53.0283605",
        "phone": "353899816801",
        "website_url": "http://www.roadsidetavern.ie/roadside/?q=burren-storehouse",
        "state": "Clare",
        "street": "Kincora Rd"
    },
    {
        "id": "53d04d81-f93b-44ce-83aa-f2b0baa852ed",
        "name": "Burt Lake Brewery / Seasons of the North Winery",
        "brewery_type": "micro",
        "address_1": "9090 W M-68 Hwy",
        "address_2": null,
        "address_3": null,
        "city": "Alanson",
        "state_province": "Michigan",
        "postal_code": "49706",
        "country": "United States",
        "longitude": null,
        "latitude": null,
        "phone": "2315481280",
        "website_url": "http://www.burtlakebrewery.com",
        "state": "Michigan",
        "street": "9090 W M-68 Hwy"
    },
    {
        "id": "3b6721e6-29b6-4eeb-81e5-a105fa4178d4",
        "name": "Burwood Brewing Company",
        "brewery_type": "micro",
        "address_1": "1120 E St",
        "address_2": null,
        "address_3": null,
        "city": "Walla Walla",
        "state_province": "Washington",
        "postal_code": "99362-9505",
        "country": "United States",
        "longitude": "-118.2653286",
        "latitude": "46.0940928",
        "phone": "5098766220",
        "website_url": "http://www.burwoodbrewing.com",
        "state": "Washington",
        "street": "1120 E St"
    },
    {
        "id": "2403a143-2664-4c84-a0c3-a97aa99f71de",
        "name": "Bury Me Brewing Company",
        "brewery_type": "micro",
        "address_1": "4224 Cleveland Ave Ste 7",
        "address_2": null,
        "address_3": null,
        "city": "Fort Myers",
        "state_province": "Florida",
        "postal_code": "33901-9051",
        "country": "United States",
        "longitude": null,
        "latitude": null,
        "phone": "2393322337",
        "website_url": "http://www.burymebrewing.com",
        "state": "Florida",
        "street": "4224 Cleveland Ave Ste 7"
    },
    {
        "id": "86531644-17de-4385-af71-82574666baa6",
        "name": "Bushy\u2019s Brewery Ltd",
        "brewery_type": "micro",
        "address_1": "Mount Murray",
        "address_2": null,
        "address_3": null,
        "city": "Braddan",
        "state_province": "Middle",
        "postal_code": "IM4 1JE",
        "country": "Isle of Man",
        "longitude": "-4.55793831939852",
        "latitude": "54.1361028652688",
        "phone": "+441624611101",
        "website_url": "https://www.bushys.com/",
        "state": "Middle",
        "street": "Mount Murray"
    },
    {
        "id": "0e5a4e78-b806-4b0c-a267-3b237a270ce1",
        "name": "Busted Knuckle Brewery",
        "brewery_type": "micro",
        "address_1": "303 1st Ave S",
        "address_2": null,
        "address_3": null,
        "city": "Glasgow",
        "state_province": "Montana",
        "postal_code": "59230-2308",
        "country": "United States",
        "longitude": "-106.6335464",
        "latitude": "48.1938472",
        "phone": "4062282277",
        "website_url": null,
        "state": "Montana",
        "street": "303 1st Ave S"
    },
    {
        "id": "678c1f63-2b15-4900-84bd-c11c47dcf26a",
        "name": "Busted Knuckle Brewery",
        "brewery_type": "micro",
        "address_1": "213 11th St W",
        "address_2": null,
        "address_3": null,
        "city": "Williston",
        "state_province": "North Dakota",
        "postal_code": "58801-5125",
        "country": "United States",
        "longitude": "-103.6271886",
        "latitude": "48.15635372",
        "phone": "7015772277",
        "website_url": "http://bkbwilliston.com",
        "state": "North Dakota",
        "street": "213 11th St W"
    },
    {
        "id": "31492f5d-c872-461c-b6c5-752ced93759a",
        "name": "Busted Sandal Brewing Company",
        "brewery_type": "micro",
        "address_1": "7114 Oaklawn Dr",
        "address_2": null,
        "address_3": null,
        "city": "San Antonio",
        "state_province": "Texas",
        "postal_code": "78229-3021",
        "country": "United States",
        "longitude": null,
        "latitude": null,
        "phone": "2108721486",
        "website_url": "http://www.bustedsandalbrewing.com",
        "state": "Texas",
        "street": "7114 Oaklawn Dr"
    },
    {
        "id": "bd51516b-caf1-46ea-9695-a330004f6d78",
        "name": "Buster's Brew Pub",
        "brewery_type": "brewpub",
        "address_1": "Euphrates River Valley Road Bldg P-4350",
        "address_2": null,
        "address_3": null,
        "city": "Fort Drum",
        "state_province": "New York",
        "postal_code": "13602",
        "country": "United States",
        "longitude": null,
        "latitude": null,
        "phone": "3157721900",
        "website_url": "http://www.drummwr.com",
        "state": "New York",
        "street": "Euphrates River Valley Road Bldg P-4350"
    },
    {
        "id": "76428248-05e8-4db4-a1d8-5b561571973f",
        "name": "Butcherknife Brewing Company",
        "brewery_type": "micro",
        "address_1": "2875 Elk River Rd",
        "address_2": null,
        "address_3": null,
        "city": "Steamboat Springs",
        "state_province": "Colorado",
        "postal_code": "80487-5076",
        "country": "United States",
        "longitude": "-106.857763",
        "latitude": "40.510887",
        "phone": "9708792337",
        "website_url": "http://www.butcherknifebrewing.com",
        "state": "Colorado",
        "street": "2875 Elk River Rd"
    },
    {
        "id": "f4df6f7e-2332-45e8-98c2-0e917a2177ad",
        "name": "Bute Brew Co",
        "brewery_type": "closed",
        "address_1": "15-17 Columshill Street",
        "address_2": "Rothesay",
        "address_3": null,
        "city": "Isle of Bute",
        "state_province": "Bute",
        "postal_code": "PA20 0DN",
        "country": "Scotland",
        "longitude": "-5.058482",
        "latitude": "55.835396",
        "phone": "1700504206",
        "website_url": "http://butebrewco.co.uk/",
        "state": "Bute",
        "street": "15-17 Columshill Street"
    },
    {
        "id": "29444b11-30a1-4b43-9b9f-541ea67afc94",
        "name": "Butler Brew Works",
        "brewery_type": "brewpub",
        "address_1": "101 S Main St",
        "address_2": null,
        "address_3": null,
        "city": "Butler",
        "state_province": "Pennsylvania",
        "postal_code": "16001-5907",
        "country": "United States",
        "longitude": "-79.895238",
        "latitude": "40.860914",
        "phone": "7242645347",
        "website_url": "http://www.butlerbrewworks.com",
        "state": "Pennsylvania",
        "street": "101 S Main St"
    },
    {
        "id": "bc64b49f-5c63-4298-b87a-f6dd657dd7c8",
        "name": "Butte Brewing Co",
        "brewery_type": "micro",
        "address_1": "465 E Galena St",
        "address_2": null,
        "address_3": null,
        "city": "Butte",
        "state_province": "Montana",
        "postal_code": "59701-1928",
        "country": "United States",
        "longitude": "-112.5259197",
        "latitude": "46.01246804",
        "phone": "4062993953",
        "website_url": "http://www.buttebrewing.com",
        "state": "Montana",
        "street": "465 E Galena St"
    },
    {
        "id": "1f5f4ff1-493b-474f-b705-06619a6fa4b7",
        "name": "Butternuts Beer",
        "brewery_type": "micro",
        "address_1": "4021 State Highway 51",
        "address_2": null,
        "address_3": null,
        "city": "Garrattsville",
        "state_province": "New York",
        "postal_code": "13342-1705",
        "country": "United States",
        "longitude": "-75.1914973",
        "latitude": "42.62396243",
        "phone": "6072635070",
        "website_url": "http://www.butternutsbeer.com",
        "state": "New York",
        "street": "4021 State Highway 51"
    },
    {
        "id": "8626498b-4e07-433b-92ac-41a27a0676f3",
        "name": "Button Brew House, LLC",
        "brewery_type": "micro",
        "address_1": "6800 N Camino Martin Ste 160",
        "address_2": null,
        "address_3": null,
        "city": "Tucson",
        "state_province": "Arizona",
        "postal_code": "85741-2395",
        "country": "United States",
        "longitude": null,
        "latitude": null,
        "phone": "5202688543",
        "website_url": "http://www.button.beer",
        "state": "Arizona",
        "street": "6800 N Camino Martin Ste 160"
    },
    {
        "id": "7499d5f1-3dee-4207-a073-aea0d069ea6b",
        "name": "Buttonwoods Brewery",
        "brewery_type": "micro",
        "address_1": "530 Wellington Ave Ste 22",
        "address_2": null,
        "address_3": null,
        "city": "Cranston",
        "state_province": "Rhode Island",
        "postal_code": "02910-2997",
        "country": "United States",
        "longitude": "-71.4263784",
        "latitude": "41.7731564",
        "phone": "4014612337",
        "website_url": "http://www.buttonwoodsbrewery.com",
        "state": "Rhode Island",
        "street": "530 Wellington Ave Ste 22"
    },
    {
        "id": "047e6c05-5c5f-4eee-b953-0a7c796404c3",
        "name": "Buzz Bomb Brewing Co",
        "brewery_type": "micro",
        "address_1": "406 E Adams St",
        "address_2": null,
        "address_3": null,
        "city": "Springfield",
        "state_province": "Illinois",
        "postal_code": "62701",
        "country": "United States",
        "longitude": "-89.65050394",
        "latitude": "39.8005279",
        "phone": "2176794157",
        "website_url": "http://www.buzzbombbrewingco.com",
        "state": "Illinois",
        "street": "406 E Adams St"
    },
    {
        "id": "3fba5b89-2f49-4d45-8cf6-efc97bea8933",
        "name": "Buzzards Bay Brewing Co",
        "brewery_type": "micro",
        "address_1": "98 Horseneck Rd",
        "address_2": null,
        "address_3": null,
        "city": "Westport",
        "state_province": "Massachusetts",
        "postal_code": "02790-1399",
        "country": "United States",
        "longitude": "-71.04970461",
        "latitude": "41.55207456",
        "phone": "5086362288",
        "website_url": "http://www.buzzardsbrew.com",
        "state": "Massachusetts",
        "street": "98 Horseneck Rd"
    },
    {
        "id": "47b3c151-04cb-47bb-8b74-f46bd3ee1fc3",
        "name": "BW Farm, LLC",
        "brewery_type": "planning",
        "address_1": null,
        "address_2": null,
        "address_3": null,
        "city": "Owings",
        "state_province": "Maryland",
        "postal_code": "20736-9109",
        "country": "United States",
        "longitude": null,
        "latitude": null,
        "phone": "2406727995",
        "website_url": null,
        "state": "Maryland",
        "street": null
    },
    {
        "id": "24ed88ac-5267-4d15-be7a-c6fa35befd1f",
        "name": "Byers Brewing Company",
        "brewery_type": "planning",
        "address_1": null,
        "address_2": null,
        "address_3": null,
        "city": "DeKalb",
        "state_province": "Illinois",
        "postal_code": "60115-4661",
        "country": "United States",
        "longitude": null,
        "latitude": null,
        "phone": "8159705318",
        "website_url": null,
        "state": "Illinois",
        "street": null
    },
    {
        "id": "72a548d0-8bed-4ab0-ac92-467a4cf5546e",
        "name": "Byway Brewing Company",
        "brewery_type": "brewpub",
        "address_1": "2825 Carlson Dr",
        "address_2": null,
        "address_3": null,
        "city": "Hammond",
        "state_province": "Indiana",
        "postal_code": "46323-1183",
        "country": "United States",
        "longitude": null,
        "latitude": null,
        "phone": "2198445458",
        "website_url": "http://www.bywaybrewing.beer",
        "state": "Indiana",
        "street": "2825 Carlson Dr"
    },
    {
        "id": "4d071d65-60eb-4e9a-9efa-9a65bf811cd3",
        "name": "C.B. and Potts/Big Horn Brewery - Englewood",
        "brewery_type": "brewpub",
        "address_1": "6575 Greenwood Plaza Blvd",
        "address_2": null,
        "address_3": null,
        "city": "Englewood",
        "state_province": "Colorado",
        "postal_code": "80111-4933",
        "country": "United States",
        "longitude": null,
        "latitude": null,
        "phone": "3037701982",
        "website_url": "http://www.cbpotts.com",
        "state": "Colorado",
        "street": "6575 Greenwood Plaza Blvd"
    },
    {
        "id": "0ba6de0f-d84b-4e89-a608-8a5d70a7d612",
        "name": "C.B. and Potts/Big Horn Brewery - Highlands Ranch",
        "brewery_type": "brewpub",
        "address_1": "43 W Centennial Blvd",
        "address_2": null,
        "address_3": null,
        "city": "Highlands Ranch",
        "state_province": "Colorado",
        "postal_code": "80129-2323",
        "country": "United States",
        "longitude": "-104.9887246",
        "latitude": "39.56211674",
        "phone": "7203441200",
        "website_url": "http://www.cbpotts.com",
        "state": "Colorado",
        "street": "43 W Centennial Blvd"
    },
    {
        "id": "cfacd093-a793-4110-b337-ba26fa5f0d3e",
        "name": "C.B. and Potts/Big Horn Brewery - Westminster",
        "brewery_type": "brewpub",
        "address_1": "1257 W 120th Ave",
        "address_2": null,
        "address_3": null,
        "city": "Westminster",
        "state_province": "Colorado",
        "postal_code": "80234-2725",
        "country": "United States",
        "longitude": "-105.0040899",
        "latitude": "39.91376115",
        "phone": "3034515767",
        "website_url": "http://www.cbpotts.com",
        "state": "Colorado",
        "street": "1257 W 120th Ave"
    },
    {
        "id": "ef9d5ee5-045d-4d41-92f9-2d518fa0cc7a",
        "name": "Cabarrus Brewing Company",
        "brewery_type": "micro",
        "address_1": "329 McGill Ave NW",
        "address_2": null,
        "address_3": null,
        "city": "Concord",
        "state_province": "North Carolina",
        "postal_code": "28027-6149",
        "country": "United States",
        "longitude": "-80.60600028",
        "latitude": "35.41573578",
        "phone": "7044904487",
        "website_url": "http://www.cabarrusbrewing.com",
        "state": "North Carolina",
        "street": "329 McGill Ave NW"
    },
    {
        "id": "06b8b131-a227-414a-ac7f-fd63c63828b9",
        "name": "Cabin Boys Brewery",
        "brewery_type": "micro",
        "address_1": "1717 E. 7th Steeet",
        "address_2": null,
        "address_3": null,
        "city": "Tulsa",
        "state_province": "Oklahoma",
        "postal_code": "74104",
        "country": "United States",
        "longitude": "-95.966947",
        "latitude": "36.1515468",
        "phone": "9189334033",
        "website_url": "http://www.cabinboysbrewery.com",
        "state": "Oklahoma",
        "street": "1717 E. 7th Steeet"
    },
    {
        "id": "847fc182-b1fd-4e3a-bf42-a4aab6d5a0e6",
        "name": "Cabinet Mountain Brewing Co",
        "brewery_type": "brewpub",
        "address_1": "206 Mineral Ave",
        "address_2": null,
        "address_3": null,
        "city": "Libby",
        "state_province": "Montana",
        "postal_code": "59923-1952",
        "country": "United States",
        "longitude": "-115.5506412",
        "latitude": "48.3936508",
        "phone": "4062932739",
        "website_url": "http://www.cabinetmountainbrewing.com",
        "state": "Montana",
        "street": "206 Mineral Ave"
    },
    {
        "id": "1bb1a62c-5339-4a44-acf7-5a960fbb39b1",
        "name": "Caboose Brewing Co.",
        "brewery_type": "brewpub",
        "address_1": "520 Mill St NE",
        "address_2": null,
        "address_3": null,
        "city": "Vienna",
        "state_province": "Virginia",
        "postal_code": "22180-4526",
        "country": "United States",
        "longitude": "-77.2705542",
        "latitude": "38.9077525",
        "phone": "7034734870",
        "website_url": "http://caboosebrewing.com",
        "state": "Virginia",
        "street": "520 Mill St NE"
    },
    {
        "id": "37fcc36b-c5ec-44e6-8b33-8c6dea8cb01f",
        "name": "Cacapon Mountain Brewing Co",
        "brewery_type": "micro",
        "address_1": "42 Williams St",
        "address_2": null,
        "address_3": null,
        "city": "Berkeley Springs",
        "state_province": "West Virginia",
        "postal_code": "25411-5306",
        "country": "United States",
        "longitude": "-78.23460149524098",
        "latitude": "39.69077897197115",
        "phone": null,
        "website_url": "http://www.cacaponbrewing.com",
        "state": "West Virginia",
        "street": "42 Williams St"
    },
    {
        "id": "1a4ac5aa-6d2f-41ef-80b5-b4b11db57b9a",
        "name": "Cactus Land Brewing Company",
        "brewery_type": "micro",
        "address_1": "368 County Road 325",
        "address_2": null,
        "address_3": null,
        "city": "Adkins",
        "state_province": "Texas",
        "postal_code": "78101-2812",
        "country": "United States",
        "longitude": null,
        "latitude": null,
        "phone": "2104142776",
        "website_url": "http://www.cactuslandbrewing.com",
        "state": "Texas",
        "street": "368 County Road 325"
    },
    {
        "id": "c0c8f2f1-ec01-4d3e-8faf-b05f3f18f945",
        "name": "Cafe Karibo",
        "brewery_type": "brewpub",
        "address_1": "27 N 3rd St",
        "address_2": null,
        "address_3": null,
        "city": "Fernandina Beach",
        "state_province": "Florida",
        "postal_code": "32034-4111",
        "country": "United States",
        "longitude": "-81.46300291",
        "latitude": "30.6716253",
        "phone": "9042775269",
        "website_url": "http://www.cafekaribo.com",
        "state": "Florida",
        "street": "27 N 3rd St"
    },
    {
        "id": "b04c9621-bb87-439d-a499-94cb432bde90",
        "name": "Cafe Luis",
        "brewery_type": "bar",
        "address_1": "Weizberg 7",
        "address_2": null,
        "address_3": null,
        "city": "Weiz",
        "state_province": "Steiermark",
        "postal_code": "8160",
        "country": "Austria",
        "longitude": "15.6358280445545",
        "latitude": "47.22378922896473",
        "phone": "+4331723924",
        "website_url": null,
        "state": "Steiermark",
        "street": "Weizberg 7"
    },
    {
        "id": "9355bc7c-bdc7-40c3-8932-e840c996ed86",
        "name": "Caf\ufffd Okei",
        "brewery_type": "bar",
        "address_1": "Feldkirchenstra\ufffde 40",
        "address_2": null,
        "address_3": null,
        "city": "Kalsdorf bei Graz",
        "state_province": "Steiermark",
        "postal_code": "8401",
        "country": "Austria",
        "longitude": "15.4604202756149",
        "latitude": "46.97131912786789",
        "phone": "+43313557156",
        "website_url": "https://okei.at",
        "state": "Steiermark",
        "street": "Feldkirchenstra\ufffde 40"
    },
    {
        "id": "07abdcde-be13-49ed-9000-409d7d3d1975",
        "name": "Cage Brewing",
        "brewery_type": "micro",
        "address_1": "2001 1st Ave S",
        "address_2": null,
        "address_3": null,
        "city": "Saint Petersburg",
        "state_province": "Florida",
        "postal_code": "33712-1201",
        "country": "United States",
        "longitude": "-82.660409",
        "latitude": "27.770292",
        "phone": "7272014278",
        "website_url": null,
        "state": "Florida",
        "street": "2001 1st Ave S"
    },
    {
        "id": "a476acbb-451e-4eb5-a250-55c9216ea153",
        "name": "Cahaba Brewing Co",
        "brewery_type": "micro",
        "address_1": "4500 5th Ave S Ste C",
        "address_2": null,
        "address_3": null,
        "city": "Birmingham",
        "state_province": "Alabama",
        "postal_code": "35222-2911",
        "country": "United States",
        "longitude": null,
        "latitude": null,
        "phone": "2059669444",
        "website_url": "http://www.cahababrewing.com",
        "state": "Alabama",
        "street": "4500 5th Ave S Ste C"
    },
    {
        "id": "0254d394-bf18-4793-900b-7320ae176e3c",
        "name": "Cairn Brewing",
        "brewery_type": "micro",
        "address_1": "7204 NE 175th St",
        "address_2": null,
        "address_3": null,
        "city": "Kenmore",
        "state_province": "Washington",
        "postal_code": "98028-3561",
        "country": "United States",
        "longitude": "-122.2440866",
        "latitude": "47.7571424",
        "phone": "4259495295",
        "website_url": "http://www.cairnbrewing.com",
        "state": "Washington",
        "street": "7204 NE 175th St"
    },
    {
        "id": "6265172a-55a2-405b-8a59-efbd4de3adfd",
        "name": "Cajun Brewing",
        "brewery_type": "micro",
        "address_1": "206 Rayburn St",
        "address_2": null,
        "address_3": null,
        "city": "Lafayette",
        "state_province": "Louisiana",
        "postal_code": "70506-4130",
        "country": "United States",
        "longitude": "-92.04978922",
        "latitude": "30.21549043",
        "phone": "3378069196",
        "website_url": "http://www.cajunbrewing.com",
        "state": "Louisiana",
        "street": "206 Rayburn St"
    },
    {
        "id": "756d4443-74b5-423d-b0a7-a7731e7f7883",
        "name": "Calapooia Brewing Co / Siletz Ales",
        "brewery_type": "micro",
        "address_1": "140 NE Hill St",
        "address_2": null,
        "address_3": null,
        "city": "Albany",
        "state_province": "Oregon",
        "postal_code": "97321-3002",
        "country": "United States",
        "longitude": "-123.0937773",
        "latitude": "44.6394668",
        "phone": "5419281931",
        "website_url": "http://www.calapooiabrewing.com",
        "state": "Oregon",
        "street": "140 NE Hill St"
    },
    {
        "id": "914b9f4c-d6eb-45cc-aa64-f93a41958c35",
        "name": "Caldera Brewing Co",
        "brewery_type": "micro",
        "address_1": "590 Clover Ln",
        "address_2": null,
        "address_3": null,
        "city": "Ashland",
        "state_province": "Oregon",
        "postal_code": "97520-3709",
        "country": "United States",
        "longitude": "-122.6633744",
        "latitude": "42.18373846",
        "phone": "5414824677",
        "website_url": "http://www.calderabrewing.com",
        "state": "Oregon",
        "street": "590 Clover Ln"
    },
    {
        "id": "87f356ba-1eee-4480-96a9-5877cc669edb",
        "name": "Caledonia Brewing",
        "brewery_type": "micro",
        "address_1": "587 Main St",
        "address_2": null,
        "address_3": null,
        "city": "Dunedin",
        "state_province": "Florida",
        "postal_code": "34698-4998",
        "country": "United States",
        "longitude": "-82.7840735",
        "latitude": "28.01394225",
        "phone": "7273515105",
        "website_url": "http://www.caledoniabrewing.com",
        "state": "Florida",
        "street": "587 Main St"
    },
    {
        "id": "c3aa08ce-050b-440d-a8c1-0b45cbceedd5",
        "name": "Calfkiller Brewing Co",
        "brewery_type": "micro",
        "address_1": "1839 Blue Springs Rd",
        "address_2": null,
        "address_3": null,
        "city": "Sparta",
        "state_province": "Tennessee",
        "postal_code": "38583-2714",
        "country": "United States",
        "longitude": "-85.42206083",
        "latitude": "35.94460668",
        "phone": "9317392337",
        "website_url": "http://www.calfkillerbeer.com",
        "state": "Tennessee",
        "street": "1839 Blue Springs Rd"
    },
    {
        "id": "2a7ed844-ea02-4a69-a41c-1fc7c476dd16",
        "name": "Calibration Brewery",
        "brewery_type": "brewpub",
        "address_1": "119 Armour Rd",
        "address_2": null,
        "address_3": null,
        "city": "Kansas City",
        "state_province": "Missouri",
        "postal_code": "64116-3502",
        "country": "United States",
        "longitude": "-94.578762",
        "latitude": "39.141723",
        "phone": "8169948277",
        "website_url": "http://www.calibrationbrewery.com",
        "state": "Missouri",
        "street": "119 Armour Rd"
    },
    {
        "id": "b6618fdf-562c-47d8-8f99-da37d0ed00fb",
        "name": "Calicraft Brewing Co",
        "brewery_type": "micro",
        "address_1": "2700 Mitchell Dr Bldg 2",
        "address_2": null,
        "address_3": null,
        "city": "Walnut Creek",
        "state_province": "California",
        "postal_code": "94598-1602",
        "country": "United States",
        "longitude": "-122.0257068",
        "latitude": "37.93059284",
        "phone": null,
        "website_url": null,
        "state": "California",
        "street": "2700 Mitchell Dr Bldg 2"
    },
    {
        "id": "bcea0930-14a2-4b22-898c-729ea6abe693",
        "name": "California Cider Co.",
        "brewery_type": "planning",
        "address_1": null,
        "address_2": null,
        "address_3": null,
        "city": "Sebastopol",
        "state_province": "California",
        "postal_code": "95472",
        "country": "United States",
        "longitude": "-122.8332502",
        "latitude": "38.3845125",
        "phone": "7078291101",
        "website_url": "http://www.acecider.com",
        "state": "California",
        "street": null
    },
    {
        "id": "23905042-9078-410a-a3f5-0ede37924815",
        "name": "California Wild Ales",
        "brewery_type": "contract",
        "address_1": "4204 Sorrento Valley Blvd",
        "address_2": null,
        "address_3": null,
        "city": "San Diego",
        "state_province": "California",
        "postal_code": "92121-1446",
        "country": "United States",
        "longitude": "-117.2146488",
        "latitude": "32.905002",
        "phone": null,
        "website_url": null,
        "state": "California",
        "street": "4204 Sorrento Valley Blvd"
    },
    {
        "id": "f99f9f8d-d2e0-4f23-9644-c95ff543e235",
        "name": "Caracara Brewing Company",
        "brewery_type": "micro",
        "address_1": "100 E Market St",
        "address_2": null,
        "address_3": null,
        "city": "Lockhart",
        "state_province": "Texas",
        "postal_code": "78644-2747",
        "country": "United States",
        "longitude": "-97.672065",
        "latitude": "29.883798",
        "phone": null,
        "website_url": "http://www.caracarabrewingcompany.com",
        "state": "Texas",
        "street": "100 E Market St"
    },
    {
        "id": "5494f614-38f1-4c0d-822d-58977264bb89",
        "name": "Call To Arms Brewing Company",
        "brewery_type": "micro",
        "address_1": "4526 Tennyson St",
        "address_2": null,
        "address_3": null,
        "city": "Denver",
        "state_province": "Colorado",
        "postal_code": "80212-2527",
        "country": "United States",
        "longitude": "-105.0435373",
        "latitude": "39.7788541",
        "phone": null,
        "website_url": "http://www.facebook.com/calltoarmsbrewing",
        "state": "Colorado",
        "street": "4526 Tennyson St"
    },
    {
        "id": "06f89ef6-e14a-4642-9609-46c6aad9813f",
        "name": "Callahan West Brewery",
        "brewery_type": "micro",
        "address_1": "20 Main St",
        "address_2": null,
        "address_3": null,
        "city": "Mosquero",
        "state_province": "New Mexico",
        "postal_code": "87733",
        "country": "United States",
        "longitude": "-103.9581938",
        "latitude": "35.77706974",
        "phone": null,
        "website_url": null,
        "state": "New Mexico",
        "street": "20 Main St"
    },
    {
        "id": "2b34e802-aa74-4ab7-baf3-3de5c82bd751",
        "name": "Callsign Brewing",
        "brewery_type": "micro",
        "address_1": "1447 Gentry St",
        "address_2": null,
        "address_3": null,
        "city": "North Kansas City",
        "state_province": "Missouri",
        "postal_code": "64116",
        "country": "United States",
        "longitude": "-94.574428",
        "latitude": "39.138525",
        "phone": "8162552320",
        "website_url": "http://www.callsignbrewing.com",
        "state": "Missouri",
        "street": "1447 Gentry St"
    },
    {
        "id": "40a385d5-25cb-4bf4-9b04-fd1501f8b8fb",
        "name": "Calusa Brewing Company",
        "brewery_type": "micro",
        "address_1": "5701 Derek Ave",
        "address_2": null,
        "address_3": null,
        "city": "Sarasota",
        "state_province": "Florida",
        "postal_code": "34233-2413",
        "country": "United States",
        "longitude": "-82.483799",
        "latitude": "27.269363",
        "phone": "9419228150",
        "website_url": "http://www.calusabrewing.com",
        "state": "Florida",
        "street": "5701 Derek Ave"
    },
    {
        "id": "66830819-c0ed-462b-b7c6-5b6006fa7df0",
        "name": "Calvert Brewing Co",
        "brewery_type": "micro",
        "address_1": "150 Adelina Rd",
        "address_2": null,
        "address_3": null,
        "city": "Prince Frederick",
        "state_province": "Maryland",
        "postal_code": "20678-3709",
        "country": "United States",
        "longitude": null,
        "latitude": null,
        "phone": "4104148486",
        "website_url": "http://www.calvertbrewingcompany.com",
        "state": "Maryland",
        "street": "150 Adelina Rd"
    },
    {
        "id": "a440c125-f424-4b18-9adc-27c2965ce6ac",
        "name": "Calvert Brewing Co",
        "brewery_type": "micro",
        "address_1": "15850 Commerce Ct",
        "address_2": null,
        "address_3": null,
        "city": "Upper Marlboro",
        "state_province": "Maryland",
        "postal_code": "20774-7437",
        "country": "United States",
        "longitude": null,
        "latitude": null,
        "phone": "2402454609",
        "website_url": "http://calvertbrewingcompany.com",
        "state": "Maryland",
        "street": "15850 Commerce Ct"
    },
    {
        "id": "a4979f24-580a-467a-8cb3-5ce9df1d30b4",
        "name": "Cambridge Brewing Co",
        "brewery_type": "brewpub",
        "address_1": "1 Kendall Sq Ste B1102",
        "address_2": null,
        "address_3": null,
        "city": "Cambridge",
        "state_province": "Massachusetts",
        "postal_code": "02139-1592",
        "country": "United States",
        "longitude": null,
        "latitude": null,
        "phone": "6174941994",
        "website_url": "http://www.cambridgebrewingcompany.com",
        "state": "Massachusetts",
        "street": "1 Kendall Sq Ste B1102"
    },
    {
        "id": "ad254a69-0bd9-491e-be5b-0a35d174fb4e",
        "name": "Cambridge House Brew Pub - Granby",
        "brewery_type": "brewpub",
        "address_1": "357 Salmon Brook St",
        "address_2": null,
        "address_3": null,
        "city": "Granby",
        "state_province": "Connecticut",
        "postal_code": "06035-0438",
        "country": "United States",
        "longitude": "-72.79259539",
        "latitude": "41.96631414",
        "phone": "8606532739",
        "website_url": "http://www.cbh.beer",
        "state": "Connecticut",
        "street": "357 Salmon Brook St"
    }
]