[
    {
        "id": "4170f5a5-0bea-4a5f-8692-2053a62a941c",
        "name": "Wild Mind Artisan Ales",
        "brewery_type": "micro",
        "address_1": "6031 Pillsbury Ave S",
        "address_2": null,
        "address_3": null,
        "city": "Minneapolis",
        "state_province": "Minnesota",
        "postal_code": "55419-2328",
        "country": "United States",
        "longitude": "-93.2813885",
        "latitude": "44.89304675",
        "phone": "6123454514",
        "website_url": "http://www.wildmindales.com",
        "state": "Minnesota",
        "street": "6031 Pillsbury Ave S"
    },
    {
        "id": "02efb5f9-5554-4288-a202-9812e96ddd47",
        "name": "Wild Oak Project",
        "brewery_type": "nano",
        "address_1": "5229 144th St SE",
        "address_2": null,
        "address_3": null,
        "city": "Everett",
        "state_province": "Washington",
        "postal_code": "98208-8972",
        "country": "United States",
        "longitude": "-122.16036058658229",
        "latitude": "47.86732301747203",
        "phone": "2069724505",
        "website_url": "https://wildoakproject.com",
        "state": "Washington",
        "street": "5229 144th St SE"
    },
    {
        "id": "1ba59950-58ce-4834-9b4c-ef6e32fd7ef9",
        "name": "Wild Onion Brewing Co.",
        "brewery_type": "micro",
        "address_1": "22221 N Pepper Rd",
        "address_2": null,
        "address_3": null,
        "city": "Lake Barrington",
        "state_province": "Illinois",
        "postal_code": "60010-2473",
        "country": "United States",
        "longitude": null,
        "latitude": null,
        "phone": "8473817308",
        "website_url": "http://www.onionpub.com",
        "state": "Illinois",
        "street": "22221 N Pepper Rd"
    },
    {
        "id": "6fb1fdc2-e203-49c8-b325-c6013ab6dbf1",
        "name": "Wild Ride Brewing",
        "brewery_type": "micro",
        "address_1": "332 SW 5th St",
        "address_2": null,
        "address_3": null,
        "city": "Redmond",
        "state_province": "Oregon",
        "postal_code": "97756-2103",
        "country": "United States",
        "longitude": "-121.1730764",
        "latitude": "44.27391294",
        "phone": "5415168544",
        "website_url": "http://www.wildridebrew.com",
        "state": "Oregon",
        "street": "332 SW 5th St"
    },
    {
        "id": "7a14b155-30bf-4f20-9856-831cfe8bbb7c",
        "name": "Wild River Brewing and Pizza Co",
        "brewery_type": "brewpub",
        "address_1": "249 N Redwood Hwy",
        "address_2": null,
        "address_3": null,
        "city": "Cave Junction",
        "state_province": "Oregon",
        "postal_code": "97523-9023",
        "country": "United States",
        "longitude": "-123.6469844",
        "latitude": "42.1622503",
        "phone": "5414717487",
        "website_url": "http://www.wildriverbrewing.com",
        "state": "Oregon",
        "street": "249 N Redwood Hwy"
    },
    {
        "id": "2e8613b3-c83d-4efa-b8bd-a658f99fd780",
        "name": "Wild River Brewing and Pizza Co - Grants Pass",
        "brewery_type": "brewpub",
        "address_1": "595 NE E St",
        "address_2": null,
        "address_3": null,
        "city": "Grants Pass",
        "state_province": "Oregon",
        "postal_code": "97526-2356",
        "country": "United States",
        "longitude": "-123.319",
        "latitude": "42.43927512",
        "phone": "5414717487",
        "website_url": "http://www.wildriverbrewing.com",
        "state": "Oregon",
        "street": "595 NE E St"
    },
    {
        "id": "bccbb662-6467-4d57-816e-9cb99adcfa30",
        "name": "Wild Side Brewing Company",
        "brewery_type": "micro",
        "address_1": "24194 Front St",
        "address_2": null,
        "address_3": null,
        "city": "Grand Rapids",
        "state_province": "Ohio",
        "postal_code": "43522",
        "country": "United States",
        "longitude": "-83.86731385",
        "latitude": "41.41253259",
        "phone": "4193892776",
        "website_url": "http://www.wildsidebrewing.com",
        "state": "Ohio",
        "street": "24194 Front St"
    },
    {
        "id": "0751ebe6-8350-44ca-92c0-e06822ba72e4",
        "name": "Wild Water",
        "brewery_type": "closed",
        "address_1": "9995 Winghaven Blvd",
        "address_2": null,
        "address_3": null,
        "city": "O Fallon",
        "state_province": "Missouri",
        "postal_code": "63368-3623",
        "country": "United States",
        "longitude": null,
        "latitude": null,
        "phone": "6362650751",
        "website_url": null,
        "state": "Missouri",
        "street": "9995 Winghaven Blvd"
    },
    {
        "id": "0d94cee6-2b9f-47ec-8cdc-cf7e81113b04",
        "name": "Wild Wolf Brewing Co",
        "brewery_type": "micro",
        "address_1": "2461 Rockfish Valley Hwy",
        "address_2": null,
        "address_3": null,
        "city": "Nellysford",
        "state_province": "Virginia",
        "postal_code": "22958-2306",
        "country": "United States",
        "longitude": null,
        "latitude": null,
        "phone": "4343610088",
        "website_url": "http://www.wildwolfbeer.com",
        "state": "Virginia",
        "street": "2461 Rockfish Valley Hwy"
    },
    {
        "id": "ed289ab7-9588-429f-bc3d-5977c5120d9f",
        "name": "Wild Woods Brewery",
        "brewery_type": "micro",
        "address_1": "5460 Conestoga Ct",
        "address_2": null,
        "address_3": null,
        "city": "Boulder",
        "state_province": "Colorado",
        "postal_code": "80301-2724",
        "country": "United States",
        "longitude": "-105.2258104",
        "latitude": "40.0162153",
        "phone": "3034841465",
        "website_url": "http://www.wildwoodsbrewery.com",
        "state": "Colorado",
        "street": "5460 Conestoga Ct"
    },
    {
        "id": "94bf785c-e76a-4a41-8720-e9fb53d72ed4",
        "name": "Wildcard Brewing Company",
        "brewery_type": "micro",
        "address_1": "9565 Crossroads Dr",
        "address_2": null,
        "address_3": null,
        "city": "Redding",
        "state_province": "California",
        "postal_code": "96003-6814",
        "country": "United States",
        "longitude": "-122.298177",
        "latitude": "40.562008",
        "phone": "5307229239",
        "website_url": "http://www.wildcardbrewingco.com",
        "state": "California",
        "street": "9565 Crossroads Dr"
    },
    {
        "id": "7e77e499-968f-434c-a660-ebcfda4e1842",
        "name": "WildEdge Brewing Collective",
        "brewery_type": "brewpub",
        "address_1": "111 N Market St",
        "address_2": null,
        "address_3": null,
        "city": "Cortez",
        "state_province": "Colorado",
        "postal_code": "81321-3214",
        "country": "United States",
        "longitude": "-108.5853117",
        "latitude": "37.34990058",
        "phone": "9705659445",
        "website_url": "http://www.wildedgebrewing.com",
        "state": "Colorado",
        "street": "111 N Market St"
    },
    {
        "id": "9169dd36-0e3b-4336-93dc-886850fd4bbc",
        "name": "Wildlife Brewing",
        "brewery_type": "brewpub",
        "address_1": "145 S. Main St.",
        "address_2": null,
        "address_3": null,
        "city": "Victor",
        "state_province": "Idaho",
        "postal_code": "83455-0869",
        "country": "United States",
        "longitude": "-111.1112683",
        "latitude": "43.60200785",
        "phone": "2087872623",
        "website_url": "http://wildlifebrewing.com",
        "state": "Idaho",
        "street": "145 S. Main St."
    },
    {
        "id": "132c460c-3ab8-46db-9dc7-f8123d513ef3",
        "name": "Wildrose Brewing Company",
        "brewery_type": "brewpub",
        "address_1": "1104 E Main St",
        "address_2": null,
        "address_3": null,
        "city": "Griffith",
        "state_province": "Indiana",
        "postal_code": "46319-2826",
        "country": "United States",
        "longitude": "-87.4155241",
        "latitude": "41.52275923",
        "phone": "2195955054",
        "website_url": "http://www.wildrosebrewing.com",
        "state": "Indiana",
        "street": "1104 E Main St"
    },
    {
        "id": "e2750719-4d6a-471e-a9df-be10d8fb71cf",
        "name": "Wildwood Brewing Co",
        "brewery_type": "micro",
        "address_1": "4018 US Highway 93 N",
        "address_2": null,
        "address_3": null,
        "city": "Stevensville",
        "state_province": "Montana",
        "postal_code": "59870-6443",
        "country": "United States",
        "longitude": null,
        "latitude": null,
        "phone": "4065296919",
        "website_url": "http://www.wildwoodbrewing.com",
        "state": "Montana",
        "street": "4018 US Highway 93 N"
    },
    {
        "id": "68be4717-aeb3-4539-b539-9d0168b2926c",
        "name": "Wiley Roots Brewing Co",
        "brewery_type": "micro",
        "address_1": "625 3rd St Unit D",
        "address_2": null,
        "address_3": null,
        "city": "Greeley",
        "state_province": "Colorado",
        "postal_code": "80631-9132",
        "country": "United States",
        "longitude": null,
        "latitude": null,
        "phone": "9706911641",
        "website_url": "http://www.wileyrootsbrewing.com",
        "state": "Colorado",
        "street": "625 3rd St Unit D"
    },
    {
        "id": "8f54e466-4f0c-4ecc-853f-02b4680853c9",
        "name": "Will County Brewing Company",
        "brewery_type": "micro",
        "address_1": "1142 W Jefferson St",
        "address_2": null,
        "address_3": null,
        "city": "Shorewood",
        "state_province": "Illinois",
        "postal_code": "60404-0703",
        "country": "United States",
        "longitude": "-88.20870656",
        "latitude": "41.521524",
        "phone": "8155824157",
        "website_url": "http://www.willcountybrew.com",
        "state": "Illinois",
        "street": "1142 W Jefferson St"
    },
    {
        "id": "6b1c2bdf-2b49-4fdc-8440-532d57520c25",
        "name": "Willapa Brewing Co",
        "brewery_type": "nano",
        "address_1": "405 Minnesota Ave",
        "address_2": null,
        "address_3": null,
        "city": "South Bend",
        "state_province": "Washington",
        "postal_code": "98586",
        "country": "United States",
        "longitude": "-123.79236657497829",
        "latitude": "46.66547493971711",
        "phone": "3608758398",
        "website_url": "https://www.willapabrewingco.com",
        "state": "Washington",
        "street": "405 Minnesota Ave"
    },
    {
        "id": "9fff553d-8ede-435a-ab11-01b8bbed9b18",
        "name": "Willcott Brewing Company",
        "brewery_type": "planning",
        "address_1": null,
        "address_2": null,
        "address_3": null,
        "city": "Holton",
        "state_province": "Kansas",
        "postal_code": "66436-1703",
        "country": "United States",
        "longitude": null,
        "latitude": null,
        "phone": "7853381611",
        "website_url": "http://www.willcottbrewing.com",
        "state": "Kansas",
        "street": null
    },
    {
        "id": "8fe80c7b-3dcc-4231-bd5c-e1a557480564",
        "name": "William K Busch Brewing Co.",
        "brewery_type": "closed",
        "address_1": "8047 Litzsinger Rd",
        "address_2": null,
        "address_3": null,
        "city": "Saint Louis",
        "state_province": "Missouri",
        "postal_code": "63144-2505",
        "country": "United States",
        "longitude": "-90.33733442",
        "latitude": "38.61687711",
        "phone": "3149327911",
        "website_url": "http://www.enjoykraftig.com",
        "state": "Missouri",
        "street": "8047 Litzsinger Rd"
    },
    {
        "id": "2a0b0ae1-9c3b-4de7-91ca-7f2283cab082",
        "name": "Willimantic Brewing Co and Main Street Cafe",
        "brewery_type": "brewpub",
        "address_1": "967 Main St",
        "address_2": null,
        "address_3": null,
        "city": "Willimantic",
        "state_province": "Connecticut",
        "postal_code": "06226-2330",
        "country": "United States",
        "longitude": "-72.21714938",
        "latitude": "41.7131866",
        "phone": "8604236777",
        "website_url": "http://www.willibrew.com",
        "state": "Connecticut",
        "street": "967 Main St"
    },
    {
        "id": "bedf2a5f-08b9-4db2-80d9-66bb6e6e5175",
        "name": "Willoughby Brewing Co",
        "brewery_type": "brewpub",
        "address_1": "4057 Erie St",
        "address_2": null,
        "address_3": null,
        "city": "Willoughby",
        "state_province": "Ohio",
        "postal_code": "44094-7804",
        "country": "United States",
        "longitude": "-81.40548972",
        "latitude": "41.64152155",
        "phone": "4409750202",
        "website_url": "http://www.willoughbybrewing.com",
        "state": "Ohio",
        "street": "4057 Erie St"
    },
    {
        "id": "99610e23-42f0-4372-9a4e-46b290c721ff",
        "name": "Willow Rock Brewing Company",
        "brewery_type": "micro",
        "address_1": "115 Game Rd",
        "address_2": null,
        "address_3": null,
        "city": "Syracuse",
        "state_province": "New York",
        "postal_code": "13210-4216",
        "country": "United States",
        "longitude": "-76.13147154",
        "latitude": "43.01155518",
        "phone": "3159286948",
        "website_url": "http://www.willowrockbrew.com",
        "state": "New York",
        "street": "115 Game Rd"
    },
    {
        "id": "14ddfbb5-9369-49d4-9ae2-6ce2d68b6155",
        "name": "Willows Family Ales",
        "brewery_type": "micro",
        "address_1": "418 S Peoria Ave",
        "address_2": null,
        "address_3": null,
        "city": "Tulsa",
        "state_province": "Oklahoma",
        "postal_code": "74120",
        "country": "United States",
        "longitude": "-95.97591226",
        "latitude": "36.02201189",
        "phone": "9188956798",
        "website_url": null,
        "state": "Oklahoma",
        "street": "418 S Peoria Ave"
    },
    {
        "id": "b0b1336f-c352-46cb-9bc7-d1be23916f48",
        "name": "Wilmington Brew Works",
        "brewery_type": "planning",
        "address_1": null,
        "address_2": null,
        "address_3": null,
        "city": "Wilmington",
        "state_province": "Delaware",
        "postal_code": "19802-2542",
        "country": "United States",
        "longitude": null,
        "latitude": null,
        "phone": "3027574971",
        "website_url": "http://www.wilmingtonbrewworks.com",
        "state": "Delaware",
        "street": null
    },
    {
        "id": "bc28fab5-4e26-4e76-b294-64823949a61b",
        "name": "Wilmington Brewing Company",
        "brewery_type": "micro",
        "address_1": "824 S Kerr Ave",
        "address_2": null,
        "address_3": null,
        "city": "Wilmington",
        "state_province": "North Carolina",
        "postal_code": "28403-8426",
        "country": "United States",
        "longitude": "-77.88680231",
        "latitude": "34.2213165",
        "phone": "9103923315",
        "website_url": "http://www.wilmingtonbeer.com",
        "state": "North Carolina",
        "street": "824 S Kerr Ave"
    },
    {
        "id": "54d22718-da66-4c00-9fba-00179644935b",
        "name": "Wiltse's Brew Pub and Family Restaurant",
        "brewery_type": "brewpub",
        "address_1": "5606 F 41",
        "address_2": null,
        "address_3": null,
        "city": "Oscoda",
        "state_province": "Michigan",
        "postal_code": "48750-8611",
        "country": "United States",
        "longitude": null,
        "latitude": null,
        "phone": "9897392231",
        "website_url": "http://www.wiltsebrewpub.com",
        "state": "Michigan",
        "street": "5606 F 41"
    },
    {
        "id": "a2176552-f292-415f-ba05-609e7e484897",
        "name": "Wimberley Brewing Co & Brewsters Pizza",
        "brewery_type": "brewpub",
        "address_1": "9595 Ranch Road 12 Ste 10",
        "address_2": null,
        "address_3": null,
        "city": "Wimberley",
        "state_province": "Texas",
        "postal_code": "78676-5248",
        "country": "United States",
        "longitude": null,
        "latitude": null,
        "phone": "5128473299",
        "website_url": "http://www.wimberlybrewingcompany.com",
        "state": "Texas",
        "street": "9595 Ranch Road 12 Ste 10"
    },
    {
        "id": "3fe1de22-c30c-446d-b2f2-913ca9f6378e",
        "name": "Wimitzbr\ufffdu",
        "brewery_type": "nano",
        "address_1": "L67 7",
        "address_2": null,
        "address_3": null,
        "city": "Wimitz",
        "state_province": "K\ufffdrnten",
        "postal_code": "9311",
        "country": "Austria",
        "longitude": "14.355971213256488",
        "latitude": "46.83992642711985",
        "phone": "+43421228074",
        "website_url": "http://www.wimitzbraeu.com",
        "state": "K\ufffdrnten",
        "street": "L67 7"
    },
    {
        "id": "5b040ced-a54e-40f3-959b-86f818ed4186",
        "name": "Winchester Brew Works LLC",
        "brewery_type": "micro",
        "address_1": "320 N Cameron St",
        "address_2": null,
        "address_3": null,
        "city": "Winchester",
        "state_province": "Virginia",
        "postal_code": "22601-6052",
        "country": "United States",
        "longitude": "-78.16221305",
        "latitude": "39.18857712",
        "phone": "5406929242",
        "website_url": "http://winchesterbrewworks.com",
        "state": "Virginia",
        "street": "320 N Cameron St"
    },
    {
        "id": "0e22f154-5c03-4bee-9b37-657afaca8ecd",
        "name": "Wind River Brewing Co - WY",
        "brewery_type": "brewpub",
        "address_1": "402 Pine St",
        "address_2": null,
        "address_3": null,
        "city": "Pinedale",
        "state_province": "Wyoming",
        "postal_code": "82941",
        "country": "United States",
        "longitude": "-109.86603873089386",
        "latitude": "42.86643365266134",
        "phone": "3073672337",
        "website_url": "http://www.windriverbrewingco.com",
        "state": "Wyoming",
        "street": "402 Pine St"
    },
    {
        "id": "17469498-8632-4e10-8076-cb9cb22e7978",
        "name": "Wind Shift Brewing",
        "brewery_type": "micro",
        "address_1": "3421B NW Jefferson St",
        "address_2": null,
        "address_3": null,
        "city": "Blue Springs",
        "state_province": "Missouri",
        "postal_code": "64015",
        "country": "United States",
        "longitude": "-94.303423",
        "latitude": "39.073677",
        "phone": "8167862699",
        "website_url": "http://www.windshiftbrew.com",
        "state": "Missouri",
        "street": "3421B NW Jefferson St"
    },
    {
        "id": "ca8e0949-0067-4fb8-8aad-fa10a0e78fc2",
        "name": "Windmill Brewing",
        "brewery_type": "micro",
        "address_1": "2121 Gettler St",
        "address_2": null,
        "address_3": null,
        "city": "Dyer",
        "state_province": "Indiana",
        "postal_code": "46311-1859",
        "country": "United States",
        "longitude": "-87.52262489",
        "latitude": "41.49333495",
        "phone": "2194402189",
        "website_url": "http://www.windmillbrew.com",
        "state": "Indiana",
        "street": "2121 Gettler St"
    },
    {
        "id": "e335f6c4-199e-445c-be2d-50a3984f8afd",
        "name": "Windy Brew",
        "brewery_type": "micro",
        "address_1": "733 Route 20a",
        "address_2": null,
        "address_3": null,
        "city": "Strykersville",
        "state_province": "New York",
        "postal_code": "14145-9584",
        "country": "United States",
        "longitude": null,
        "latitude": null,
        "phone": "5858054006",
        "website_url": "http://www.windybrews.com",
        "state": "New York",
        "street": "733 Route 20a"
    },
    {
        "id": "a9fe8387-5dd3-48b5-87a3-79eb9e64b7b4",
        "name": "Wingman Brewers",
        "brewery_type": "closed",
        "address_1": "509 1/2 Puyallup Ave",
        "address_2": null,
        "address_3": null,
        "city": "Tacoma",
        "state_province": "Washington",
        "postal_code": "98421-1318",
        "country": "United States",
        "longitude": "-122.4291133",
        "latitude": "47.24075878",
        "phone": "2532565240",
        "website_url": "http://www.wingmanbrewers.com",
        "state": "Washington",
        "street": "509 1/2 Puyallup Ave"
    },
    {
        "id": "45e09697-d154-4da0-96bc-63900f0ede6d",
        "name": "Winner\u00e2\u0080\u0099s Circle Brewing Company",
        "brewery_type": "contract",
        "address_1": "21 Whistler Court Apt 4",
        "address_2": null,
        "address_3": null,
        "city": "Saratoga Springs",
        "state_province": "New York",
        "postal_code": "12866",
        "country": "United States",
        "longitude": null,
        "latitude": null,
        "phone": "5183657864",
        "website_url": "http://www.winnerscirclebeer.com",
        "state": "New York",
        "street": "21 Whistler Court Apt 4"
    },
    {
        "id": "2dabc038-a32f-400d-ac09-84b369df1528",
        "name": "Winter Hill Brewing Company",
        "brewery_type": "brewpub",
        "address_1": "328 Broadway",
        "address_2": null,
        "address_3": null,
        "city": "Somerville",
        "state_province": "Massachusetts",
        "postal_code": "02145-2803",
        "country": "United States",
        "longitude": null,
        "latitude": null,
        "phone": "6177182337",
        "website_url": "http://www.winterhillbrewing.com",
        "state": "Massachusetts",
        "street": "328 Broadway"
    },
    {
        "id": "e1b4b1c8-ea94-48e8-986e-38e025510a75",
        "name": "Wiretap Brewing Corporation",
        "brewery_type": "micro",
        "address_1": "341B South Avenue 17",
        "address_2": null,
        "address_3": null,
        "city": "Los Angeles",
        "state_province": "California",
        "postal_code": "90031",
        "country": "United States",
        "longitude": "-118.2220376",
        "latitude": "34.06852346",
        "phone": null,
        "website_url": "http://www.wiretapbrewing.com",
        "state": "California",
        "street": "341B South Avenue 17"
    },
    {
        "id": "16a14354-1767-4c6d-ae83-d0d069c1275e",
        "name": "Wisconsin Brewing Co",
        "brewery_type": "regional",
        "address_1": "1079 American Way",
        "address_2": null,
        "address_3": null,
        "city": "Verona",
        "state_province": "Wisconsin",
        "postal_code": "53593-9384",
        "country": "United States",
        "longitude": "-89.50895494",
        "latitude": "42.9688832",
        "phone": "6088481079",
        "website_url": "http://www.wisconsinbrewingcompany.com",
        "state": "Wisconsin",
        "street": "1079 American Way"
    },
    {
        "id": "c0c7f8b9-433c-4c64-a993-c348b2ef174d",
        "name": "Wisconsin Dells Brewing Company",
        "brewery_type": "brewpub",
        "address_1": "110 Wisconsin Dells Pkwy S",
        "address_2": null,
        "address_3": null,
        "city": "Wisconsin Dells",
        "state_province": "Wisconsin",
        "postal_code": "53965-8304",
        "country": "United States",
        "longitude": null,
        "latitude": null,
        "phone": "6082541122",
        "website_url": "http://www.dellsmoosejaw.com",
        "state": "Wisconsin",
        "street": "110 Wisconsin Dells Pkwy S"
    },
    {
        "id": "23c65942-1fb9-414b-93f9-b0d083673440",
        "name": "Wise Man Brewing",
        "brewery_type": "micro",
        "address_1": "826 Angelo Brothers Ave",
        "address_2": null,
        "address_3": null,
        "city": "Winston-Salem",
        "state_province": "North Carolina",
        "postal_code": "27101",
        "country": "United States",
        "longitude": null,
        "latitude": null,
        "phone": "3367250008",
        "website_url": "http://www.wisemanbrewing.com",
        "state": "North Carolina",
        "street": "826 Angelo Brothers Ave"
    },
    {
        "id": "bbf13bec-6169-4eec-8827-fc09b2829d26",
        "name": "Wiseacre Brewing Co",
        "brewery_type": "micro",
        "address_1": "2783 Broad Ave",
        "address_2": null,
        "address_3": null,
        "city": "Memphis",
        "state_province": "Tennessee",
        "postal_code": "38112-2834",
        "country": "United States",
        "longitude": "-89.96849701",
        "latitude": "35.14755725",
        "phone": "9018887000",
        "website_url": "http://www.wiseacrebrew.com",
        "state": "Tennessee",
        "street": "2783 Broad Ave"
    },
    {
        "id": "6098bdc3-b15b-4b11-ae3c-753503b64abd",
        "name": "Wishful Acres Farm and Brewery",
        "brewery_type": "micro",
        "address_1": "4679 N Flansburg Rd",
        "address_2": null,
        "address_3": null,
        "city": "Lena",
        "state_province": "Illinois",
        "postal_code": "61048",
        "country": "United States",
        "longitude": null,
        "latitude": null,
        "phone": "8159902380",
        "website_url": "http://www.wishfulacresfarm.com",
        "state": "Illinois",
        "street": "4679 N Flansburg Rd"
    },
    {
        "id": "498d083a-c992-4bd1-9ff7-39c7ea644cb6",
        "name": "Wissahickon Brewing Company",
        "brewery_type": "micro",
        "address_1": "3705 W School House Ln",
        "address_2": null,
        "address_3": null,
        "city": "Philadelphia",
        "state_province": "Pennsylvania",
        "postal_code": "19129-1738",
        "country": "United States",
        "longitude": "-75.20047033",
        "latitude": "40.013655",
        "phone": "2154838833",
        "website_url": "http://www.wissahickonbrew.com",
        "state": "Pennsylvania",
        "street": "3705 W School House Ln"
    },
    {
        "id": "0f56a5a3-f2d8-4295-8104-6ff8a61a7195",
        "name": "Wit's End Brewing Co",
        "brewery_type": "micro",
        "address_1": "1330 Zuni St Ste N",
        "address_2": null,
        "address_3": null,
        "city": "Denver",
        "state_province": "Colorado",
        "postal_code": "80204-2328",
        "country": "United States",
        "longitude": null,
        "latitude": null,
        "phone": "3033599119",
        "website_url": "http://www.witsendbrewing.com",
        "state": "Colorado",
        "street": "1330 Zuni St Ste N"
    },
    {
        "id": "fd24f694-6436-458c-a0d5-d35ab5ff4497",
        "name": "Witch's Hat Brewing",
        "brewery_type": "micro",
        "address_1": "601 S Lafayette St",
        "address_2": null,
        "address_3": null,
        "city": "South Lyon",
        "state_province": "Michigan",
        "postal_code": "48178-1453",
        "country": "United States",
        "longitude": "-83.65099308",
        "latitude": "42.45542522",
        "phone": "2484862595",
        "website_url": "http://www.witchshatbrewing.com",
        "state": "Michigan",
        "street": "601 S Lafayette St"
    },
    {
        "id": "da71bf07-faa7-41e4-a45a-b3e24a4f2f12",
        "name": "Witchdoctor Brewing Company",
        "brewery_type": "micro",
        "address_1": "168 Center St",
        "address_2": null,
        "address_3": null,
        "city": "Southington",
        "state_province": "Connecticut",
        "postal_code": "06489",
        "country": "United States",
        "longitude": "-72.88142555",
        "latitude": "41.60169813",
        "phone": "8604261924",
        "website_url": "http://www.witchdoctorbrewing.com",
        "state": "Connecticut",
        "street": "168 Center St"
    },
    {
        "id": "d5a5e1ba-5fde-4c6a-b2e2-d0cb96757489",
        "name": "Wizards of Williams Hops Garden and Craft Brewery",
        "brewery_type": "planning",
        "address_1": null,
        "address_2": null,
        "address_3": null,
        "city": "Williams",
        "state_province": "Oregon",
        "postal_code": "97545",
        "country": "United States",
        "longitude": null,
        "latitude": null,
        "phone": "5414156191",
        "website_url": null,
        "state": "Oregon",
        "street": null
    },
    {
        "id": "96336a37-ba9a-4d1f-ab36-667c60dbcd06",
        "name": "Wm Roesch Brewing Company",
        "brewery_type": "micro",
        "address_1": "250 SE 3rd St",
        "address_2": null,
        "address_3": null,
        "city": "Pendleton",
        "state_province": "Oregon",
        "postal_code": "97801-2503",
        "country": "United States",
        "longitude": "-118.7842506",
        "latitude": "45.6730681",
        "phone": "5413773511",
        "website_url": null,
        "state": "Oregon",
        "street": "250 SE 3rd St"
    },
    {
        "id": "646c7e47-1f06-46e0-803f-8f989e95186b",
        "name": "Wolf Branch Brewing Co.",
        "brewery_type": "micro",
        "address_1": "119 N Bay St",
        "address_2": null,
        "address_3": null,
        "city": "Eustis",
        "state_province": "Florida",
        "postal_code": "32726-3402",
        "country": "United States",
        "longitude": "-81.68556847",
        "latitude": "28.85386984",
        "phone": "4072761510",
        "website_url": "http://www.wolfbranchbrewing.com",
        "state": "Florida",
        "street": "119 N Bay St"
    },
    {
        "id": "8af9aa93-cf66-48a2-b1fc-c354ad102e5f",
        "name": "Wolf Brewing Company",
        "brewery_type": "planning",
        "address_1": null,
        "address_2": null,
        "address_3": null,
        "city": "Harrisburg",
        "state_province": "Pennsylvania",
        "postal_code": "17112-1550",
        "country": "United States",
        "longitude": null,
        "latitude": null,
        "phone": "7176452752",
        "website_url": "http://www.wolfbrewingco.com",
        "state": "Pennsylvania",
        "street": null
    },
    {
        "id": "1bf86666-1f70-4201-a1e9-6fd3bc965cc6",
        "name": "Wolf Creek Brewery",
        "brewery_type": "micro",
        "address_1": "25108 Rye Canyon Loop",
        "address_2": null,
        "address_3": null,
        "city": "Valencia",
        "state_province": "California",
        "postal_code": "91355-5004",
        "country": "United States",
        "longitude": "-118.5807868",
        "latitude": "34.45556243",
        "phone": "6612639653",
        "website_url": null,
        "state": "California",
        "street": "25108 Rye Canyon Loop"
    },
    {
        "id": "34137eaa-54b5-4b39-a98e-aaefd70f725b",
        "name": "Wolf Hills Brewing Co",
        "brewery_type": "micro",
        "address_1": "350 Park St SE",
        "address_2": null,
        "address_3": null,
        "city": "Abingdon",
        "state_province": "Virginia",
        "postal_code": "24210-3314",
        "country": "United States",
        "longitude": "-81.966309",
        "latitude": "36.7123245",
        "phone": "2762067562",
        "website_url": "http://www.wolfhillsbrewing.com",
        "state": "Virginia",
        "street": "350 Park St SE"
    },
    {
        "id": "d362f9fe-3375-46e8-a846-62cf28e85f89",
        "name": "Wolf Hollow Brewing Company",
        "brewery_type": "micro",
        "address_1": "6882 Amsterdam Rd",
        "address_2": null,
        "address_3": null,
        "city": "Schenectady",
        "state_province": "New York",
        "postal_code": "12302",
        "country": "United States",
        "longitude": "-74.0809254",
        "latitude": "42.8969263",
        "phone": "5182144093",
        "website_url": "http://www.wolfhollowbrewing.com",
        "state": "New York",
        "street": "6882 Amsterdam Rd"
    },
    {
        "id": "767b679f-1675-45ff-b431-964d8eeae698",
        "name": "Wolf Tree Brewery",
        "brewery_type": "micro",
        "address_1": "4590 SE Harborton St",
        "address_2": null,
        "address_3": null,
        "city": "Newport",
        "state_province": "Oregon",
        "postal_code": "97366",
        "country": "United States",
        "longitude": "-124.043444",
        "latitude": "44.60395753",
        "phone": "4588689151",
        "website_url": "http://www.wolftreebrewery.com",
        "state": "Oregon",
        "street": "4590 SE Harborton St"
    },
    {
        "id": "632d6d8c-2f43-479e-aca7-a843624023c7",
        "name": "Wolf's Ridge Brewing",
        "brewery_type": "micro",
        "address_1": "215 N 4th St",
        "address_2": null,
        "address_3": null,
        "city": "Columbus",
        "state_province": "Ohio",
        "postal_code": "43215-2510",
        "country": "United States",
        "longitude": "-82.99517953",
        "latitude": "39.9577586",
        "phone": "6144293936",
        "website_url": "http://www.wolfsridgebrewing.com",
        "state": "Ohio",
        "street": "215 N 4th St"
    },
    {
        "id": "000f8870-232f-499b-9841-ee5c2b95fc1d",
        "name": "Wolftrack Brewing Company",
        "brewery_type": "micro",
        "address_1": "505 King St",
        "address_2": null,
        "address_3": null,
        "city": "Cottonwood",
        "state_province": "Idaho",
        "postal_code": "83522-5066",
        "country": "United States",
        "longitude": "-116.3497034",
        "latitude": "46.04894954",
        "phone": "2085071187",
        "website_url": "https://www.facebook.com/Wolftrack-Brewing-and-Tasting-Den-467890926648903",
        "state": "Idaho",
        "street": "505 King St"
    },
    {
        "id": "932f3a05-590e-49dc-bba5-0c6c7c174125",
        "name": "Wolverine State Brewing Co",
        "brewery_type": "brewpub",
        "address_1": "2019 W Stadium Blvd # 103",
        "address_2": null,
        "address_3": null,
        "city": "Ann Arbor",
        "state_province": "Michigan",
        "postal_code": "48103-4557",
        "country": "United States",
        "longitude": "-83.7745473",
        "latitude": "42.2694316",
        "phone": "7343692990",
        "website_url": "http://www.wolverinebeer.com",
        "state": "Michigan",
        "street": "2019 W Stadium Blvd # 103"
    },
    {
        "id": "7a32d777-2288-4665-bcf4-9810ccbb85c0",
        "name": "Wolves & People Farmhouse Brewery",
        "brewery_type": "micro",
        "address_1": "30203 NE Benjamin Rd",
        "address_2": null,
        "address_3": null,
        "city": "Newberg",
        "state_province": "Oregon",
        "postal_code": "97132-6910",
        "country": "United States",
        "longitude": "-122.9288409",
        "latitude": "45.31485946",
        "phone": "5034876873",
        "website_url": "http://www.wolvesandpeople.com",
        "state": "Oregon",
        "street": "30203 NE Benjamin Rd"
    },
    {
        "id": "a8b3f717-bb25-4cfb-abb0-294596b190b6",
        "name": "Wonderland Brewing Co.",
        "brewery_type": "micro",
        "address_1": "5450 W 120th Ave",
        "address_2": null,
        "address_3": null,
        "city": "Broomfield",
        "state_province": "Colorado",
        "postal_code": "80020-5913",
        "country": "United States",
        "longitude": "-105.0560819",
        "latitude": "39.91349895",
        "phone": "3039530400",
        "website_url": "http://www.wonderlandbrewing.com",
        "state": "Colorado",
        "street": "5450 W 120th Ave"
    },
    {
        "id": "e58f2bb3-b382-4000-9977-ac2f5030da96",
        "name": "Wonky Brew Factory",
        "brewery_type": "planning",
        "address_1": null,
        "address_2": null,
        "address_3": null,
        "city": "Aurora",
        "state_province": "Illinois",
        "postal_code": "60506-5749",
        "country": "United States",
        "longitude": null,
        "latitude": null,
        "phone": null,
        "website_url": null,
        "state": "Illinois",
        "street": null
    },
    {
        "id": "7907c24f-b644-4e25-a1f5-4a5c6d71523c",
        "name": "Wood Boat Brewery",
        "brewery_type": "brewpub",
        "address_1": "625 Mary St Ste A",
        "address_2": null,
        "address_3": null,
        "city": "Clayton",
        "state_province": "New York",
        "postal_code": "13624-1131",
        "country": "United States",
        "longitude": null,
        "latitude": null,
        "phone": "3156863233",
        "website_url": "http://www.woodboatbrewery.com",
        "state": "New York",
        "street": "625 Mary St Ste A"
    },
    {
        "id": "08d6f6e4-d86e-42e2-9d2c-e6ca880851f9",
        "name": "Wood Kettle Brewing",
        "brewery_type": "brewpub",
        "address_1": "1192 Manitou Rd",
        "address_2": null,
        "address_3": null,
        "city": "Hilton",
        "state_province": "New York",
        "postal_code": "14468-9331",
        "country": "United States",
        "longitude": null,
        "latitude": null,
        "phone": "5853664183",
        "website_url": null,
        "state": "New York",
        "street": "1192 Manitou Rd"
    },
    {
        "id": "158b3651-e46b-4d58-a88a-37c1666d701a",
        "name": "Wood Key Brewing",
        "brewery_type": "micro",
        "address_1": "22 Kilbarrack Avenue",
        "address_2": "Kilbarrack",
        "address_3": "Dublin 5",
        "city": "Dublin",
        "state_province": "Dublin",
        "postal_code": "D05 VW89",
        "country": "Ireland",
        "longitude": "-6.1515127",
        "latitude": "53.3853135",
        "phone": "353851372499",
        "website_url": null,
        "state": "Dublin",
        "street": "22 Kilbarrack Avenue"
    },
    {
        "id": "5f1adaec-b15f-459f-a8c9-76fd67bc9cd3",
        "name": "Wood Ridge Farm Brewery",
        "brewery_type": "micro",
        "address_1": "151 Old Ridge Rd",
        "address_2": null,
        "address_3": null,
        "city": "Lovingston",
        "state_province": "Virginia",
        "postal_code": "22949-2550",
        "country": "United States",
        "longitude": null,
        "latitude": null,
        "phone": "4344226225",
        "website_url": null,
        "state": "Virginia",
        "street": "151 Old Ridge Rd"
    },
    {
        "id": "449f255b-3b62-4cce-95f7-03fd57e76c9e",
        "name": "Woodbine Farm Brewery",
        "brewery_type": "planning",
        "address_1": null,
        "address_2": null,
        "address_3": null,
        "city": "Manassas",
        "state_province": "Virginia",
        "postal_code": "20112",
        "country": "United States",
        "longitude": null,
        "latitude": null,
        "phone": "5712057460",
        "website_url": "http://Woodbinefarmandbrewery.com",
        "state": "Virginia",
        "street": null
    },
    {
        "id": "1734f46b-14ba-4dec-a254-5be95c4bab5d",
        "name": "Woodbury Brewing Company",
        "brewery_type": "brewpub",
        "address_1": "738 Main St",
        "address_2": null,
        "address_3": null,
        "city": "Woodbury",
        "state_province": "Connecticut",
        "postal_code": "06798-0083",
        "country": "United States",
        "longitude": "-73.2070509",
        "latitude": "41.5385323",
        "phone": "2039108955",
        "website_url": "http://www.woodburybrewingcompany.com",
        "state": "Connecticut",
        "street": "738 Main St"
    },
    {
        "id": "4924fb50-adeb-4611-884b-54be9c24fa55",
        "name": "Woodcock Brothers Brewing",
        "brewery_type": "brewpub",
        "address_1": "638 Lake St",
        "address_2": null,
        "address_3": null,
        "city": "Wilson",
        "state_province": "New York",
        "postal_code": "14172-9600",
        "country": "United States",
        "longitude": "-78.825882",
        "latitude": "43.299013",
        "phone": "7163334000",
        "website_url": "http://www.woodcockbrothersbrewery.com",
        "state": "New York",
        "street": "638 Lake St"
    },
    {
        "id": "97d5fb29-b30d-453a-9d47-f0351366f49d",
        "name": "Woodcreek Brewing Company",
        "brewery_type": "micro",
        "address_1": "1400 E Interstate 30 Ste A",
        "address_2": null,
        "address_3": null,
        "city": "Rockwall",
        "state_province": "Texas",
        "postal_code": "75087-6234",
        "country": "United States",
        "longitude": null,
        "latitude": null,
        "phone": "9725890048",
        "website_url": "http://www.woodcreekbrewing.com",
        "state": "Texas",
        "street": "1400 E Interstate 30 Ste A"
    },
    {
        "id": "e9625858-9a23-4aa5-847f-27c06ed5938a",
        "name": "Wooden Bear Brewing Co",
        "brewery_type": "micro",
        "address_1": "21 W North St",
        "address_2": null,
        "address_3": null,
        "city": "Greenfield",
        "state_province": "Indiana",
        "postal_code": "46140-2171",
        "country": "United States",
        "longitude": "-85.77122303",
        "latitude": "39.78597726",
        "phone": "3173181221",
        "website_url": "http://www.woodenbearbrewing.com",
        "state": "Indiana",
        "street": "21 W North St"
    },
    {
        "id": "f0aec029-6d8f-4e95-81ab-ed9292bbbdbe",
        "name": "Wooden Cask Brewing Company",
        "brewery_type": "micro",
        "address_1": "629 York St",
        "address_2": null,
        "address_3": null,
        "city": "Newport",
        "state_province": "Kentucky",
        "postal_code": "41071-1815",
        "country": "United States",
        "longitude": "-84.49457871",
        "latitude": "39.09061257",
        "phone": "8592612172",
        "website_url": "http://www.woodencask.com",
        "state": "Kentucky",
        "street": "629 York St"
    },
    {
        "id": "ae267bbc-95bf-4a45-a8ff-6e7b9a9e88a0",
        "name": "Wooden Hill Brewing Company",
        "brewery_type": "brewpub",
        "address_1": "7421 Bush Lake Road",
        "address_2": null,
        "address_3": null,
        "city": "Edina",
        "state_province": "Minnesota",
        "postal_code": "55439",
        "country": "United States",
        "longitude": "-93.3596061",
        "latitude": "44.86781169",
        "phone": "9529609663",
        "website_url": "http://www.woodenhillbrewing.com",
        "state": "Minnesota",
        "street": "7421 Bush Lake Road"
    },
    {
        "id": "432aa140-cfe4-4a0b-be34-03401efd5a50",
        "name": "Wooden Legs Brewing Co",
        "brewery_type": "brewpub",
        "address_1": "309 5th St Ste 100",
        "address_2": null,
        "address_3": null,
        "city": "Brookings",
        "state_province": "South Dakota",
        "postal_code": "57006-1963",
        "country": "United States",
        "longitude": "-96.7996148",
        "latitude": "44.3104741",
        "phone": "6056922337",
        "website_url": "http://www.woodenlegsbrewing.com",
        "state": "South Dakota",
        "street": "309 5th St Ste 100"
    },
    {
        "id": "13bf0163-6103-4307-a4ed-70309601bc0e",
        "name": "Wooden Robot",
        "brewery_type": "micro",
        "address_1": "1440 S Tryon St Ste 110",
        "address_2": null,
        "address_3": null,
        "city": "Charlotte",
        "state_province": "North Carolina",
        "postal_code": "28203-4263",
        "country": "United States",
        "longitude": null,
        "latitude": null,
        "phone": "7723594993",
        "website_url": "http://www.woodenrobotbrewery.com",
        "state": "North Carolina",
        "street": "1440 S Tryon St Ste 110"
    },
    {
        "id": "c346bd50-0c32-4700-816e-b8aa8d111630",
        "name": "Wooden Robot",
        "brewery_type": "planning",
        "address_1": null,
        "address_2": null,
        "address_3": null,
        "city": "Charlotte",
        "state_province": "North Carolina",
        "postal_code": "28203-4263",
        "country": "United States",
        "longitude": null,
        "latitude": null,
        "phone": "7723594993",
        "website_url": null,
        "state": "North Carolina",
        "street": null
    },
    {
        "id": "4df98b72-a45e-414f-a813-909bdc077119",
        "name": "Wooden Skiff Beer Co.",
        "brewery_type": "contract",
        "address_1": null,
        "address_2": null,
        "address_3": null,
        "city": "Buffalo",
        "state_province": "New York",
        "postal_code": "14216-3611",
        "country": "United States",
        "longitude": null,
        "latitude": null,
        "phone": "7062285064",
        "website_url": "http://www.woodenskiff.com",
        "state": "New York",
        "street": null
    },
    {
        "id": "972dc278-a3a6-4dbd-acd0-4f6c8fc22343",
        "name": "Wooden Skiff Beer Company",
        "brewery_type": "micro",
        "address_1": "141 Island Dr Ste 16",
        "address_2": null,
        "address_3": null,
        "city": "Hilton Head Island",
        "state_province": "South Carolina",
        "postal_code": "29926-4500",
        "country": "United States",
        "longitude": null,
        "latitude": null,
        "phone": "8432904364",
        "website_url": "http://www.woodenskiffbrewing.com",
        "state": "South Carolina",
        "street": "141 Island Dr Ste 16"
    },
    {
        "id": "b45e7a44-c0b8-4d09-b766-36c0130a1a8b",
        "name": "Woodfour Brewing Company",
        "brewery_type": "brewpub",
        "address_1": "6780 Depot St Ste 160",
        "address_2": null,
        "address_3": null,
        "city": "Sebastopol",
        "state_province": "California",
        "postal_code": "95472-3462",
        "country": "United States",
        "longitude": "-122.8211041",
        "latitude": "38.4033133",
        "phone": "7078233144",
        "website_url": null,
        "state": "California",
        "street": "6780 Depot St Ste 160"
    },
    {
        "id": "a588faa2-58f8-47cf-b361-07fba19fd3d1",
        "name": "WoodGrain Brewing Company",
        "brewery_type": "micro",
        "address_1": "101 S Phillips Ave Ste 100",
        "address_2": null,
        "address_3": null,
        "city": "Sioux Falls",
        "state_province": "South Dakota",
        "postal_code": "57104-6719",
        "country": "United States",
        "longitude": "-96.72722416",
        "latitude": "43.54728383",
        "phone": "6053105316",
        "website_url": "http://www.woodgrainbrew.com",
        "state": "South Dakota",
        "street": "101 S Phillips Ave Ste 100"
    },
    {
        "id": "2d4ca2bd-4f74-4623-8c93-2564ebd9e2b9",
        "name": "Woodhouse Blending & Brewing",
        "brewery_type": "planning",
        "address_1": null,
        "address_2": null,
        "address_3": null,
        "city": "Santa Cruz",
        "state_province": "California",
        "postal_code": "95060-",
        "country": "United States",
        "longitude": "-122.0297182",
        "latitude": "36.974201",
        "phone": "6198889489",
        "website_url": null,
        "state": "California",
        "street": null
    },
    {
        "id": "5c63fefc-72aa-4fe0-8bc2-0bf89c54ab04",
        "name": "Woodland Empire Ale Craft",
        "brewery_type": "micro",
        "address_1": "1114 W Front St",
        "address_2": null,
        "address_3": null,
        "city": "Boise",
        "state_province": "Idaho",
        "postal_code": "83702-6951",
        "country": "United States",
        "longitude": "-116.2086811",
        "latitude": "43.616091",
        "phone": "2086029318",
        "website_url": "http://www.woodlandempire.com",
        "state": "Idaho",
        "street": "1114 W Front St"
    },
    {
        "id": "0ab6358c-dc9b-498f-aea5-255663a02be3",
        "name": "Woodland Farm Brewery",
        "brewery_type": "micro",
        "address_1": "6002 Trenton Rd",
        "address_2": null,
        "address_3": null,
        "city": "Utica",
        "state_province": "New York",
        "postal_code": "13502-6224",
        "country": "United States",
        "longitude": "-75.212678",
        "latitude": "43.148929",
        "phone": "3158643051",
        "website_url": "http://www.woodlandbeer.com",
        "state": "New York",
        "street": "6002 Trenton Rd"
    },
    {
        "id": "a06d2559-f43d-4818-9c51-2b6ed78ded6a",
        "name": "Woodland Farms Brewery",
        "brewery_type": "micro",
        "address_1": "306 Route 1, Suite C",
        "address_2": null,
        "address_3": null,
        "city": "Kittery",
        "state_province": "Maine",
        "postal_code": "03904",
        "country": "United States",
        "longitude": null,
        "latitude": null,
        "phone": "2079943911",
        "website_url": "http://www.wfbrewery.com",
        "state": "Maine",
        "street": "306 Route 1, Suite C"
    },
    {
        "id": "0106f90d-19de-4031-bbed-ed732be5a9ae",
        "name": "Woodland Republic Brewing & Blending",
        "brewery_type": "planning",
        "address_1": "412 5th St",
        "address_2": null,
        "address_3": null,
        "city": "Rapid City",
        "state_province": "South Dakota",
        "postal_code": "57701-2742",
        "country": "United States",
        "longitude": "-103.2244639",
        "latitude": "44.08150095",
        "phone": null,
        "website_url": "http://woodlandrepublicbrewing.com",
        "state": "South Dakota",
        "street": "412 5th St"
    },
    {
        "id": "3cf6f95a-0aae-4bfa-8904-f47aeb945414",
        "name": "Woodman's Brewery",
        "brewery_type": "micro",
        "address_1": "195 Peaked Hill Rd",
        "address_2": null,
        "address_3": null,
        "city": "Bristol",
        "state_province": "New Hampshire",
        "postal_code": "03222-3331",
        "country": "United States",
        "longitude": "-71.70955815",
        "latitude": "43.60711645",
        "phone": "6037443669",
        "website_url": "http://www.facebook.com/woodmansbrewery",
        "state": "New Hampshire",
        "street": "195 Peaked Hill Rd"
    },
    {
        "id": "1fe76ab0-0f65-4142-841b-b58672d507bb",
        "name": "Woods Bar & Brewery",
        "brewery_type": "brewpub",
        "address_1": "1701 Telegraph Ave",
        "address_2": null,
        "address_3": null,
        "city": "Oakland",
        "state_province": "California",
        "postal_code": "94612-2107",
        "country": "United States",
        "longitude": "-122.2704253",
        "latitude": "37.8069575",
        "phone": "4155091695",
        "website_url": "http://www.woodsbeer.com",
        "state": "California",
        "street": "1701 Telegraph Ave"
    },
    {
        "id": "1319b1fc-4d16-4d55-94a7-201b960ddea6",
        "name": "Woods Beer Company",
        "brewery_type": "brewpub",
        "address_1": "1701 Telegraph Ave",
        "address_2": null,
        "address_3": null,
        "city": "Oakland",
        "state_province": "California",
        "postal_code": "94612-2107",
        "country": "United States",
        "longitude": "-122.2704253",
        "latitude": "37.8069575",
        "phone": "4158149212",
        "website_url": "http://woodsbeer.com",
        "state": "California",
        "street": "1701 Telegraph Ave"
    },
    {
        "id": "8a058b3f-9a57-469d-9f1f-c31c3ae064a5",
        "name": "Woods Boss Brewing Company",
        "brewery_type": "micro",
        "address_1": "2210 California St",
        "address_2": null,
        "address_3": null,
        "city": "Denver",
        "state_province": "Colorado",
        "postal_code": "80205-2824",
        "country": "United States",
        "longitude": "-104.9845374",
        "latitude": "39.7509153",
        "phone": "9149609225",
        "website_url": "http://www.woodsbossbrew.com",
        "state": "Colorado",
        "street": "2210 California St"
    },
    {
        "id": "eb859746-2153-4704-bae9-a39ba7e725c7",
        "name": "Woods Cabin Brewery",
        "brewery_type": "planning",
        "address_1": null,
        "address_2": null,
        "address_3": null,
        "city": "Yarrow Point",
        "state_province": "Washington",
        "postal_code": "98004",
        "country": "United States",
        "longitude": null,
        "latitude": null,
        "phone": "4258945483",
        "website_url": null,
        "state": "Washington",
        "street": null
    },
    {
        "id": "c95c466f-2ae4-4ea0-9c32-1877d686c264",
        "name": "Woods Cervecer\u00c3\u00ada",
        "brewery_type": "brewpub",
        "address_1": "3801 18th St",
        "address_2": null,
        "address_3": null,
        "city": "San Francisco",
        "state_province": "California",
        "postal_code": "94114-2615",
        "country": "United States",
        "longitude": "-122.4285438",
        "latitude": "37.761163",
        "phone": "4152739295",
        "website_url": "http://www.cerveceriasf.com",
        "state": "California",
        "street": "3801 18th St"
    },
    {
        "id": "a75e7e8a-4f8a-4f67-b33f-7aa2c25b3913",
        "name": "Woodstock Brewhouse",
        "brewery_type": "brewpub",
        "address_1": "123 E Court St",
        "address_2": null,
        "address_3": null,
        "city": "Woodstock",
        "state_province": "Virginia",
        "postal_code": "22664-1761",
        "country": "United States",
        "longitude": "-78.50414235",
        "latitude": "38.88142648",
        "phone": "5404592739",
        "website_url": "http://www.woodstockbrewhouse.com",
        "state": "Virginia",
        "street": "123 E Court St"
    },
    {
        "id": "a83ffb66-54d3-41f7-828a-4cdf2aad7c38",
        "name": "Woodstock Brewing",
        "brewery_type": "micro",
        "address_1": "5581 NY-28",
        "address_2": null,
        "address_3": null,
        "city": "Phoenicia",
        "state_province": "New York",
        "postal_code": "12464",
        "country": "United States",
        "longitude": null,
        "latitude": null,
        "phone": "8456880054",
        "website_url": "http://www.drinkwoodstock.com",
        "state": "New York",
        "street": "5581 NY-28"
    },
    {
        "id": "48898f65-cd5b-4a64-b775-d9f8b8fd6627",
        "name": "Woodstock Inn Brewery",
        "brewery_type": "micro",
        "address_1": "135 Main St",
        "address_2": null,
        "address_3": null,
        "city": "North Woodstock",
        "state_province": "New Hampshire",
        "postal_code": "03262",
        "country": "United States",
        "longitude": "-71.6865275",
        "latitude": "44.0316675",
        "phone": "6037453951",
        "website_url": "http://www.woodstockinnnh.com",
        "state": "New Hampshire",
        "street": "135 Main St"
    },
    {
        "id": "e5eb754a-eb95-4a9f-81f4-3f0a294f2c3c",
        "name": "Woodward Avenue Brewers",
        "brewery_type": "brewpub",
        "address_1": "22646 Woodward Ave",
        "address_2": null,
        "address_3": null,
        "city": "Ferndale",
        "state_province": "Michigan",
        "postal_code": "48220-1810",
        "country": "United States",
        "longitude": "-83.13333109",
        "latitude": "42.4596444",
        "phone": "2485463696",
        "website_url": "http://www.thewabsite.com",
        "state": "Michigan",
        "street": "22646 Woodward Ave"
    },
    {
        "id": "9ebe71f4-6a99-4b06-8f89-f9ecfe891f44",
        "name": "Woodwright Brewing Company",
        "brewery_type": "micro",
        "address_1": "985 Douglas Ave",
        "address_2": null,
        "address_3": null,
        "city": "Dunedin",
        "state_province": "Florida",
        "postal_code": "34698-4945",
        "country": "United States",
        "longitude": "-82.78780975",
        "latitude": "28.01539972",
        "phone": "7272388717",
        "website_url": null,
        "state": "Florida",
        "street": "985 Douglas Ave"
    },
    {
        "id": "47592661-12ba-445d-8b50-9d8e05bf1f28",
        "name": "Woody's Brewery",
        "brewery_type": "brewpub",
        "address_1": "1257 Oregon St",
        "address_2": null,
        "address_3": null,
        "city": "Redding",
        "state_province": "California",
        "postal_code": "96001-0414",
        "country": "United States",
        "longitude": "-122.3953367",
        "latitude": "40.585948",
        "phone": "5307681034",
        "website_url": "http://www.woodysbrewing.com",
        "state": "California",
        "street": "1257 Oregon St"
    },
    {
        "id": "5a81d70c-7d2b-4f40-b878-e8c4e147ce92",
        "name": "Wooly Pig Farm Brewery",
        "brewery_type": "micro",
        "address_1": "23631 Township Road 167",
        "address_2": null,
        "address_3": null,
        "city": "Fresno",
        "state_province": "Ohio",
        "postal_code": "43824-9704",
        "country": "United States",
        "longitude": "-81.73572372",
        "latitude": "40.2914144",
        "phone": "7406935050",
        "website_url": "http://www.woolypigfarmbrewery.com",
        "state": "Ohio",
        "street": "23631 Township Road 167"
    },
    {
        "id": "fd99a363-f02a-4197-8ffc-bd7031ab9b45",
        "name": "WopsHops Brewing Company",
        "brewery_type": "brewpub",
        "address_1": "419 Sanford Ave",
        "address_2": null,
        "address_3": null,
        "city": "Sanford",
        "state_province": "Florida",
        "postal_code": "32771-1970",
        "country": "United States",
        "longitude": "-81.26485422",
        "latitude": "28.80875529",
        "phone": "4078787819",
        "website_url": "http://www.wopshopsbrewing.com",
        "state": "Florida",
        "street": "419 Sanford Ave"
    },
    {
        "id": "a8c90d87-a9e7-45b5-a8db-c58ed9780676",
        "name": "Working Class Brewery",
        "brewery_type": "micro",
        "address_1": "17448 Lorain Ave",
        "address_2": null,
        "address_3": null,
        "city": "Cleveland",
        "state_province": "Ohio",
        "postal_code": "44111-4028",
        "country": "United States",
        "longitude": "-81.820461",
        "latitude": "41.44993",
        "phone": "2164175112",
        "website_url": "http://www.workingclassbrewery.com",
        "state": "Ohio",
        "street": "17448 Lorain Ave"
    },
    {
        "id": "5f057cf6-831b-43d0-911b-1f95b54b1b21",
        "name": "Working Draft Beer Company",
        "brewery_type": "micro",
        "address_1": "1129 E Wilson St",
        "address_2": null,
        "address_3": null,
        "city": "Madison",
        "state_province": "Wisconsin",
        "postal_code": "53703-3758",
        "country": "United States",
        "longitude": "-89.3652802",
        "latitude": "43.0833378",
        "phone": null,
        "website_url": "http://www.workingdraftbeer.com",
        "state": "Wisconsin",
        "street": "1129 E Wilson St"
    },
    {
        "id": "52dc80a4-9171-4589-9257-60f04cece644",
        "name": "Working Man Brewing Co",
        "brewery_type": "closed",
        "address_1": "5542 Brisa St Ste F",
        "address_2": null,
        "address_3": null,
        "city": "Livermore",
        "state_province": "California",
        "postal_code": "94550-2524",
        "country": "United States",
        "longitude": "-121.7251276",
        "latitude": "37.69755354",
        "phone": "9252699622",
        "website_url": "http://www.workingmanbrewing.com",
        "state": "California",
        "street": "5542 Brisa St Ste F"
    },
    {
        "id": "a7aeca98-8bf2-430e-9579-a09ee6bb8e0e",
        "name": "Workshop Brewing Co",
        "brewery_type": "brewpub",
        "address_1": "221 Garland St Ste A",
        "address_2": null,
        "address_3": null,
        "city": "Traverse City",
        "state_province": "Michigan",
        "postal_code": "49684-2372",
        "country": "United States",
        "longitude": null,
        "latitude": null,
        "phone": "12314218966",
        "website_url": "http://www.traversecityworkshop.com",
        "state": "Michigan",
        "street": "221 Garland St Ste A"
    },
    {
        "id": "7bbe8ee2-c1ed-458f-923a-93d6e2dea8db",
        "name": "World's End Brewpub",
        "brewery_type": "planning",
        "address_1": null,
        "address_2": null,
        "address_3": null,
        "city": "Grand Lake",
        "state_province": "Colorado",
        "postal_code": "80447",
        "country": "United States",
        "longitude": null,
        "latitude": null,
        "phone": "3035515637",
        "website_url": "http://www.ourplacebrewhaus.com",
        "state": "Colorado",
        "street": null
    },
    {
        "id": "9ee6e94f-60fb-4770-b250-6801cec8c770",
        "name": "Wormtown Brewery",
        "brewery_type": "micro",
        "address_1": "72 Shrewsbury St",
        "address_2": null,
        "address_3": null,
        "city": "Worcester",
        "state_province": "Massachusetts",
        "postal_code": "01604-4625",
        "country": "United States",
        "longitude": "-71.7912262",
        "latitude": "42.2634992",
        "phone": "7742391555",
        "website_url": "http://www.wormtownbrewery.com",
        "state": "Massachusetts",
        "street": "72 Shrewsbury St"
    },
    {
        "id": "3ece8bec-fdbd-43cb-a063-363b3203c1e2",
        "name": "Wort Hog Brewing Company LLC",
        "brewery_type": "brewpub",
        "address_1": "50A S 3rd St",
        "address_2": null,
        "address_3": null,
        "city": "Warrenton",
        "state_province": "Virginia",
        "postal_code": "20186-3340",
        "country": "United States",
        "longitude": "-77.7951382",
        "latitude": "38.7117948",
        "phone": "5403002739",
        "website_url": "http://www.worthogbreweryllc.com",
        "state": "Virginia",
        "street": "50A S 3rd St"
    },
    {
        "id": "0928f004-3195-40fc-a6e9-a985df23768b",
        "name": "Worth Brewing Co",
        "brewery_type": "brewpub",
        "address_1": "835 Central Ave",
        "address_2": null,
        "address_3": null,
        "city": "Northwood",
        "state_province": "Iowa",
        "postal_code": "50459-1519",
        "country": "United States",
        "longitude": "-93.219581",
        "latitude": "43.444038",
        "phone": "6413249899",
        "website_url": "http://www.worthbrewing.com",
        "state": "Iowa",
        "street": "835 Central Ave"
    },
    {
        "id": "e55b790d-78bd-4014-8157-ed339067b014",
        "name": "Worthy Brewing Company",
        "brewery_type": "micro",
        "address_1": "495 NE Bellevue Dr",
        "address_2": null,
        "address_3": null,
        "city": "Bend",
        "state_province": "Oregon",
        "postal_code": "97701-7412",
        "country": "United States",
        "longitude": "-121.2603915",
        "latitude": "44.0553542",
        "phone": "5416394772",
        "website_url": "http://www.worthybrewing.com",
        "state": "Oregon",
        "street": "495 NE Bellevue Dr"
    },
    {
        "id": "68d84faa-3c71-4fa0-b643-6d4dc8a12f86",
        "name": "Wren House Brewing Company",
        "brewery_type": "micro",
        "address_1": "2125 N 24th St",
        "address_2": null,
        "address_3": null,
        "city": "Phoenix",
        "state_province": "Arizona",
        "postal_code": "85008-2713",
        "country": "United States",
        "longitude": "-112.0301125",
        "latitude": "33.516633",
        "phone": "6022449184",
        "website_url": "http://www.wrenhousebrewing.com",
        "state": "Arizona",
        "street": "2125 N 24th St"
    },
    {
        "id": "2ae64f6a-c243-4554-9000-0cf70b7d220a",
        "name": "Wrightsville Beach Brewery",
        "brewery_type": "brewpub",
        "address_1": "6201 Oleander Dr",
        "address_2": null,
        "address_3": null,
        "city": "Wilmington",
        "state_province": "North Carolina",
        "postal_code": "28403-3535",
        "country": "United States",
        "longitude": "-77.836851",
        "latitude": "34.210452",
        "phone": "9102564938",
        "website_url": "http://www.wbbeer.com",
        "state": "North Carolina",
        "street": "6201 Oleander Dr"
    },
    {
        "id": "882efb69-a366-4fb2-a4c6-2062a7920139",
        "name": "WT Brews LLC",
        "brewery_type": "micro",
        "address_1": "3 W Genesee St",
        "address_2": null,
        "address_3": null,
        "city": "Baldwinsville",
        "state_province": "New York",
        "postal_code": "13027-1104",
        "country": "United States",
        "longitude": "-76.33288571",
        "latitude": "43.15855314",
        "phone": "3158573266",
        "website_url": "http://www.wtbrews.com",
        "state": "New York",
        "street": "3 W Genesee St"
    },
    {
        "id": "1f10ffbf-b7bc-4704-bc6e-8101de47917f",
        "name": "Wyndridge Farm Brewing",
        "brewery_type": "brewpub",
        "address_1": "885 S Pleasant Ave",
        "address_2": null,
        "address_3": null,
        "city": "Dallastown",
        "state_province": "Pennsylvania",
        "postal_code": "17313-9650",
        "country": "United States",
        "longitude": "-76.644864",
        "latitude": "39.893878",
        "phone": "7172449900",
        "website_url": "http://www.wyndridge.com",
        "state": "Pennsylvania",
        "street": "885 S Pleasant Ave"
    },
    {
        "id": "e1daa6b8-1bfe-4833-bb30-908c58eb8ec2",
        "name": "Wynkoop Brewing Co",
        "brewery_type": "brewpub",
        "address_1": "1634 18th St",
        "address_2": null,
        "address_3": null,
        "city": "Denver",
        "state_province": "Colorado",
        "postal_code": "80202-1212",
        "country": "United States",
        "longitude": "-104.9984831",
        "latitude": "39.7535446",
        "phone": "3032972700",
        "website_url": "http://www.wynkoop.com",
        "state": "Colorado",
        "street": "1634 18th St"
    },
    {
        "id": "87003934-0deb-4c4e-bc31-a6fcff7943d2",
        "name": "Wynwood Brewing Company",
        "brewery_type": "micro",
        "address_1": "565 NW 24th St",
        "address_2": null,
        "address_3": null,
        "city": "Miami",
        "state_province": "Florida",
        "postal_code": "33127-4327",
        "country": "United States",
        "longitude": "-80.2044925",
        "latitude": "25.8003759",
        "phone": "3056405043",
        "website_url": "http://www.wynwoodbrewing.com",
        "state": "Florida",
        "street": "565 NW 24th St"
    },
    {
        "id": "a686b7b6-d94f-42a4-ad0e-f60db23011e7",
        "name": "WYOld West Brewing Company",
        "brewery_type": "brewpub",
        "address_1": "221 N Bent St",
        "address_2": null,
        "address_3": null,
        "city": "Powell",
        "state_province": "Wyoming",
        "postal_code": "82435-2335",
        "country": "United States",
        "longitude": "-108.7574813",
        "latitude": "44.75451993",
        "phone": "3077646200",
        "website_url": "http://www.wyoldwest.com",
        "state": "Wyoming",
        "street": "221 N Bent St"
    },
    {
        "id": "fc80b53a-b5b3-47ce-8f23-3e1b3a61a8e4",
        "name": "WYOld West Taproom",
        "brewery_type": "micro",
        "address_1": "1022 13th St",
        "address_2": null,
        "address_3": null,
        "city": "Cody",
        "state_province": "Wyoming",
        "postal_code": "82414-3631",
        "country": "United States",
        "longitude": "-109.06243705508345",
        "latitude": "44.53891036692382",
        "phone": "3075863550",
        "website_url": "http://www.wyoldwest.com",
        "state": "Wyoming",
        "street": "1022 13th St"
    },
    {
        "id": "7d77be76-ec7f-416d-a4c0-d9db268fe2dc",
        "name": "Wyoming Territory Brewing / Eric Bischoff Family Brewing",
        "brewery_type": "contract",
        "address_1": null,
        "address_2": null,
        "address_3": null,
        "city": "Cody",
        "state_province": "Wyoming",
        "postal_code": "82414",
        "country": "United States",
        "longitude": null,
        "latitude": null,
        "phone": null,
        "website_url": "http://www.buffalobillcodybeer.com",
        "state": "Wyoming",
        "street": null
    },
    {
        "id": "d2aeedba-6cfe-493d-b393-f32ae8986490",
        "name": "Xarlie",
        "brewery_type": "brewpub",
        "address_1": "IC2 \u00ad Lagoa",
        "address_2": "Lugar de Barrac\u00e3o",
        "address_3": null,
        "city": "Colmeias",
        "state_province": "Leiria",
        "postal_code": "2420-195",
        "country": "Portugal",
        "longitude": "39.828582682961304",
        "latitude": "-8.721631759037207",
        "phone": "+351 244 004 021",
        "website_url": "https://xarlie.pt",
        "state": "Leiria",
        "street": "IC2 \u00ad Lagoa"
    },
    {
        "id": "415a40f3-4590-49ad-93fc-e68f58442b40",
        "name": "Xicha Brewing Co.",
        "brewery_type": "brewpub",
        "address_1": "576 Patterson Street NW, Suite 140",
        "address_2": null,
        "address_3": null,
        "city": "Salem",
        "state_province": "Oregon",
        "postal_code": "97304",
        "country": "United States",
        "longitude": "-123.0552621",
        "latitude": "44.94650388",
        "phone": "5039908292",
        "website_url": "https://www.xichabrewing.com",
        "state": "Oregon",
        "street": "576 Patterson Street NW, Suite 140"
    },
    {
        "id": "2d5d6ee4-8f8d-4235-9015-75d2df768cfa",
        "name": "Ximix Craft Exploration",
        "brewery_type": "closed",
        "address_1": "13723 1/2 Harvard Pl",
        "address_2": null,
        "address_3": null,
        "city": "Gardena",
        "state_province": "California",
        "postal_code": "90249-2527",
        "country": "United States",
        "longitude": "-118.3076153",
        "latitude": "33.90628796",
        "phone": "7603332351",
        "website_url": "http://www.ximixcraft.com",
        "state": "California",
        "street": "13723 1/2 Harvard Pl"
    },
    {
        "id": "32e48cef-1c43-4445-bba4-d8d5c7e626dd",
        "name": "Y Bridge Brewing Company",
        "brewery_type": "micro",
        "address_1": "1417 Linden Ave",
        "address_2": null,
        "address_3": null,
        "city": "Zanesville",
        "state_province": "Ohio",
        "postal_code": "43701",
        "country": "United States",
        "longitude": "-82.00422961",
        "latitude": "39.95603429",
        "phone": "7408684265",
        "website_url": null,
        "state": "Ohio",
        "street": "1417 Linden Ave"
    },
    {
        "id": "ed9f39d7-92a6-43a1-b243-9faabe362ee5",
        "name": "Yachats Brewing",
        "brewery_type": "brewpub",
        "address_1": "PO Box 308",
        "address_2": null,
        "address_3": null,
        "city": "Yachats",
        "state_province": "Oregon",
        "postal_code": "97498-0308",
        "country": "United States",
        "longitude": "-124.1039247",
        "latitude": "44.31213446",
        "phone": null,
        "website_url": null,
        "state": "Oregon",
        "street": "PO Box 308"
    },
    {
        "id": "f8991c88-0d32-48b0-b6bc-bd73161d1336",
        "name": "Yakima Craft Brewing Co",
        "brewery_type": "micro",
        "address_1": "2920 River Rd Ste 6",
        "address_2": null,
        "address_3": null,
        "city": "Yakima",
        "state_province": "Washington",
        "postal_code": "98902-7332",
        "country": "United States",
        "longitude": null,
        "latitude": null,
        "phone": "5096547357",
        "website_url": "http://www.yakimacraftbrewing.com",
        "state": "Washington",
        "street": "2920 River Rd Ste 6"
    },
    {
        "id": "9c27cd66-3d4a-4a63-96a5-5cf8106aa85d",
        "name": "Yakima Valley Hops",
        "brewery_type": "micro",
        "address_1": "702 N 1st Ave Ste D",
        "address_2": null,
        "address_3": null,
        "city": "Yakima",
        "state_province": "Washington",
        "postal_code": "98902-2121",
        "country": "United States",
        "longitude": "-120.51422085778982",
        "latitude": "46.610196273663234",
        "phone": "2086494677",
        "website_url": null,
        "state": "Washington",
        "street": "702 N 1st Ave Ste D"
    },
    {
        "id": "0fd7c528-fc25-44a0-8895-61b07138ebf3",
        "name": "Yalobusha Brewing Company",
        "brewery_type": "micro",
        "address_1": "102 S Main St",
        "address_2": null,
        "address_3": null,
        "city": "Water Valley",
        "state_province": "Mississippi",
        "postal_code": "38965-2906",
        "country": "United States",
        "longitude": "-89.6366568",
        "latitude": "34.1422633",
        "phone": null,
        "website_url": "http://www.yalobrew.com",
        "state": "Mississippi",
        "street": "102 S Main St"
    },
    {
        "id": "ddd1e565-b732-4d50-832c-ac98d056c460",
        "name": "Yampa Valley Brewing Company",
        "brewery_type": "micro",
        "address_1": "106 E Jefferson Ave Unit B",
        "address_2": null,
        "address_3": null,
        "city": "Hayden",
        "state_province": "Colorado",
        "postal_code": "81639",
        "country": "United States",
        "longitude": null,
        "latitude": null,
        "phone": "9702768014",
        "website_url": "http://www.yampavalleybrew.com",
        "state": "Colorado",
        "street": "106 E Jefferson Ave Unit B"
    },
    {
        "id": "c5372484-366c-45b2-81d9-bf141c9587aa",
        "name": "Yankee Tank Brewing Company",
        "brewery_type": "micro",
        "address_1": "807 E 23rd St Ste J",
        "address_2": null,
        "address_3": null,
        "city": "Lawrence",
        "state_province": "Kansas",
        "postal_code": "66046-4952",
        "country": "United States",
        "longitude": null,
        "latitude": null,
        "phone": "7852339333",
        "website_url": "http://yankeetankbrewing.com",
        "state": "Kansas",
        "street": "807 E 23rd St Ste J"
    },
    {
        "id": "a125dc73-3d86-477e-ab26-b8de21f7ecce",
        "name": "Yard Owl Craft Brewery",
        "brewery_type": "brewpub",
        "address_1": "19 Osprey Ln",
        "address_2": null,
        "address_3": null,
        "city": "Gardiner",
        "state_province": "New York",
        "postal_code": "12525-5339",
        "country": "United States",
        "longitude": "-74.14716916",
        "latitude": "41.69154658",
        "phone": "8456338576",
        "website_url": "http://www.yardowlcraftbrewery.com",
        "state": "New York",
        "street": "19 Osprey Ln"
    },
    {
        "id": "1a86c24c-f5bf-4aad-90a2-71db07f18b6c",
        "name": "Yards Brewing Co",
        "brewery_type": "regional",
        "address_1": "901 N Delaware Ave",
        "address_2": null,
        "address_3": null,
        "city": "Philadelphia",
        "state_province": "Pennsylvania",
        "postal_code": "19123-3110",
        "country": "United States",
        "longitude": "-75.1324016",
        "latitude": "39.9655175",
        "phone": "2156342600",
        "website_url": "http://www.yardsbrewing.com",
        "state": "Pennsylvania",
        "street": "901 N Delaware Ave"
    },
    {
        "id": "b39f4d9c-8aa9-48d9-9c07-e26da7557ea3",
        "name": "Yaxx Brewing Company",
        "brewery_type": "planning",
        "address_1": null,
        "address_2": null,
        "address_3": null,
        "city": "Waco",
        "state_province": "Texas",
        "postal_code": "76712-3284",
        "country": "United States",
        "longitude": null,
        "latitude": null,
        "phone": "8014730669",
        "website_url": null,
        "state": "Texas",
        "street": null
    },
    {
        "id": "dfad1416-6baf-4bdd-9001-99a54fee5870",
        "name": "Yazoo Brewing Co",
        "brewery_type": "regional",
        "address_1": "910 Division St",
        "address_2": null,
        "address_3": null,
        "city": "Nashville",
        "state_province": "Tennessee",
        "postal_code": "37203-4111",
        "country": "United States",
        "longitude": "-86.78355595",
        "latitude": "36.15090195",
        "phone": "6158914649",
        "website_url": "http://www.yazoobrew.com",
        "state": "Tennessee",
        "street": "910 Division St"
    },
    {
        "id": "0c27013d-74f0-4bc5-93e6-c95fa605ea81",
        "name": "Ye Olde Brothers Brewery",
        "brewery_type": "brewpub",
        "address_1": "4458 Highway 87",
        "address_2": null,
        "address_3": null,
        "city": "Navarre",
        "state_province": "Florida",
        "postal_code": "32566-9658",
        "country": "United States",
        "longitude": null,
        "latitude": null,
        "phone": "8506841495",
        "website_url": "http://www.yeoldbrothersbrewery.com",
        "state": "Florida",
        "street": "4458 Highway 87"
    },
    {
        "id": "77cda0f6-f4c6-499c-a231-2102c21438aa",
        "name": "Yee-Haw Brewing, LLC.",
        "brewery_type": "micro",
        "address_1": "126 Buffalo St Ste 30",
        "address_2": null,
        "address_3": null,
        "city": "Johnson City",
        "state_province": "Tennessee",
        "postal_code": "37604-5788",
        "country": "United States",
        "longitude": null,
        "latitude": null,
        "phone": "4233289192",
        "website_url": null,
        "state": "Tennessee",
        "street": "126 Buffalo St Ste 30"
    },
    {
        "id": "0480da50-7ce0-40c3-a95f-66411e083c65",
        "name": "Yellow Bridge Brewing Co.",
        "brewery_type": "micro",
        "address_1": "2266 Route 66",
        "address_2": null,
        "address_3": null,
        "city": "Delmont",
        "state_province": "Pennsylvania",
        "postal_code": "15626-1461",
        "country": "United States",
        "longitude": null,
        "latitude": null,
        "phone": "7243003922",
        "website_url": "http://www.yellowbridgebrewing.com",
        "state": "Pennsylvania",
        "street": "2266 Route 66"
    },
    {
        "id": "5be46e78-dd4c-44c7-9164-6aa1f502af37",
        "name": "Yellow Springs Brewery",
        "brewery_type": "micro",
        "address_1": "305 N Walnut St Ste B",
        "address_2": null,
        "address_3": null,
        "city": "Yellow Springs",
        "state_province": "Ohio",
        "postal_code": "45387-2059",
        "country": "United States",
        "longitude": null,
        "latitude": null,
        "phone": "9377670222",
        "website_url": "http://www.yellowspringsbrewery.com",
        "state": "Ohio",
        "street": "305 N Walnut St Ste B"
    },
    {
        "id": "2a1157b5-b257-4b23-95df-a565b26da285",
        "name": "Yellow Sun Brewing Company",
        "brewery_type": "micro",
        "address_1": "127 Trade St",
        "address_2": null,
        "address_3": null,
        "city": "Rutherfordton",
        "state_province": "North Carolina",
        "postal_code": "28139-2849",
        "country": "United States",
        "longitude": "-81.9581017",
        "latitude": "35.3666796",
        "phone": "8283750089",
        "website_url": "http://www.yellowsunbrewing.com",
        "state": "North Carolina",
        "street": "127 Trade St"
    },
    {
        "id": "d80ec1ea-80e9-4060-a0d0-188bc571f06e",
        "name": "YellowBelly Beer",
        "brewery_type": "micro",
        "address_1": "Whiterock Hill",
        "address_2": "Pembrokestown",
        "address_3": null,
        "city": "Wexford",
        "state_province": "Wexford",
        "postal_code": "Y35 HW27",
        "country": "Ireland",
        "longitude": "-6.5241152",
        "latitude": "52.3231087",
        "phone": "353539142555",
        "website_url": "http://www.yellowbellybeer.ie/",
        "state": "Wexford",
        "street": "Whiterock Hill"
    },
    {
        "id": "17bb95d7-d3d7-4b8c-bbdd-f18104f8a815",
        "name": "Yellowhammer Brewery",
        "brewery_type": "micro",
        "address_1": "2600 Clinton Ave W",
        "address_2": null,
        "address_3": null,
        "city": "Huntsville",
        "state_province": "Alabama",
        "postal_code": "35805-3046",
        "country": "United States",
        "longitude": "-86.5932014",
        "latitude": "34.7277523",
        "phone": "2569755950",
        "website_url": "http://www.yellowhammerbrewery.com",
        "state": "Alabama",
        "street": "2600 Clinton Ave W"
    },
    {
        "id": "7b0072f2-5fe0-463b-b4db-a8876e7723cd",
        "name": "Yellowstone Valley Brewing Co.",
        "brewery_type": "micro",
        "address_1": "2123B 1st Ave N",
        "address_2": null,
        "address_3": null,
        "city": "Billings",
        "state_province": "Montana",
        "postal_code": "59101-2404",
        "country": "United States",
        "longitude": null,
        "latitude": null,
        "phone": "4062450918",
        "website_url": "http://www.yellowstonevalleybrew.com",
        "state": "Montana",
        "street": "2123B 1st Ave N"
    },
    {
        "id": "f0098c6f-401d-4be1-9bb9-5e1de4d84673",
        "name": "Yergey Brewing",
        "brewery_type": "micro",
        "address_1": "518B Bank St",
        "address_2": null,
        "address_3": null,
        "city": "Emmaus",
        "state_province": "Pennsylvania",
        "postal_code": "18049-2008",
        "country": "United States",
        "longitude": "-75.49366592",
        "latitude": "40.53379322",
        "phone": "6104172804",
        "website_url": "http://yergeybrewing.com",
        "state": "Pennsylvania",
        "street": "518B Bank St"
    },
    {
        "id": "df9c7974-6add-4917-8536-6a6f6de0a79a",
        "name": "Yes Brewing",
        "brewery_type": "micro",
        "address_1": "609 Main St",
        "address_2": null,
        "address_3": null,
        "city": "Westbrook",
        "state_province": "Maine",
        "postal_code": "04092-4143",
        "country": "United States",
        "longitude": "-70.35776285",
        "latitude": "43.67838435",
        "phone": "2075910633",
        "website_url": "http://www.yesbrewing.com",
        "state": "Maine",
        "street": "609 Main St"
    },
    {
        "id": "d6920448-7345-491b-a30b-7b1f42006ada",
        "name": "Yeti Restaurant",
        "brewery_type": "brewpub",
        "address_1": "190 Farmers Ln",
        "address_2": null,
        "address_3": null,
        "city": "Santa Rosa",
        "state_province": "California",
        "postal_code": "95405-4703",
        "country": "United States",
        "longitude": "-122.688361",
        "latitude": "38.44971636",
        "phone": "7075219608",
        "website_url": "http://www.yetirestaurant.com",
        "state": "California",
        "street": "190 Farmers Ln"
    },
    {
        "id": "bb0fca35-1169-4881-b032-27ca29deaced",
        "name": "Yolo Brewing Co",
        "brewery_type": "micro",
        "address_1": "1520 Terminal St",
        "address_2": null,
        "address_3": null,
        "city": "West Sacramento",
        "state_province": "California",
        "postal_code": "95691-3814",
        "country": "United States",
        "longitude": "-121.5419585",
        "latitude": "38.56942885",
        "phone": "9163797585",
        "website_url": "http://www.yolobrew.com",
        "state": "California",
        "street": "1520 Terminal St"
    },
    {
        "id": "7470dd0b-f925-4fb2-87a7-3007fba745ad",
        "name": "Yonkers Brewing Co",
        "brewery_type": "micro",
        "address_1": "92 Main St",
        "address_2": null,
        "address_3": null,
        "city": "Yonkers",
        "state_province": "New York",
        "postal_code": "10701-7065",
        "country": "United States",
        "longitude": "-73.9029331",
        "latitude": "40.9345744",
        "phone": "9143915805",
        "website_url": "http://www.yonkersbrewing.com",
        "state": "New York",
        "street": "92 Main St"
    },
    {
        "id": "aa43f7b4-5ece-4fd5-9dac-9eb81124ddf0",
        "name": "York Beach Beer Company",
        "brewery_type": "planning",
        "address_1": null,
        "address_2": null,
        "address_3": null,
        "city": "York",
        "state_province": "Maine",
        "postal_code": "03902",
        "country": "United States",
        "longitude": null,
        "latitude": null,
        "phone": null,
        "website_url": null,
        "state": "Maine",
        "street": null
    },
    {
        "id": "f39e0ae5-07cc-45b7-bece-11e390807652",
        "name": "York Chester Brewing Company",
        "brewery_type": "micro",
        "address_1": "1500 River Dr Ste 250",
        "address_2": null,
        "address_3": null,
        "city": "Belmont",
        "state_province": "North Carolina",
        "postal_code": "28012-3587",
        "country": "United States",
        "longitude": null,
        "latitude": null,
        "phone": "7047555104",
        "website_url": "http://www.yorkchesterbrew.com",
        "state": "North Carolina",
        "street": "1500 River Dr Ste 250"
    },
    {
        "id": "cfbd4b1b-f848-4f39-9525-9c2c607e7562",
        "name": "Yorkholo Brewing Co",
        "brewery_type": "brewpub",
        "address_1": "19 N Main St",
        "address_2": null,
        "address_3": null,
        "city": "Mansfield",
        "state_province": "Pennsylvania",
        "postal_code": "16933-1403",
        "country": "United States",
        "longitude": "-77.07838707",
        "latitude": "41.80758509",
        "phone": "5704045805",
        "website_url": "http://www.yorkholobrewing.com",
        "state": "Pennsylvania",
        "street": "19 N Main St"
    },
    {
        "id": "76b3e4f1-7075-4881-ac9a-f5462fb44dca",
        "name": "Yorkshire Square Brewing Co.",
        "brewery_type": "micro",
        "address_1": "1109 Van Ness Ave",
        "address_2": null,
        "address_3": null,
        "city": "Torrance",
        "state_province": "California",
        "postal_code": "90501-2236",
        "country": "United States",
        "longitude": "-118.3163507",
        "latitude": "33.83720085",
        "phone": "4243765115",
        "website_url": "http://www.yorkshiresquarebrewery.com",
        "state": "California",
        "street": "1109 Van Ness Ave"
    },
    {
        "id": "39070e4c-ae87-4d72-af3e-62ec19c35039",
        "name": "Young Buck Brewing",
        "brewery_type": "closed",
        "address_1": "154 S Madison St",
        "address_2": null,
        "address_3": null,
        "city": "Spokane",
        "state_province": "Washington",
        "postal_code": "99201-4542",
        "country": "United States",
        "longitude": "-117.4281651",
        "latitude": "47.655248",
        "phone": "5092703306",
        "website_url": "http://www.youngbuckbrewing.com",
        "state": "Washington",
        "street": "154 S Madison St"
    },
    {
        "id": "202233a3-1731-405f-b344-8d7bb8975a1c",
        "name": "Young Lion Brewing Co",
        "brewery_type": "micro",
        "address_1": "24 Lakeshore Dr",
        "address_2": null,
        "address_3": null,
        "city": "Canandaigua",
        "state_province": "New York",
        "postal_code": "14424-2333",
        "country": "United States",
        "longitude": "-77.26938995",
        "latitude": "42.87560967",
        "phone": "5852034337",
        "website_url": "http://www.younglionbrewing.com",
        "state": "New York",
        "street": "24 Lakeshore Dr"
    },
    {
        "id": "8db23191-1806-4132-b601-6699e382b565",
        "name": "Young Veterans Brewing Company",
        "brewery_type": "micro",
        "address_1": "2505 Horse Pasture Rd Ste 104",
        "address_2": null,
        "address_3": null,
        "city": "Virginia Beach",
        "state_province": "Virginia",
        "postal_code": "23453-2988",
        "country": "United States",
        "longitude": null,
        "latitude": null,
        "phone": "7576894021",
        "website_url": "http://www.yvbc.com",
        "state": "Virginia",
        "street": "2505 Horse Pasture Rd Ste 104"
    },
    {
        "id": "6b4ce9ea-b66c-455a-b284-8a629b7f8fc8",
        "name": "Young's Brewing",
        "brewery_type": "planning",
        "address_1": null,
        "address_2": null,
        "address_3": null,
        "city": "Wexford",
        "state_province": "Pennsylvania",
        "postal_code": "15090",
        "country": "United States",
        "longitude": null,
        "latitude": null,
        "phone": null,
        "website_url": null,
        "state": "Pennsylvania",
        "street": null
    },
    {
        "id": "ea88eaf9-2b9c-4073-8d37-5af9e4b8c166",
        "name": "Zaftig Brewing Co.",
        "brewery_type": "micro",
        "address_1": "7020 Huntley Rd Ste A",
        "address_2": null,
        "address_3": null,
        "city": "Columbus",
        "state_province": "Ohio",
        "postal_code": "43229-1050",
        "country": "United States",
        "longitude": "-83.0003532",
        "latitude": "40.1063329",
        "phone": "6146362537",
        "website_url": "http://www.drinkzaftig.com",
        "state": "Ohio",
        "street": "7020 Huntley Rd Ste A"
    },
    {
        "id": "74576e44-ee28-43ea-870a-1f2801bb2d9c",
        "name": "Zambaldi Beer",
        "brewery_type": "contract",
        "address_1": null,
        "address_2": null,
        "address_3": null,
        "city": "Green Bay",
        "state_province": "Wisconsin",
        "postal_code": "54305-0246",
        "country": "United States",
        "longitude": null,
        "latitude": null,
        "phone": "6124707926",
        "website_url": "http://www.zambaldi.com",
        "state": "Wisconsin",
        "street": null
    },
    {
        "id": "e1278d06-ae74-4c23-9103-8ef505d24f5b",
        "name": "Zebulon Artisan Ales",
        "brewery_type": "micro",
        "address_1": "8 Merchents Alley",
        "address_2": null,
        "address_3": null,
        "city": "Weaverville",
        "state_province": "North Carolina",
        "postal_code": "28787-8860",
        "country": "United States",
        "longitude": null,
        "latitude": null,
        "phone": null,
        "website_url": "http://www.zebulonbrewing.com",
        "state": "North Carolina",
        "street": "8 Merchents Alley"
    },
    {
        "id": "800c3ec9-66e0-4bff-a3d9-13a7d1a1755e",
        "name": "Zed's Beer/Bado Brewing",
        "brewery_type": "micro",
        "address_1": "19 N Maple Ave Unit B",
        "address_2": null,
        "address_3": null,
        "city": "Marlton",
        "state_province": "New Jersey",
        "postal_code": "08053-3007",
        "country": "United States",
        "longitude": null,
        "latitude": null,
        "phone": "8568727632",
        "website_url": "http://drinkzeds.com",
        "state": "New Jersey",
        "street": "19 N Maple Ave Unit B"
    },
    {
        "id": "3b703b36-86bb-4d24-846d-80c88bf7df07",
        "name": "ZeLUS Beer Company",
        "brewery_type": "contract",
        "address_1": "120 N Meadows Rd",
        "address_2": null,
        "address_3": null,
        "city": "Medfield",
        "state_province": "Massachusetts",
        "postal_code": "02052-1594",
        "country": "United States",
        "longitude": "-71.335472",
        "latitude": "42.200799",
        "phone": "6275100270",
        "website_url": "http://www.zelusbeer.com",
        "state": "Massachusetts",
        "street": "120 N Meadows Rd"
    },
    {
        "id": "1cbf4f83-1e05-4025-8517-89353a77f1ad",
        "name": "Zephyr Brewing Co",
        "brewery_type": "micro",
        "address_1": "1609 E 58th Ave Ste G",
        "address_2": null,
        "address_3": null,
        "city": "Denver",
        "state_province": "Colorado",
        "postal_code": "80216-1528",
        "country": "United States",
        "longitude": null,
        "latitude": null,
        "phone": "7202959374",
        "website_url": "http://www.zephyrbrewingco.com",
        "state": "Colorado",
        "street": "1609 E 58th Ave Ste G"
    },
    {
        "id": "698fe7e8-85e4-4482-b608-43534a67862a",
        "name": "Zephyrhills Brewing Company",
        "brewery_type": "proprietor",
        "address_1": "38530 5th Ave",
        "address_2": null,
        "address_3": null,
        "city": "Zephyrhills",
        "state_province": "Florida",
        "postal_code": "33542-4318",
        "country": "United States",
        "longitude": "-82.17921783",
        "latitude": "28.23444039",
        "phone": "8137152683",
        "website_url": "http://www.zbcbeer.com",
        "state": "Florida",
        "street": "38530 5th Ave"
    },
    {
        "id": "c9de9083-60d9-46d4-9544-b20b5f5d1556",
        "name": "Zero Gravity Craft Brewery",
        "brewery_type": "micro",
        "address_1": "716 Pinte Street",
        "address_2": null,
        "address_3": null,
        "city": "Burlington",
        "state_province": "Vermont",
        "postal_code": "05401",
        "country": "United States",
        "longitude": null,
        "latitude": null,
        "phone": "8024970054",
        "website_url": null,
        "state": "Vermont",
        "street": "716 Pinte Street"
    },
    {
        "id": "f192e49e-e2c9-485a-bdee-35ce3189ef93",
        "name": "Zero Gravity Craft Brewery",
        "brewery_type": "brewpub",
        "address_1": "716 Pine St",
        "address_2": null,
        "address_3": null,
        "city": "Burlington",
        "state_province": "Vermont",
        "postal_code": "05401-4922",
        "country": "United States",
        "longitude": "-73.2140363",
        "latitude": "44.4595462",
        "phone": "8024970054",
        "website_url": "http://www.zerogravitybeer.com",
        "state": "Vermont",
        "street": "716 Pine St"
    },
    {
        "id": "1d15aa31-6d4c-42c7-b5c7-e0d3fe314e1b",
        "name": "Zero One Ale House",
        "brewery_type": "brewpub",
        "address_1": "20 W Beauregard Ave",
        "address_2": null,
        "address_3": null,
        "city": "San Angelo",
        "state_province": "Texas",
        "postal_code": "76903-5833",
        "country": "United States",
        "longitude": "-100.4372363",
        "latitude": "31.46245419",
        "phone": "3256535123",
        "website_url": null,
        "state": "Texas",
        "street": "20 W Beauregard Ave"
    },
    {
        "id": "1e64c937-e250-448e-962a-f2a40d6ca9db",
        "name": "Zeroday Brewing Company",
        "brewery_type": "brewpub",
        "address_1": "250 Reily St Ste 103",
        "address_2": null,
        "address_3": null,
        "city": "Harrisburg",
        "state_province": "Pennsylvania",
        "postal_code": "17102-2550",
        "country": "United States",
        "longitude": "-76.8915931",
        "latitude": "40.2717061",
        "phone": "7177456218",
        "website_url": "http://www.zerodaybrewing.com",
        "state": "Pennsylvania",
        "street": "250 Reily St Ste 103"
    },
    {
        "id": "06244489-87fd-44ea-8a83-f0b3f1210314",
        "name": "Zeta Brewing Company",
        "brewery_type": "brewpub",
        "address_1": "131 1st Ave N",
        "address_2": null,
        "address_3": null,
        "city": "Jacksonville Beach",
        "state_province": "Florida",
        "postal_code": "32250-6912",
        "country": "United States",
        "longitude": "-81.39029104",
        "latitude": "30.29038796",
        "phone": "9043720727",
        "website_url": "http://www.zetabrewing.com",
        "state": "Florida",
        "street": "131 1st Ave N"
    },
    {
        "id": "8a0343e4-8195-47f0-927d-c6cc751fe88e",
        "name": "Zilker Brewing Co",
        "brewery_type": "micro",
        "address_1": "1701 E 6th St",
        "address_2": null,
        "address_3": null,
        "city": "Austin",
        "state_province": "Texas",
        "postal_code": "78702-2701",
        "country": "United States",
        "longitude": "-97.7245745",
        "latitude": "30.2621507",
        "phone": "5127654946",
        "website_url": "http://www.zilkerbeer.com",
        "state": "Texas",
        "street": "1701 E 6th St"
    },
    {
        "id": "169cd01b-b11c-449e-87df-9d1dd056ebf2",
        "name": "Zillicoah Beer Company",
        "brewery_type": "proprietor",
        "address_1": "870 Riverside Dr",
        "address_2": null,
        "address_3": null,
        "city": "Woodfin",
        "state_province": "North Carolina",
        "postal_code": "28804-3222",
        "country": "United States",
        "longitude": "-82.57561089",
        "latitude": "35.61776547",
        "phone": "8284846502",
        "website_url": null,
        "state": "North Carolina",
        "street": "870 Riverside Dr"
    },
    {
        "id": "f4585ffb-ad5d-4fb4-a32e-ada28298796c",
        "name": "Zion Canyon Brewing Co",
        "brewery_type": "brewpub",
        "address_1": "95 Zion Park Blvd",
        "address_2": null,
        "address_3": null,
        "city": "Springdale",
        "state_province": "Utah",
        "postal_code": "84767-0420",
        "country": "United States",
        "longitude": "-113.0358484",
        "latitude": "37.16063318",
        "phone": "4357720404",
        "website_url": "http://www.zioncanyonbrewingco.com",
        "state": "Utah",
        "street": "95 Zion Park Blvd"
    },
    {
        "id": "def4c1dd-dfdb-42ff-a03a-d2a00c9f3d7f",
        "name": "Zipfer Brauerei (Heineken)",
        "brewery_type": "large",
        "address_1": "Zipf 22",
        "address_2": null,
        "address_3": null,
        "city": "Zipf",
        "state_province": "Ober\u00f6sterreich",
        "postal_code": "4871",
        "country": "Austria",
        "longitude": "13.503957656337409",
        "latitude": "48.036812902437156",
        "phone": "+4376823600",
        "website_url": "https://www.zipfer.at",
        "state": "Ober\u00f6sterreich",
        "street": "Zipf 22"
    },
    {
        "id": "538095f5-33b7-4578-8012-429e046fee80",
        "name": "Zipline Brewing Co",
        "brewery_type": "micro",
        "address_1": "2100 Magnum Cir Ste 1",
        "address_2": null,
        "address_3": null,
        "city": "Lincoln",
        "state_province": "Nebraska",
        "postal_code": "68522-1027",
        "country": "United States",
        "longitude": "-96.7512302",
        "latitude": "40.8117948",
        "phone": "4024751001",
        "website_url": "http://www.ziplinebrewing.com",
        "state": "Nebraska",
        "street": "2100 Magnum Cir Ste 1"
    },
    {
        "id": "68529922-1b8d-4629-b7d2-739f93c32d77",
        "name": "Zoiglhaus Brewing Company",
        "brewery_type": "brewpub",
        "address_1": "5716 SE 92nd Ave",
        "address_2": null,
        "address_3": null,
        "city": "Portland",
        "state_province": "Oregon",
        "postal_code": "97266-4659",
        "country": "United States",
        "longitude": "-122.5679347",
        "latitude": "45.4808905",
        "phone": "9713392374",
        "website_url": "http://www.zoiglhaus.com",
        "state": "Oregon",
        "street": "5716 SE 92nd Ave"
    },
    {
        "id": "0b194fbf-8dd6-4a88-848f-4a784af05c1c",
        "name": "Zone 9 Brewing Company",
        "brewery_type": "micro",
        "address_1": "1450 Tollhouse Rd Ste 105",
        "address_2": null,
        "address_3": null,
        "city": "Clovis",
        "state_province": "California",
        "postal_code": "93611-0503",
        "country": "United States",
        "longitude": "-119.6906567",
        "latitude": "36.82610331",
        "phone": "5592600539",
        "website_url": null,
        "state": "California",
        "street": "1450 Tollhouse Rd Ste 105"
    },
    {
        "id": "ec83629b-2f5d-4fae-a9fc-00ff3979c0f7",
        "name": "Zorn Brew Works",
        "brewery_type": "micro",
        "address_1": "605 E 9th St",
        "address_2": null,
        "address_3": null,
        "city": "Michigan City",
        "state_province": "Indiana",
        "postal_code": "46360-3651",
        "country": "United States",
        "longitude": "-86.89216786",
        "latitude": "41.714577",
        "phone": "2193316322",
        "website_url": "http://www.zornbrewworks.com",
        "state": "Indiana",
        "street": "605 E 9th St"
    },
    {
        "id": "b636a9f8-4caa-41e2-996a-5707a9cbd220",
        "name": "Zouma\u00ef",
        "brewery_type": "micro",
        "address_1": "7 Cours Gouff\u00e9",
        "address_2": null,
        "address_3": null,
        "city": "Marseille",
        "state_province": "Bouche du Rh\u00f4ne",
        "postal_code": "13005",
        "country": "France",
        "longitude": "5.38658404",
        "latitude": "43.28642888",
        "phone": "953870379",
        "website_url": "https://www.brasseriezoumai.fr/",
        "state": "Bouche du Rh\u00f4ne",
        "street": "7 Cours Gouff\u00e9"
    },
    {
        "id": "81c373d3-cacc-4f69-a716-3dfe919a3b42",
        "name": "Zum Bier",
        "brewery_type": "micro",
        "address_1": "3232 E Monroe St",
        "address_2": null,
        "address_3": null,
        "city": "Waukegan",
        "state_province": "Illinois",
        "postal_code": "60085",
        "country": "United States",
        "longitude": null,
        "latitude": null,
        "phone": "8474207313",
        "website_url": "http://www.zumbier.com",
        "state": "Illinois",
        "street": "3232 E Monroe St"
    },
    {
        "id": "95f923e4-e98a-498c-a652-41313f838358",
        "name": "Zuni Street Brewing Company",
        "brewery_type": "micro",
        "address_1": "2355 W 29th Ave",
        "address_2": null,
        "address_3": null,
        "city": "Denver",
        "state_province": "Colorado",
        "postal_code": "80211-3753",
        "country": "United States",
        "longitude": "-105.015409",
        "latitude": "39.7585929",
        "phone": "3038626525",
        "website_url": "http://www.zunistreetbrewing.com",
        "state": "Colorado",
        "street": "2355 W 29th Ave"
    },
    {
        "id": "720a84ad-c18f-4181-8d21-35eb6b80bec0",
        "name": "ZwanzigZ Brewing",
        "brewery_type": "brewpub",
        "address_1": "1038 Lafayette Ave",
        "address_2": null,
        "address_3": null,
        "city": "Columbus",
        "state_province": "Indiana",
        "postal_code": "47201-5756",
        "country": "United States",
        "longitude": "-85.91883647",
        "latitude": "39.20865674",
        "phone": "8123760200",
        "website_url": "http://www.zwanzigz.com",
        "state": "Indiana",
        "street": "1038 Lafayette Ave"
    },
    {
        "id": "a602e9ea-f0b3-4a40-8aa8-02e0aace191c",
        "name": "Zwei Brewing Co",
        "brewery_type": "micro",
        "address_1": "4612 S Mason St Ste 120",
        "address_2": null,
        "address_3": null,
        "city": "Fort Collins",
        "state_province": "Colorado",
        "postal_code": "80525-3794",
        "country": "United States",
        "longitude": null,
        "latitude": null,
        "phone": "9702232482",
        "website_url": "http://www.zweibruderbrewing.com",
        "state": "Colorado",
        "street": "4612 S Mason St Ste 120"
    },
    {
        "id": "8d18da7a-1ed9-4eb4-b87c-ac444aa81e14",
        "name": "Zydeco Brew Werks",
        "brewery_type": "brewpub",
        "address_1": "1902 E 7th Ave",
        "address_2": null,
        "address_3": null,
        "city": "Tampa",
        "state_province": "Florida",
        "postal_code": "33605-3810",
        "country": "United States",
        "longitude": "-82.43783229",
        "latitude": "27.9603438",
        "phone": "8132524541",
        "website_url": null,
        "state": "Florida",
        "street": "1902 E 7th Ave"
    },
    {
        "id": "82234375-c7fa-4208-8878-b661b7a1e6aa",
        "name": "Zymurcracy Beer Company",
        "brewery_type": "micro",
        "address_1": "4624 Creek Dr Ste 6",
        "address_2": null,
        "address_3": null,
        "city": "Rapid City",
        "state_province": "South Dakota",
        "postal_code": "57701-2165",
        "country": "United States",
        "longitude": "-103.1795198",
        "latitude": "44.03811547",
        "phone": "6057910411",
        "website_url": "http://www.zymurcracybeer.com",
        "state": "South Dakota",
        "street": "4624 Creek Dr Ste 6"
    },
    {
        "id": "e9d9a4ad-9583-4b07-846a-d99aeb5ea706",
        "name": "Zymurgy Brew Works",
        "brewery_type": "micro",
        "address_1": "22755 Hawthorne Blvd",
        "address_2": null,
        "address_3": null,
        "city": "Torrance",
        "state_province": "California",
        "postal_code": "90505-3613",
        "country": "United States",
        "longitude": "-118.3524672",
        "latitude": "33.8635371",
        "phone": "3106502474",
        "website_url": "http://www.zymurgybrewworks.com",
        "state": "California",
        "street": "22755 Hawthorne Blvd"
    },
    {
        "id": "e7d32af9-f5c5-469a-9cd7-b97097d6640d",
        "name": "\uac00\ub098\ub2e4\ub77c\ube0c\ub8e8\uc5b4\ub9ac(Ganadara Brewing)",
        "brewery_type": "brewpub",
        "address_1": "625-1, Mungyeong-daero",
        "address_2": null,
        "address_3": null,
        "city": "Mungyeong-si",
        "state_province": "Gyeongsangbukdo",
        "postal_code": "36989",
        "country": "South Korea",
        "longitude": "128.1563317",
        "latitude": "36.61483553",
        "phone": "070-7799-2428",
        "website_url": "http://www.ganadara.co.kr",
        "state": "Gyeongsangbukdo",
        "street": "625-1, Mungyeong-daero"
    },
    {
        "id": "438dfe94-c54a-49a1-b611-e514d2f856e1",
        "name": "\uac08\ub9e4\uae30 \ube0c\ub8e8\uc789(Galmegi Brewing)",
        "brewery_type": "micro",
        "address_1": "260, Pyeonggang-ro 171beon-gil",
        "address_2": null,
        "address_3": null,
        "city": "Gangseo-gu",
        "state_province": " Busan",
        "postal_code": "46704",
        "country": "South Korea",
        "longitude": "128.9441073",
        "latitude": "35.20811413",
        "phone": "051-611-9658",
        "website_url": "https://www.galmegibrewing.com/",
        "state": " Busan",
        "street": "260, Pyeonggang-ro 171beon-gil"
    },
    {
        "id": "63fc12a0-bbb7-4bdf-9d14-176bbf70e5d9",
        "name": "\uac10\uc790\uc544\uc77c\ub79c\ub4dc(Gamja Island)",
        "brewery_type": "brewpub",
        "address_1": "163, Sau-ro",
        "address_2": null,
        "address_3": null,
        "city": "Chuncheon-si",
        "state_province": "Gangwondo",
        "postal_code": "24220",
        "country": "South Korea",
        "longitude": "127.742945",
        "latitude": "37.90739745",
        "phone": "070-8098-0621",
        "website_url": "http://gamjaisland.com/",
        "state": "Gangwondo",
        "street": "163, Sau-ro"
    },
    {
        "id": "2068d17b-bcaa-4423-a892-73f521bd1ee7",
        "name": "\uac15\ub989\ube0c\ub8e8\uc5b4\ub9ac \ubc14\uc774 \ud604 (Gangneung_Brewery)",
        "brewery_type": "brewpub",
        "address_1": "9,Yulgokchogyo-gil 11beon-gil",
        "address_2": null,
        "address_3": null,
        "city": "Gangneung-si",
        "state_province": "Gangwondo",
        "postal_code": "25510",
        "country": "South Korea",
        "longitude": "128.8797275",
        "latitude": "37.76757831",
        "phone": "033-655-1357",
        "website_url": "http://instagram.com/gangneung_brewery",
        "state": "Gangwondo",
        "street": "9,Yulgokchogyo-gil 11beon-gil"
    },
    {
        "id": "3aa64cd7-7e03-4d51-b5f2-f04b6fd4b96f",
        "name": "\uace0\ub9b4\ub77c \ube0c\ub8e8\uc789(Gorilla Brewing)",
        "brewery_type": "brewpub",
        "address_1": "125, Gwangnam-ro",
        "address_2": null,
        "address_3": null,
        "city": "Suyeong-gu",
        "state_province": "Busan",
        "postal_code": "48299",
        "country": "South Korea",
        "longitude": "129.1161812",
        "latitude": "35.15273431",
        "phone": "070-4837-6258",
        "website_url": "http://www.gorilla.beer",
        "state": "Busan",
        "street": "125, Gwangnam-ro"
    },
    {
        "id": "b8c16e2e-ca1a-4e17-869c-a51995c898c8",
        "name": "\uace0\ube0c\ub8e8(Gobrew)",
        "brewery_type": "brewpub",
        "address_1": "171, Namseongjung-ro",
        "address_2": null,
        "address_3": null,
        "city": "Seogwipo-si",
        "state_province": "Jejudo",
        "postal_code": "63594",
        "country": "South Korea",
        "longitude": "126.5525325",
        "latitude": "33.24705985",
        "phone": "064-733-5747",
        "website_url": "http://www.instagram.com/gobrew_jeju",
        "state": "Jejudo",
        "street": "171, Namseongjung-ro"
    },
    {
        "id": "4c43ba95-1293-4ce5-9910-65976e0ef297",
        "name": "\uad7f\ub9e8 \ube0c\ub8e8\uc5b4\ub9ac(Goodman Brewery)",
        "brewery_type": "brewpub",
        "address_1": "46-4, Donggureung-ro 389beon-gil",
        "address_2": null,
        "address_3": null,
        "city": "Guri-si",
        "state_province": "Gyeonggido",
        "postal_code": "11905",
        "country": "South Korea",
        "longitude": "127.1395861",
        "latitude": "37.63278304",
        "phone": "031-572-6376",
        "website_url": "http://goodmanbrewery.co.kr/",
        "state": "Gyeonggido",
        "street": "46-4, Donggureung-ro 389beon-gil"
    },
    {
        "id": "928e682d-b4d2-445b-8147-3fe8b727b0b7",
        "name": "\ub07d\ube44\uc5b4\ucef4\ud37c\ub2c8 (Ggeek Beer Co,.)",
        "brewery_type": "brewpub",
        "address_1": "157, Eulji-ro",
        "address_2": null,
        "address_3": null,
        "city": "Jung-gu",
        "state_province": "Seoul",
        "postal_code": "04545",
        "country": "South Korea",
        "longitude": "126.9955347",
        "latitude": "37.56670438",
        "phone": "070-8152-1234",
        "website_url": "http://www.ggeekbeer.com",
        "state": "Seoul",
        "street": "157, Eulji-ro"
    },
    {
        "id": "94afa064-fd4d-422e-8490-b87eeeb22b5a",
        "name": "\ub178\ub9e4\ub515 \ube0c\ub8e8\uc789 \ucef4\ud37c\ub2c8(Nomadic Brewing Co.)",
        "brewery_type": "brewpub",
        "address_1": "12-10, Jeollagamyeong 3-gil",
        "address_2": "Wansan-gu",
        "address_3": null,
        "city": "Jeonju-si",
        "state_province": "Jeollabukdo",
        "postal_code": "55038",
        "country": "South Korea",
        "longitude": "127.1437952",
        "latitude": "35.81642148",
        "phone": "063-902-3924",
        "website_url": "http://instagram.com/nomadicbrewingco",
        "state": "Jeollabukdo",
        "street": "12-10, Jeollagamyeong 3-gil"
    },
    {
        "id": "5c68b706-804c-4554-b37e-09732562d708",
        "name": "\ub300\ub3c4\uc591\uc870\uc7a5(daedo brewing)",
        "brewery_type": "brewpub",
        "address_1": "47, Dongdeok-ro 14-gil",
        "address_2": null,
        "address_3": null,
        "city": "Jung-gu",
        "state_province": "Deagu",
        "postal_code": "41951",
        "country": "South Korea",
        "longitude": "128.6064699",
        "latitude": "35.86077096",
        "phone": "0507-1446-2345",
        "website_url": "https://www.instagram.com/daedo_brewing",
        "state": "Deagu",
        "street": "47, Dongdeok-ro 14-gil"
    },
    {
        "id": "bbe3d2b7-7c04-413b-82d0-a7bb9428c4d2",
        "name": "\ub354\ub79c\uce58 \ube0c\ub8e8\uc789(The Ranch Brewing)",
        "brewery_type": "brewpub",
        "address_1": "62, Gyebaek-ro 1249beonan-gil",
        "address_2": null,
        "address_3": null,
        "city": "Seo-gu",
        "state_province": "Daejeon",
        "postal_code": "35341",
        "country": "South Korea",
        "longitude": "127.3577529",
        "latitude": "36.31151337",
        "phone": "042-581-2060",
        "website_url": "http://ranchbrewing.com/landing/",
        "state": "Daejeon",
        "street": "62, Gyebaek-ro 1249beonan-gil"
    },
    {
        "id": "a755275d-e8a5-47ea-aecb-9bf2a7449613",
        "name": "\ub3d9\ub450\ucc9c \ube0c\ub8e8\uc5b4\ub9ac(Dongducheon Brewery)",
        "brewery_type": "brewpub",
        "address_1": "293, Jungang-ro",
        "address_2": null,
        "address_3": null,
        "city": "Dongducheon-si",
        "state_province": "Gyeonggido",
        "postal_code": "11328",
        "country": "South Korea",
        "longitude": "127.0544792",
        "latitude": "37.90778029",
        "phone": "031-827-1635",
        "website_url": "https://www.instagram.com/dongducheon_brewery/",
        "state": "Gyeonggido",
        "street": "293, Jungang-ro"
    },
    {
        "id": "71a7d2ab-a710-4c5e-923f-1e08161b659e",
        "name": "\ub77c\ubbf8\ube0c\ub8e8\uc789(Rami Brewing)",
        "brewery_type": "brewpub",
        "address_1": "177, Samgwi-ro",
        "address_2": "Seongsan-gu",
        "address_3": null,
        "city": "Changwon-si",
        "state_province": "Gyeongsangnamdo",
        "postal_code": "51705",
        "country": "South Korea",
        "longitude": "128.5981608",
        "latitude": "35.16977871",
        "phone": "055-266-2881",
        "website_url": "http://instagram.com/ramibrewing",
        "state": "Gyeongsangnamdo",
        "street": "177, Samgwi-ro"
    },
    {
        "id": "9889fc71-4552-4291-8bc4-badc5ce30033",
        "name": "\ub77c\uc778\ub3c4\uc774\uce58(Reindeutsch Brewery)",
        "brewery_type": "brewpub",
        "address_1": "103, Miujihaean-ro",
        "address_2": null,
        "address_3": null,
        "city": "Tongyeong-si",
        "state_province": "Gyeongsangnamdo",
        "postal_code": "53069",
        "country": "South Korea",
        "longitude": "128.3962616",
        "latitude": "34.82563356",
        "phone": "055-643-7758",
        "website_url": "http://www.reindeutsch.com",
        "state": "Gyeongsangnamdo",
        "street": "103, Miujihaean-ro"
    },
    {
        "id": "419822d1-2c04-4a47-adc3-e17747e7bdb7",
        "name": "\ub9e4\uc9c1\ud2b8\ub9ac \ube0c\ub8e8\uc5b4\ub9ac(Magictree Brewery)",
        "brewery_type": "brewpub",
        "address_1": "39, Baengnyeong-ro",
        "address_2": "Cheoin-gu",
        "address_3": null,
        "city": "Yongin-si",
        "state_province": "Gyeonggido",
        "postal_code": "17042",
        "country": "South Korea",
        "longitude": "127.1922904",
        "latitude": "37.26293486",
        "phone": "031-338-2337",
        "website_url": "https://magictreebrewery.com/",
        "state": "Gyeonggido",
        "street": "39, Baengnyeong-ro"
    },
    {
        "id": "df058920-2603-47b9-9c61-b524fde39f7b",
        "name": "\ub9e5\ud30c\uc774 \ube0c\ub8e8\uc5b4\ub9ac(Magpie Brewing Co.)",
        "brewery_type": "brewpub",
        "address_1": "23, Donghoecheon 1-gil",
        "address_2": null,
        "address_3": null,
        "city": "Jeju-si",
        "state_province": "Jejudo",
        "postal_code": "63329",
        "country": "South Korea",
        "longitude": "126.617303",
        "latitude": "33.50290817",
        "phone": "064-721-0227",
        "website_url": "http://www.magpiebrewing.com/",
        "state": "Jejudo",
        "street": "23, Donghoecheon 1-gil"
    },
    {
        "id": "dbe868ec-d1f5-4624-9661-c14d150d6071",
        "name": "\ubbf8\uc2a4\ud130\ub9ac \ube0c\ub8e8\uc789 (MysterLee Brewing Co.)",
        "brewery_type": "brewpub",
        "address_1": "311, Dongmak-ro",
        "address_2": null,
        "address_3": null,
        "city": "Mapo-gu",
        "state_province": "Seoul",
        "postal_code": "04156",
        "country": "South Korea",
        "longitude": "126.9474136",
        "latitude": "37.5438955",
        "phone": "02-3272-6337",
        "website_url": "http://www.mysterleebrewing.com/",
        "state": "Seoul",
        "street": "311, Dongmak-ro"
    },
    {
        "id": "37ce8020-c9d0-421c-a255-381f946a2a82",
        "name": "\ubc14\ub124\ud558\uc784 \ube0c\ub8e8\uc5b4\ub9ac(Vaneheim Brewery)",
        "brewery_type": "micro",
        "address_1": "65-1, Naegak 1-ro 73beon-gil",
        "address_2": "Jinjeop-eup",
        "address_3": null,
        "city": "Namyangju-si",
        "state_province": "Gyeonggido",
        "postal_code": "12071",
        "country": "South Korea",
        "longitude": "127.1616309",
        "latitude": "37.70915976",
        "phone": "031-529-8003",
        "website_url": "http://vaneheimbeer.com/",
        "state": "Gyeonggido",
        "street": "65-1, Naegak 1-ro 73beon-gil"
    },
    {
        "id": "3a89c7d1-cddb-4036-af38-a95b2b9a08bd",
        "name": "\ubc14\uc774\uc820\ud558\uc6b0\uc2a4(WeizenHouse)",
        "brewery_type": "micro",
        "address_1": "125,Seonggok-gil",
        "address_2": "Useong-myeon",
        "address_3": null,
        "city": "Gongju-si",
        "state_province": "Chungcheongnamdo",
        "postal_code": "32531",
        "country": "South Korea",
        "longitude": "127.0708877",
        "latitude": "36.48886677",
        "phone": "1661-5869",
        "website_url": "http://www.weizenhaus.com/",
        "state": "Chungcheongnamdo",
        "street": "125,Seonggok-gil"
    },
    {
        "id": "55a5f03f-e3fa-4aed-8226-1acce1b71cf3",
        "name": "\ubc84\ub4dc\ub098\ubb34 \ube0c\ub8e8\uc5b4\ub9ac(Budnamu Brewery)",
        "brewery_type": "brewpub",
        "address_1": "1961,Gyeonggang-ro",
        "address_2": null,
        "address_3": null,
        "city": "Gangneung-si",
        "state_province": "Gangwondo",
        "postal_code": "25537",
        "country": "South Korea",
        "longitude": "128.8843981",
        "latitude": "37.74812404",
        "phone": "033-920-9380",
        "website_url": "https://www.instagram.com/budnamu_brewery/",
        "state": "Gangwondo",
        "street": "1961,Gyeonggang-ro"
    },
    {
        "id": "41bf9f06-ce1a-43b2-9e05-af3862488092",
        "name": "\ubd80\uc0b0\ud504\ub77c\uc774\ub4dc \ube0c\ub8e8\uc789(Busanpride Brewery)",
        "brewery_type": "brewpub",
        "address_1": "84-2, Dongseo-gil",
        "address_2": null,
        "address_3": "Gijang-eup",
        "city": "Gijang-eup",
        "state_province": "Busan",
        "postal_code": "46052",
        "country": "South Korea",
        "longitude": "129.1990401",
        "latitude": "35.25822518",
        "phone": "051-723-3213",
        "website_url": "http://busanpridebrewery.com/",
        "state": "Busan",
        "street": "84-2, Dongseo-gil"
    }
]