[
    {
        "id": "00221d0f-2ed7-41d1-95b8-d8b1bfbc8b0e",
        "name": "Abner's Restaurant Inc / Northern Michigan Beer",
        "brewery_type": "brewpub",
        "address_1": "7528 N Woodbridge (M37)",
        "address_2": null,
        "address_3": null,
        "city": "Brohman",
        "state_province": "Michigan",
        "postal_code": "49312",
        "country": "United States",
        "longitude": null,
        "latitude": null,
        "phone": "2316892295",
        "website_url": null,
        "state": "Michigan",
        "street": "7528 N Woodbridge (M37)"
    },
    {
        "id": "4db32843-26ff-4e73-9e24-1cb874109b24",
        "name": "Abnormal Beer Company",
        "brewery_type": "micro",
        "address_1": "16990 Via Tazon Ste 123",
        "address_2": null,
        "address_3": null,
        "city": "San Diego",
        "state_province": "California",
        "postal_code": "92127-1649",
        "country": "United States",
        "longitude": "-117.08575",
        "latitude": "33.02391",
        "phone": "8586182463",
        "website_url": "http://abnormalbeer.co",
        "state": "California",
        "street": "16990 Via Tazon Ste 123"
    },
    {
        "id": "28e05fda-77a4-4a5a-9f8a-08169ec07ce5",
        "name": "Abolitionist Ale Works",
        "brewery_type": "brewpub",
        "address_1": "129 W Washington St",
        "address_2": null,
        "address_3": null,
        "city": "Charles Town",
        "state_province": "West Virginia",
        "postal_code": "25414-1529",
        "country": "United States",
        "longitude": "-77.8607888",
        "latitude": "39.28867207",
        "phone": "6812521548",
        "website_url": "http://www.abolitionistaleworks.com",
        "state": "West Virginia",
        "street": "129 W Washington St"
    },
    {
        "id": "bec6adc5-3a3b-4793-8364-c58f16e88cc8",
        "name": "Abridged Beer Company",
        "brewery_type": "brewpub",
        "address_1": "100 Lockett Rd",
        "address_2": null,
        "address_3": null,
        "city": "Knoxville",
        "state_province": "Tennessee",
        "postal_code": "37919-4807",
        "country": "United States",
        "longitude": "-84.016459",
        "latitude": "35.932287",
        "phone": "8658989438",
        "website_url": "http://www.abridgedbeer.com",
        "state": "Tennessee",
        "street": "100 Lockett Rd"
    },
    {
        "id": "67525d30-1f18-4f03-a8ba-28a1153955eb",
        "name": "Absolution Brewing Co",
        "brewery_type": "micro",
        "address_1": "2878 Columbia St",
        "address_2": null,
        "address_3": null,
        "city": "Torrance",
        "state_province": "California",
        "postal_code": "90503-3808",
        "country": "United States",
        "longitude": "-118.3378601",
        "latitude": "33.8431391",
        "phone": "3104904860",
        "website_url": "http://www.absolutionbrewingcompany.com",
        "state": "California",
        "street": "2878 Columbia St"
    },
    {
        "id": "600f88e5-9dc9-4a41-b54e-909c292ba4bb",
        "name": "Absolution By the Sea",
        "brewery_type": "brewpub",
        "address_1": "7536 Fay Ave",
        "address_2": null,
        "address_3": null,
        "city": "La Jolla",
        "state_province": "California",
        "postal_code": "92037-4839",
        "country": "United States",
        "longitude": "-117.2740167",
        "latitude": "32.84083388",
        "phone": "6192024152",
        "website_url": null,
        "state": "California",
        "street": "7536 Fay Ave"
    },
    {
        "id": "98b6e0ab-22ba-4864-80b0-a967ca61e536",
        "name": "Abyss Brewing Ltd",
        "brewery_type": "micro",
        "address_1": "Palehouse Common",
        "address_2": null,
        "address_3": null,
        "city": "Uckfield",
        "state_province": "East Sussex",
        "postal_code": "TN22 5RB",
        "country": "England",
        "longitude": "0.14604",
        "latitude": "50.945743",
        "phone": "1825840561",
        "website_url": "https://abyssbrewing.co.uk/",
        "state": "East Sussex",
        "street": "Palehouse Common"
    },
    {
        "id": "829f7243-78f3-4282-b0e8-1a5fcb10a229",
        "name": "Accomplice Beer Company",
        "brewery_type": "brewpub",
        "address_1": "115 W 15th St",
        "address_2": null,
        "address_3": null,
        "city": "Cheyenne",
        "state_province": "Wyoming",
        "postal_code": "82001-4564",
        "country": "United States",
        "longitude": "-104.819296",
        "latitude": "41.130063",
        "phone": "3076322337",
        "website_url": "http://www.accomplicebeer.com",
        "state": "Wyoming",
        "street": "115 W 15th St"
    },
    {
        "id": "b52bfb27-345f-4add-bfc3-1b6fc67ab55b",
        "name": "Acidulous Brewing Company",
        "brewery_type": "contract",
        "address_1": "6712 S Independence St",
        "address_2": null,
        "address_3": null,
        "city": "Littleton",
        "state_province": "Colorado",
        "postal_code": "80128-4046",
        "country": "United States",
        "longitude": "-105.1059543",
        "latitude": "39.5383949",
        "phone": "3039952895",
        "website_url": null,
        "state": "Colorado",
        "street": "6712 S Independence St"
    },
    {
        "id": "7fa5779e-88df-42ab-895b-412b635498ae",
        "name": "Acopon Brewing Co",
        "brewery_type": "micro",
        "address_1": "211 W Mercer St",
        "address_2": null,
        "address_3": null,
        "city": "Dripping Springs",
        "state_province": "Texas",
        "postal_code": "78620-5363",
        "country": "United States",
        "longitude": "-98.09006208",
        "latitude": "30.19269957",
        "phone": "5128294723",
        "website_url": "http://www.acoponbrewing.com",
        "state": "Texas",
        "street": "211 W Mercer St"
    },
    {
        "id": "1a6206ad-e34b-421d-92d9-ba409cfedf82",
        "name": "Acorn Brewing",
        "brewery_type": "micro",
        "address_1": "2105 Meridian Ave E",
        "address_2": null,
        "address_3": null,
        "city": "Edgewood",
        "state_province": "Washington",
        "postal_code": "98371",
        "country": "United States",
        "longitude": "-122.2934912",
        "latitude": "47.23859752",
        "phone": "2535178899",
        "website_url": "https://www.acornbeer.com/",
        "state": "Washington",
        "street": "2105 Meridian Ave E"
    },
    {
        "id": "2fe1e670-d832-4ba5-b957-f86a09ee062d",
        "name": "Acoustic Ales Brewing Experiment",
        "brewery_type": "closed",
        "address_1": "1795 Hancock St Ste P1",
        "address_2": null,
        "address_3": null,
        "city": "San Diego",
        "state_province": "California",
        "postal_code": "92110-2006",
        "country": "United States",
        "longitude": "-117.1840465",
        "latitude": "32.74219079",
        "phone": "6192992537",
        "website_url": "http://www.acousticales.com",
        "state": "California",
        "street": "1795 Hancock St Ste P1"
    },
    {
        "id": "ea7f7091-5e37-4762-bbcc-9a51702c99c1",
        "name": "Actual Brewing Company, LLC",
        "brewery_type": "micro",
        "address_1": "655 N James Rd",
        "address_2": null,
        "address_3": null,
        "city": "Columbus",
        "state_province": "Ohio",
        "postal_code": "43219-1837",
        "country": "United States",
        "longitude": "-82.9080986",
        "latitude": "39.9868523",
        "phone": "6146363825",
        "website_url": "http://wwww.actualbeer.com",
        "state": "Ohio",
        "street": "655 N James Rd"
    },
    {
        "id": "0d0f85e7-bc2d-44fc-bf27-4f14e5d6136a",
        "name": "Adam's Northwest Bistro / Twin Rivers Brewing",
        "brewery_type": "brewpub",
        "address_1": "104 N Lewis St",
        "address_2": null,
        "address_3": null,
        "city": "Monroe",
        "state_province": "Washington",
        "postal_code": "98272-1502",
        "country": "United States",
        "longitude": "-121.970887",
        "latitude": "47.85588471",
        "phone": "3607944056",
        "website_url": "http://www.adamsnwbistro.com",
        "state": "Washington",
        "street": "104 N Lewis St"
    },
    {
        "id": "9ff5f718-dee7-4e69-b79c-6250de87e840",
        "name": "Adelbert's Brewery LLC",
        "brewery_type": "micro",
        "address_1": "2314 Rutland Dr Ste 100",
        "address_2": null,
        "address_3": null,
        "city": "Austin",
        "state_province": "Texas",
        "postal_code": "78758-5273",
        "country": "United States",
        "longitude": "-97.7201589",
        "latitude": "30.3826286",
        "phone": "5126621462",
        "website_url": "http://www.adelbertsbeer.com",
        "state": "Texas",
        "street": "2314 Rutland Dr Ste 100"
    },
    {
        "id": "a180c4e0-77cc-4088-951c-62192abd99d4",
        "name": "Adirondack Pub and Brewery",
        "brewery_type": "micro",
        "address_1": "33 Canada St",
        "address_2": null,
        "address_3": null,
        "city": "Lake George",
        "state_province": "New York",
        "postal_code": "12845-1603",
        "country": "United States",
        "longitude": "-73.71407763",
        "latitude": "43.41850655",
        "phone": "5186680002",
        "website_url": "http://www.adkpub.com",
        "state": "New York",
        "street": "33 Canada St"
    },
    {
        "id": "1b7f0552-3b1a-4737-8cb4-eb8d7134d903",
        "name": "Adirondack Toboggan Company Microbrewery",
        "brewery_type": "micro",
        "address_1": "202A W Main St",
        "address_2": null,
        "address_3": null,
        "city": "Gouverneur",
        "state_province": "New York",
        "postal_code": "13642-1334",
        "country": "United States",
        "longitude": "-75.47489238",
        "latitude": "44.33237311",
        "phone": "3157716313",
        "website_url": "http://www.adktoboggan.net",
        "state": "New York",
        "street": "202A W Main St"
    },
    {
        "id": "49e805d3-70e3-4c21-81d6-d21e290ffefe",
        "name": "AdMerk Corp. Inc.",
        "brewery_type": "contract",
        "address_1": "20 F St NW",
        "address_2": null,
        "address_3": null,
        "city": "Washington",
        "state_province": "District of Columbia",
        "postal_code": "20001-6700",
        "country": "United States",
        "longitude": "-77.0094205",
        "latitude": "38.89742205",
        "phone": "6172028069",
        "website_url": "http://www.paugustin.com",
        "state": "District of Columbia",
        "street": "20 F St NW"
    },
    {
        "id": "2861f9b7-ebe4-49a5-a047-8aa0c142dbf3",
        "name": "Adobe Creek Brewing Company",
        "brewery_type": "micro",
        "address_1": "67 Galli Dr Ste E",
        "address_2": null,
        "address_3": null,
        "city": "Novato",
        "state_province": "California",
        "postal_code": "94949-5718",
        "country": "United States",
        "longitude": "-122.5358157",
        "latitude": "38.07349982",
        "phone": "4155064565",
        "website_url": "http://www.adobecreekbrewing.com",
        "state": "California",
        "street": "67 Galli Dr Ste E"
    },
    {
        "id": "a0111777-1fe6-4c8c-864e-c2518f5d5670",
        "name": "Adroit Theory Brewing Company",
        "brewery_type": "micro",
        "address_1": "404 Browning Ct Unit C",
        "address_2": null,
        "address_3": null,
        "city": "Purcellville",
        "state_province": "Virginia",
        "postal_code": "20132-6171",
        "country": "United States",
        "longitude": null,
        "latitude": null,
        "phone": "7034340553",
        "website_url": "http://www.adroit-theory.com",
        "state": "Virginia",
        "street": "404 Browning Ct Unit C"
    },
    {
        "id": "ef2e3826-f9b5-44d2-b901-331aa728a8cd",
        "name": "Adur Brewery",
        "brewery_type": "micro",
        "address_1": "Mouse Lane",
        "address_2": null,
        "address_3": null,
        "city": "Steyning",
        "state_province": "West Sussex",
        "postal_code": "BN44 3DG",
        "country": "England",
        "longitude": "-0.340173",
        "latitude": "50.893624",
        "phone": "1903867614",
        "website_url": "https://www.adurbrewery.co.uk/",
        "state": "West Sussex",
        "street": "Mouse Lane"
    },
    {
        "id": "73e05bc6-30a9-42f5-917e-08def2fa33fa",
        "name": "Adventure Brewing Co",
        "brewery_type": "micro",
        "address_1": "33 Perchwood Dr Ste 101",
        "address_2": null,
        "address_3": null,
        "city": "Fredericksburg",
        "state_province": "Virginia",
        "postal_code": "22405-4552",
        "country": "United States",
        "longitude": null,
        "latitude": null,
        "phone": "5402428876",
        "website_url": "http://www.adventurebrewing.com",
        "state": "Virginia",
        "street": "33 Perchwood Dr Ste 101"
    },
    {
        "id": "d4661358-81e2-454d-9fe2-b08ef6fc16fe",
        "name": "Adventure South",
        "brewery_type": "brewpub",
        "address_1": "3300 Dill Smith Dr",
        "address_2": null,
        "address_3": null,
        "city": "Fredericksburg",
        "state_province": "Virginia",
        "postal_code": "22408-7319",
        "country": "United States",
        "longitude": null,
        "latitude": null,
        "phone": "5403717799",
        "website_url": "http://www.adventurebrewing.com",
        "state": "Virginia",
        "street": "3300 Dill Smith Dr"
    },
    {
        "id": "e77c24b4-8b21-4d28-a9c0-568623b77cd9",
        "name": "Aero Craft Brewing",
        "brewery_type": "planning",
        "address_1": null,
        "address_2": null,
        "address_3": null,
        "city": "Denver",
        "state_province": "Colorado",
        "postal_code": "80212-2199",
        "country": "United States",
        "longitude": "-104.984696",
        "latitude": "39.7391428",
        "phone": "3039185446",
        "website_url": "http://www.aerocraft.beer",
        "state": "Colorado",
        "street": null
    },
    {
        "id": "6f0bba92-cc4b-49df-ad02-827b08bd7272",
        "name": "Aero Plains Brewing",
        "brewery_type": "micro",
        "address_1": "117 N Handley St",
        "address_2": null,
        "address_3": null,
        "city": "Wichita",
        "state_province": "Kansas",
        "postal_code": "67203-6114",
        "country": "United States",
        "longitude": "-97.35071131",
        "latitude": "37.68455054",
        "phone": "3164482811",
        "website_url": "http://www.aeroplainsbrewing.com",
        "state": "Kansas",
        "street": "117 N Handley St"
    },
    {
        "id": "59b8c8b8-6850-4b24-81f0-a16a9cd87773",
        "name": "Aeronaut Brewing Company",
        "brewery_type": "micro",
        "address_1": "14 Tyler St",
        "address_2": null,
        "address_3": null,
        "city": "Somerville",
        "state_province": "Massachusetts",
        "postal_code": "02143-3224",
        "country": "United States",
        "longitude": "-71.1062676",
        "latitude": "42.3819723",
        "phone": "6179874236",
        "website_url": "http://www.aeronautbrewing.com",
        "state": "Massachusetts",
        "street": "14 Tyler St"
    },
    {
        "id": "333c81a4-9bcd-4699-b28a-2c49dd696596",
        "name": "Aftershock Brewing Co",
        "brewery_type": "micro",
        "address_1": "28822 Old Town Front St Ste 107",
        "address_2": null,
        "address_3": null,
        "city": "Temecula",
        "state_province": "California",
        "postal_code": "92590-2893",
        "country": "United States",
        "longitude": "-117.1485306",
        "latitude": "33.49310382",
        "phone": "9519722256",
        "website_url": "http://www.aftershockbrewingco.com",
        "state": "California",
        "street": "28822 Old Town Front St Ste 107"
    },
    {
        "id": "c185b848-a69a-4d73-8a33-7b6f0db2e3fc",
        "name": "Afterthought Brewing Company",
        "brewery_type": "micro",
        "address_1": "844 N Ridge Ave",
        "address_2": null,
        "address_3": null,
        "city": "Lombard",
        "state_province": "Illinois",
        "postal_code": "60148-1215",
        "country": "United States",
        "longitude": "-88.02234574",
        "latitude": "41.90549742",
        "phone": "6303011615",
        "website_url": "http://afterthoughtbrewing.com",
        "state": "Illinois",
        "street": "844 N Ridge Ave"
    },
    {
        "id": "1844257e-dab7-421d-9a9e-f594a3943b2f",
        "name": "Against the Grain Beer Garden",
        "brewery_type": "planning",
        "address_1": null,
        "address_2": null,
        "address_3": null,
        "city": "Louisville",
        "state_province": "Kentucky",
        "postal_code": "40217",
        "country": "United States",
        "longitude": null,
        "latitude": null,
        "phone": null,
        "website_url": null,
        "state": "Kentucky",
        "street": null
    },
    {
        "id": "3d00e6db-0f45-43a5-add5-b9455edfdccb",
        "name": "Against the Grain Brewery",
        "brewery_type": "micro",
        "address_1": "401 E Main St",
        "address_2": null,
        "address_3": null,
        "city": "Louisville",
        "state_province": "Kentucky",
        "postal_code": "40202-1110",
        "country": "United States",
        "longitude": "-85.7440377",
        "latitude": "38.2554568",
        "phone": "5025150174",
        "website_url": "http://atgbrewery.com",
        "state": "Kentucky",
        "street": "401 E Main St"
    },
    {
        "id": "68855f86-415a-44e9-a0ab-53e6c8b10a3d",
        "name": "Against the Grain Production Facility",
        "brewery_type": "micro",
        "address_1": "1800 Northwestern Pkwy",
        "address_2": null,
        "address_3": null,
        "city": "Louisville",
        "state_province": "Kentucky",
        "postal_code": "40203",
        "country": "United States",
        "longitude": "-85.7767241",
        "latitude": "38.2658758",
        "phone": null,
        "website_url": null,
        "state": "Kentucky",
        "street": "1800 Northwestern Pkwy"
    },
    {
        "id": "85c7bc77-387c-449f-8091-6c694b35077c",
        "name": "Agonic Brewing Company LLC",
        "brewery_type": "planning",
        "address_1": null,
        "address_2": null,
        "address_3": null,
        "city": "Rice Lake",
        "state_province": "Wisconsin",
        "postal_code": "54868-8786",
        "country": "United States",
        "longitude": "-91.73228441549789",
        "latitude": "45.50218442479316",
        "phone": "7153089283",
        "website_url": "http://www.agonicbrewing.com",
        "state": "Wisconsin",
        "street": null
    },
    {
        "id": "f1ed5260-13cb-4f22-a4ac-0e1f7f676a12",
        "name": "Agrarian Ales, LLC",
        "brewery_type": "closed",
        "address_1": "31115 W Crossroads Ln",
        "address_2": null,
        "address_3": null,
        "city": "Eugene",
        "state_province": "Oregon",
        "postal_code": "97408-9220",
        "country": "United States",
        "longitude": "-123.1277712",
        "latitude": "44.18922784",
        "phone": "5416323803",
        "website_url": "http://www.agales.com",
        "state": "Oregon",
        "street": "31115 W Crossroads Ln"
    },
    {
        "id": "685be3dc-20b8-434d-880c-d7aabac5bfc0",
        "name": "Ahnapee Brewery",
        "brewery_type": "micro",
        "address_1": "N9153 Cherry Tree Rd Apt 4",
        "address_2": null,
        "address_3": null,
        "city": "Algoma",
        "state_province": "Wisconsin",
        "postal_code": "54201-9501",
        "country": "United States",
        "longitude": "-87.43645394436277",
        "latitude": "44.60761365888498",
        "phone": "9202178527",
        "website_url": "http://www.ahnapeebrewery.com",
        "state": "Wisconsin",
        "street": "N9153 Cherry Tree Rd Apt 4"
    },
    {
        "id": "b9f4f532-15df-4a50-b15e-e5cd5d41977b",
        "name": "Aigean Ales",
        "brewery_type": "micro",
        "address_1": "250 Commercial St Ste 2001",
        "address_2": null,
        "address_3": null,
        "city": "Manchester",
        "state_province": "New Hampshire",
        "postal_code": "03101-1165",
        "country": "United States",
        "longitude": "-71.46899187",
        "latitude": "42.9899594",
        "phone": "6035188550",
        "website_url": null,
        "state": "New Hampshire",
        "street": "250 Commercial St Ste 2001"
    },
    {
        "id": "dfec4bba-cfbc-4562-b6be-f0563f51821a",
        "name": "Aiken Brewing Co",
        "brewery_type": "brewpub",
        "address_1": "140 Laurens St SW",
        "address_2": null,
        "address_3": null,
        "city": "Aiken",
        "state_province": "South Carolina",
        "postal_code": "29801-3848",
        "country": "United States",
        "longitude": "-81.7228141",
        "latitude": "33.5603084",
        "phone": "8035020707",
        "website_url": "http://www.aikenbrewingcompany.com",
        "state": "South Carolina",
        "street": "140 Laurens St SW"
    },
    {
        "id": "f4c592ed-4c20-4b87-bb35-64f894a6cc6b",
        "name": "Airline Brewing Company",
        "brewery_type": "micro",
        "address_1": "22 Mill Ln",
        "address_2": null,
        "address_3": null,
        "city": "Amherst",
        "state_province": "Maine",
        "postal_code": "04428",
        "country": "United States",
        "longitude": "-68.3677435",
        "latitude": "44.8329462",
        "phone": "2075842337",
        "website_url": "http://www.abcmaine.beer",
        "state": "Maine",
        "street": "22 Mill Ln"
    },
    {
        "id": "9737bf0c-b29e-49d7-9778-3951072eb147",
        "name": "Airways Brewing Co",
        "brewery_type": "micro",
        "address_1": "8611 S 212th St",
        "address_2": null,
        "address_3": null,
        "city": "Kent",
        "state_province": "Washington",
        "postal_code": "98031-1910",
        "country": "United States",
        "longitude": "-122.2391026",
        "latitude": "47.4119802",
        "phone": "2532001707",
        "website_url": "http://www.airwaysbrewing.com",
        "state": "Washington",
        "street": "8611 S 212th St"
    },
    {
        "id": "d9578437-2aa8-45ab-97f2-cf6f7074d9af",
        "name": "Airways Brewing Co. Bistro & Beer Garden",
        "brewery_type": "brewpub",
        "address_1": "320 W Harrison St",
        "address_2": null,
        "address_3": null,
        "city": "Kent",
        "state_province": "Washington",
        "postal_code": "98032",
        "country": "United States",
        "longitude": "-122.235649",
        "latitude": "47.382498",
        "phone": "2532368632",
        "website_url": "http://airwaysbrewing.com/bistro-beer-garden/",
        "state": "Washington",
        "street": "320 W Harrison St"
    },
    {
        "id": "828ee507-7142-4c7c-9f0b-82964d4195d0",
        "name": "Akademia Brewing Company",
        "brewery_type": "brewpub",
        "address_1": "150 Crane Dr",
        "address_2": null,
        "address_3": null,
        "city": "Athens",
        "state_province": "Georgia",
        "postal_code": "30606-0600",
        "country": "United States",
        "longitude": "-83.47153754",
        "latitude": "33.94270289",
        "phone": "7064613208",
        "website_url": "http://www.AkademiaBC.com",
        "state": "Georgia",
        "street": "150 Crane Dr"
    },
    {
        "id": "f767a00f-fbd9-4d31-abe6-902149c0158a",
        "name": "Akasha Brewing Company",
        "brewery_type": "micro",
        "address_1": "909 E Market St Ste 700",
        "address_2": null,
        "address_3": null,
        "city": "Louisville",
        "state_province": "Kentucky",
        "postal_code": "40206-1688",
        "country": "United States",
        "longitude": null,
        "latitude": null,
        "phone": "5027427770",
        "website_url": "http://www.akashabrewing.com",
        "state": "Kentucky",
        "street": "909 E Market St Ste 700"
    },
    {
        "id": "d4f4e76b-b971-4dcb-8a9b-d6c36a3e8c22",
        "name": "Akronym Brewing LLC",
        "brewery_type": "micro",
        "address_1": "58 E Market St",
        "address_2": null,
        "address_3": null,
        "city": "Akron",
        "state_province": "Ohio",
        "postal_code": "44308",
        "country": "United States",
        "longitude": "-81.51645882",
        "latitude": "41.08512193",
        "phone": "3306208274",
        "website_url": "http://www.akronymbrewing.com",
        "state": "Ohio",
        "street": "58 E Market St"
    },
    {
        "id": "06ac0316-a30f-40c6-acb7-c08fea0c30b1",
        "name": "Akwesasne Mohawk Casino Resort",
        "brewery_type": "planning",
        "address_1": null,
        "address_2": null,
        "address_3": null,
        "city": "Akwesasne",
        "state_province": "New York",
        "postal_code": "13655-1800",
        "country": "United States",
        "longitude": null,
        "latitude": null,
        "phone": "5183582222",
        "website_url": "http://mohawkcasino.com",
        "state": "New York",
        "street": null
    },
    {
        "id": "39e91766-af3e-4074-9d49-26ca621e45dc",
        "name": "Al. Ringling Brewing Co",
        "brewery_type": "micro",
        "address_1": "623 Broadway St",
        "address_2": null,
        "address_3": null,
        "city": "Baraboo",
        "state_province": "Wisconsin",
        "postal_code": "53913-2513",
        "country": "United States",
        "longitude": "-89.74483177323495",
        "latitude": "43.471751392446656",
        "phone": "6084484013",
        "website_url": "http://www.alringlingbrewingco.com",
        "state": "Wisconsin",
        "street": "623 Broadway St"
    },
    {
        "id": "b7db853a-e8aa-430f-84c8-d49b72184d01",
        "name": "Alameda Brewing Co",
        "brewery_type": "micro",
        "address_1": "4736 SE 24th Ave",
        "address_2": null,
        "address_3": null,
        "city": "Portland",
        "state_province": "Oregon",
        "postal_code": "97202-4787",
        "country": "United States",
        "longitude": "-122.6412495",
        "latitude": "45.48882655",
        "phone": "5034609025",
        "website_url": null,
        "state": "Oregon",
        "street": "4736 SE 24th Ave"
    },
    {
        "id": "07ad4030-fb5b-4eb7-9b28-d7f5556b145d",
        "name": "Alameda Brewing Co",
        "brewery_type": "micro",
        "address_1": "4765 NE Fremont St",
        "address_2": null,
        "address_3": null,
        "city": "Portland",
        "state_province": "Oregon",
        "postal_code": "97213-1724",
        "country": "United States",
        "longitude": "-122.6136209",
        "latitude": "45.54849565",
        "phone": "5034609025",
        "website_url": "http://www.alamedabrewing.com",
        "state": "Oregon",
        "street": "4765 NE Fremont St"
    },
    {
        "id": "6fbd1118-ceea-4be9-a784-45dd623f16f0",
        "name": "Alameda Island Brewing Company",
        "brewery_type": "micro",
        "address_1": "1716 Park St",
        "address_2": null,
        "address_3": null,
        "city": "Alameda",
        "state_province": "California",
        "postal_code": "94501-1416",
        "country": "United States",
        "longitude": "-122.2394506",
        "latitude": "37.76833631",
        "phone": "5102178885",
        "website_url": "http://www.alamedaislandbrewingcompany.com",
        "state": "California",
        "street": "1716 Park St"
    },
    {
        "id": "edf1c0fb-cce0-44ec-8d98-dd4778e2d533",
        "name": "Alamo Beer Co",
        "brewery_type": "micro",
        "address_1": "415 Burnet St",
        "address_2": null,
        "address_3": null,
        "city": "San Antonio",
        "state_province": "Texas",
        "postal_code": "78202-1909",
        "country": "United States",
        "longitude": "-98.4771638",
        "latitude": "29.42902321",
        "phone": "2108725589",
        "website_url": "http://www.alamobeer.com",
        "state": "Texas",
        "street": "415 Burnet St"
    },
    {
        "id": "4f79f427-8214-4048-8636-63cef96b33da",
        "name": "Alarmist Brewing Co",
        "brewery_type": "micro",
        "address_1": "4055 W Peterson Ave Ste REAR",
        "address_2": null,
        "address_3": null,
        "city": "Chicago",
        "state_province": "Illinois",
        "postal_code": "60646-6072",
        "country": "United States",
        "longitude": null,
        "latitude": null,
        "phone": "7739882536",
        "website_url": "http://alarmistbrewing.com",
        "state": "Illinois",
        "street": "4055 W Peterson Ave Ste REAR"
    },
    {
        "id": "aa3c4d60-4fb2-49e2-980c-6a61672d90cb",
        "name": "Alaro Craft Brewery",
        "brewery_type": "brewpub",
        "address_1": "2004 Capitol Ave",
        "address_2": null,
        "address_3": null,
        "city": "Sacramento",
        "state_province": "California",
        "postal_code": "95811",
        "country": "United States",
        "longitude": "-121.4811835",
        "latitude": "38.57323961",
        "phone": "9164367711",
        "website_url": "http://www.alarobrewing.com",
        "state": "California",
        "street": "2004 Capitol Ave"
    },
    {
        "id": "d065903f-f9fc-4e4c-a64d-9b69905431b5",
        "name": "Alaskan Brewing Co.",
        "brewery_type": "regional",
        "address_1": "5429 Shaune Dr",
        "address_2": null,
        "address_3": null,
        "city": "Juneau",
        "state_province": "Alaska",
        "postal_code": "99801-9540",
        "country": "United States",
        "longitude": "-134.4918763",
        "latitude": "58.35681231",
        "phone": "9077805866",
        "website_url": "http://www.alaskanbeer.com",
        "state": "Alaska",
        "street": "5429 Shaune Dr"
    },
    {
        "id": "d188560a-fd0d-4a44-9e4b-11aab9db8205",
        "name": "Albia Brewing Co",
        "brewery_type": "brewpub",
        "address_1": "11 Benton Ave E",
        "address_2": null,
        "address_3": null,
        "city": "Albia",
        "state_province": "Iowa",
        "postal_code": "52531-2032",
        "country": "United States",
        "longitude": "-92.8073711",
        "latitude": "41.02718903",
        "phone": "6419324085",
        "website_url": "http://www.albiabrewingcompany.blogspot.com",
        "state": "Iowa",
        "street": "11 Benton Ave E"
    },
    {
        "id": "4c8a98d1-1012-4814-82a5-20c68b131442",
        "name": "Albion Malleable Brewing Company",
        "brewery_type": "brewpub",
        "address_1": "420 S Superior St",
        "address_2": null,
        "address_3": null,
        "city": "Albion",
        "state_province": "Michigan",
        "postal_code": "49224",
        "country": "United States",
        "longitude": "-84.7532755",
        "latitude": "42.2423188",
        "phone": "5173432202",
        "website_url": "http://www.albionmalleable.com",
        "state": "Michigan",
        "street": "420 S Superior St"
    },
    {
        "id": "943f1201-9c0d-4717-95e3-0756a906f527",
        "name": "Albright Grove Brewing Company",
        "brewery_type": "planning",
        "address_1": null,
        "address_2": null,
        "address_3": null,
        "city": "Townsend",
        "state_province": "Tennessee",
        "postal_code": "37882",
        "country": "United States",
        "longitude": null,
        "latitude": null,
        "phone": "8656049898",
        "website_url": null,
        "state": "Tennessee",
        "street": null
    },
    {
        "id": "ec26cd9a-540f-4f23-b030-670115eed645",
        "name": "Alcatraz Brewing",
        "brewery_type": "micro",
        "address_1": "20 Ocean Vista Ln",
        "address_2": null,
        "address_3": null,
        "city": "Palm Coast",
        "state_province": "Florida",
        "postal_code": "32137-2743",
        "country": "United States",
        "longitude": "-81.19287028",
        "latitude": "29.61781196",
        "phone": "3866278909",
        "website_url": "http://www.alcatraz.beer",
        "state": "Florida",
        "street": "20 Ocean Vista Ln"
    },
    {
        "id": "b1f7a6c5-a4e0-477b-a380-17f8a0120e2d",
        "name": "Alcazar Brewery, LLC.",
        "brewery_type": "planning",
        "address_1": null,
        "address_2": null,
        "address_3": null,
        "city": "Rio Grande City",
        "state_province": "Texas",
        "postal_code": "78582-4450",
        "country": "United States",
        "longitude": null,
        "latitude": null,
        "phone": null,
        "website_url": null,
        "state": "Texas",
        "street": null
    },
    {
        "id": "091edbcc-f9fc-484e-9c04-c18ed505e2ac",
        "name": "Alchemist Cannery",
        "brewery_type": "regional",
        "address_1": "35 Crossroad",
        "address_2": null,
        "address_3": null,
        "city": "Waterbury",
        "state_province": "Vermont",
        "postal_code": "05676-9003",
        "country": "United States",
        "longitude": null,
        "latitude": null,
        "phone": "8022447744",
        "website_url": "http://www.alchemistbeer.com",
        "state": "Vermont",
        "street": "35 Crossroad"
    },
    {
        "id": "8135f18c-0c31-4b4d-bb22-84eccf498e9c",
        "name": "Aldus Brewing Company",
        "brewery_type": "micro",
        "address_1": "555 Centennial Ave",
        "address_2": null,
        "address_3": null,
        "city": "Hanover",
        "state_province": "Pennsylvania",
        "postal_code": "17331-3936",
        "country": "United States",
        "longitude": "-76.98030009",
        "latitude": "39.79422185",
        "phone": "7176342407",
        "website_url": "http://www.aldusbrewing.com",
        "state": "Pennsylvania",
        "street": "555 Centennial Ave"
    },
    {
        "id": "c812aa3f-208b-49e2-a1e6-96cae8943605",
        "name": "Ale Asylum",
        "brewery_type": "regional",
        "address_1": "2002 Pankratz St",
        "address_2": null,
        "address_3": null,
        "city": "Madison",
        "state_province": "Wisconsin",
        "postal_code": "53704-4024",
        "country": "United States",
        "longitude": "-89.35416285",
        "latitude": "43.12046815",
        "phone": "6086633926",
        "website_url": "http://www.aleasylum.com",
        "state": "Wisconsin",
        "street": "2002 Pankratz St"
    },
    {
        "id": "e13a5403-3cd7-4dbf-92f1-e48d0f26c750",
        "name": "Ale House Brewing Co",
        "brewery_type": "micro",
        "address_1": null,
        "address_2": null,
        "address_3": null,
        "city": "San Jose",
        "state_province": "California",
        "postal_code": "95118-1605",
        "country": "United States",
        "longitude": "-121.8905833",
        "latitude": "37.3361905",
        "phone": "4083907574",
        "website_url": null,
        "state": "California",
        "street": null
    },
    {
        "id": "13f19f47-cac4-44df-b4f3-728e4dcde6c5",
        "name": "Ale Industries",
        "brewery_type": "micro",
        "address_1": "3096 E 10th St",
        "address_2": null,
        "address_3": null,
        "city": "Oakland",
        "state_province": "California",
        "postal_code": "94601-2960",
        "country": "United States",
        "longitude": "-122.2281897",
        "latitude": "37.7761111",
        "phone": "9254705280",
        "website_url": "http://www.aleindustries.com",
        "state": "California",
        "street": "3096 E 10th St"
    },
    {
        "id": "148e8fb4-4977-4ba8-8fa6-1133a56198d4",
        "name": "Ale Republic",
        "brewery_type": "micro",
        "address_1": "28 Arroyo Seco",
        "address_2": null,
        "address_3": null,
        "city": "Cedar Crest",
        "state_province": "New Mexico",
        "postal_code": "87008",
        "country": "United States",
        "longitude": null,
        "latitude": null,
        "phone": "5052812828",
        "website_url": "http://www.alerepublic.com",
        "state": "New Mexico",
        "street": "28 Arroyo Seco"
    },
    {
        "id": "797c9175-fb51-44d3-ad4b-d46b42367fdc",
        "name": "Ale Spike",
        "brewery_type": "closed",
        "address_1": "9300 271st St NW Ste B-5",
        "address_2": null,
        "address_3": null,
        "city": "Stanwood",
        "state_province": "Washington",
        "postal_code": "98292",
        "country": "United States",
        "longitude": null,
        "latitude": null,
        "phone": null,
        "website_url": "http://www.alespike.com",
        "state": "Washington",
        "street": "9300 271st St NW Ste B-5"
    },
    {
        "id": "ea06694a-32f8-4026-b22e-aeb880848b4d",
        "name": "Ale Spike Brewery",
        "brewery_type": "micro",
        "address_1": "1244 N Moore Rd Unit I-1",
        "address_2": null,
        "address_3": null,
        "city": "Camano Island",
        "state_province": "Washington",
        "postal_code": "98282",
        "country": "United States",
        "longitude": "-122.4381311",
        "latitude": "48.25785496",
        "phone": "3609392434",
        "website_url": "http://www.alespike.com",
        "state": "Washington",
        "street": "1244 N Moore Rd Unit I-1"
    },
    {
        "id": "1170049c-c20d-43c8-9475-0a42599f144c",
        "name": "Aleman Brewing",
        "brewery_type": "micro",
        "address_1": "3304 N Knox Ave",
        "address_2": null,
        "address_3": null,
        "city": "Chicago",
        "state_province": "Illinois",
        "postal_code": "60641-4434",
        "country": "United States",
        "longitude": "-87.74301213",
        "latitude": "41.94087994",
        "phone": "8123404198",
        "website_url": "http://www.alemanchicago.com",
        "state": "Illinois",
        "street": "3304 N Knox Ave"
    },
    {
        "id": "f1e3ff3e-078c-46c3-85ae-62f86d3a3a21",
        "name": "Alematic Artisan Ales",
        "brewery_type": "planning",
        "address_1": null,
        "address_2": null,
        "address_3": null,
        "city": "Huber Heights",
        "state_province": "Ohio",
        "postal_code": "45424-3857",
        "country": "United States",
        "longitude": null,
        "latitude": null,
        "phone": "9376122337",
        "website_url": "http://www.alematicbrewing.com",
        "state": "Ohio",
        "street": null
    },
    {
        "id": "31746e2a-3704-458f-8235-437f53d5afe1",
        "name": "Alesatian Brewing Co.",
        "brewery_type": "brewpub",
        "address_1": "21 N Loudoun St",
        "address_2": null,
        "address_3": null,
        "city": "Winchester",
        "state_province": "Virginia",
        "postal_code": "22601-4715",
        "country": "United States",
        "longitude": "-78.16559208",
        "latitude": "39.18446446",
        "phone": "5406672743",
        "website_url": "http://www.alesatianbrewing.com",
        "state": "Virginia",
        "street": "21 N Loudoun St"
    },
    {
        "id": "f8097dbc-c8e6-4068-9540-5c4bd4ac0bcf",
        "name": "AleSmith Brewing Co",
        "brewery_type": "regional",
        "address_1": "9990 Alesmith Ct",
        "address_2": null,
        "address_3": null,
        "city": "San Diego",
        "state_province": "California",
        "postal_code": "92126-4200",
        "country": "United States",
        "longitude": "-117.1495496",
        "latitude": "32.88858458",
        "phone": "8585499888",
        "website_url": "http://www.alesmith.com",
        "state": "California",
        "street": "9990 Alesmith Ct"
    },
    {
        "id": "40093c50-b89d-443f-9ac7-b24a000d8f48",
        "name": "Alesong Brewing and Blending",
        "brewery_type": "micro",
        "address_1": "1000 Conger St Ste C",
        "address_2": null,
        "address_3": null,
        "city": "Eugene",
        "state_province": "Oregon",
        "postal_code": "97402-2950",
        "country": "United States",
        "longitude": "-123.2384193",
        "latitude": "43.85285684",
        "phone": "5419723303",
        "website_url": "http://www.alesongbrewing.com",
        "state": "Oregon",
        "street": "1000 Conger St Ste C"
    },
    {
        "id": "f15f6ebf-0d80-4e6b-ad38-fb0ca9f3d3ed",
        "name": "Alesong Brewing and Tasting Room",
        "brewery_type": "micro",
        "address_1": "1000 Conger Unit C",
        "address_2": null,
        "address_3": null,
        "city": "Eugene",
        "state_province": "Oregon",
        "postal_code": "97402",
        "country": "United States",
        "longitude": "-123.2384193",
        "latitude": "43.85285684",
        "phone": "5419723303",
        "website_url": "http://www.alesongbrewing.com",
        "state": "Oregon",
        "street": "1000 Conger Unit C"
    },
    {
        "id": "e4148f94-4ce9-4fd2-9b05-faabdcca2b09",
        "name": "Alewerks Brewing Company",
        "brewery_type": "micro",
        "address_1": "197 Ewell Rd",
        "address_2": null,
        "address_3": null,
        "city": "Williamsburg",
        "state_province": "Virginia",
        "postal_code": "23188-2185",
        "country": "United States",
        "longitude": null,
        "latitude": null,
        "phone": "7572203670",
        "website_url": "http://www.alewerks.com",
        "state": "Virginia",
        "street": "197 Ewell Rd"
    },
    {
        "id": "ed3ea3ae-04d3-4356-ab96-a74514992a50",
        "name": "Alewife Brewing Company",
        "brewery_type": "brewpub",
        "address_1": "514 51st Ave",
        "address_2": null,
        "address_3": null,
        "city": "Long Island City",
        "state_province": "New York",
        "postal_code": "11101-5879",
        "country": "United States",
        "longitude": "-73.95625257",
        "latitude": "40.74232214",
        "phone": "7189377494",
        "website_url": "http://www.alewife.beer",
        "state": "New York",
        "street": "514 51st Ave"
    },
    {
        "id": "5860a6e0-1bf6-4334-8797-e5668fc22db0",
        "name": "Alexandria Brewing Company",
        "brewery_type": "micro",
        "address_1": "7926 Alexandria Pike Ste 1",
        "address_2": null,
        "address_3": null,
        "city": "Alexandria",
        "state_province": "Kentucky",
        "postal_code": "41001-1454",
        "country": "United States",
        "longitude": null,
        "latitude": null,
        "phone": "8596946999",
        "website_url": "http://www.alexandriabrewingcompany.com",
        "state": "Kentucky",
        "street": "7926 Alexandria Pike Ste 1"
    },
    {
        "id": "9da0a260-5b85-4490-824a-a397446c17dc",
        "name": "Algarve Rock Brewery",
        "brewery_type": "micro",
        "address_1": "Unidade 2B",
        "address_2": "Parque Vale da Venda",
        "address_3": null,
        "city": "Faro",
        "state_province": "Faro",
        "postal_code": "8005-412",
        "country": "Portugal",
        "longitude": "-7.972956207903116",
        "latitude": "37.06560087144406",
        "phone": "+ 351 289 815 218",
        "website_url": "https://algarverock.com/",
        "state": "Faro",
        "street": "Unidade 2B"
    },
    {
        "id": "083b7953-133d-453f-ada0-2b3541d1931c",
        "name": "Alibi Ale Works",
        "brewery_type": "micro",
        "address_1": "204 E Enterprise St",
        "address_2": null,
        "address_3": null,
        "city": "Incline Village",
        "state_province": "Nevada",
        "postal_code": "89451-9456",
        "country": "United States",
        "longitude": "-119.9537117",
        "latitude": "39.24819328",
        "phone": "7752987001",
        "website_url": "http://www.alibialeworks.com",
        "state": "Nevada",
        "street": "204 E Enterprise St"
    },
    {
        "id": "e1f999c9-3012-41ab-869b-767125e19b7f",
        "name": "Alien Brewpub",
        "brewery_type": "brewpub",
        "address_1": "6601 Uptown Blvd NE Ste B",
        "address_2": null,
        "address_3": null,
        "city": "Albuquerque",
        "state_province": "New Mexico",
        "postal_code": "87110-4207",
        "country": "United States",
        "longitude": null,
        "latitude": null,
        "phone": "5058841116",
        "website_url": "http://www.abqbrewpub.com",
        "state": "New Mexico",
        "street": "6601 Uptown Blvd NE Ste B"
    },
    {
        "id": "68b447a3-c65c-459f-8d02-334757bc6f71",
        "name": "Align Brewing Co",
        "brewery_type": "micro",
        "address_1": "8680 Miralani Dr",
        "address_2": null,
        "address_3": null,
        "city": "San Diego",
        "state_province": "California",
        "postal_code": "92126-6300",
        "country": "United States",
        "longitude": "-117.137429",
        "latitude": "32.896584",
        "phone": null,
        "website_url": "http://www.facebook.com/alignbrewing",
        "state": "California",
        "street": "8680 Miralani Dr"
    },
    {
        "id": "108b8592-3098-42a3-b466-5c60e2e626af",
        "name": "All Rise Brewing Co",
        "brewery_type": "brewpub",
        "address_1": "235 N Ashland Ave",
        "address_2": null,
        "address_3": null,
        "city": "Chicago",
        "state_province": "Illinois",
        "postal_code": "60607-1401",
        "country": "United States",
        "longitude": "-87.6667328",
        "latitude": "41.8864021",
        "phone": "3122266300",
        "website_url": "http://www.allrisebrewing.com",
        "state": "Illinois",
        "street": "235 N Ashland Ave"
    },
    {
        "id": "61853d49-62af-44bc-b0f7-bbc0faa89d30",
        "name": "All Saints Brewing Co",
        "brewery_type": "micro",
        "address_1": "1602 State Route 119",
        "address_2": null,
        "address_3": null,
        "city": "Greensburg",
        "state_province": "Pennsylvania",
        "postal_code": "15601-7317",
        "country": "United States",
        "longitude": null,
        "latitude": null,
        "phone": "7242891202",
        "website_url": "http://www.allsaintscraftbrewing.com",
        "state": "Pennsylvania",
        "street": "1602 State Route 119"
    },
    {
        "id": "82ea8f08-2026-43f8-b1a7-cc57ebe8c0bb",
        "name": "All-American Ale Works",
        "brewery_type": "micro",
        "address_1": "5120 E La Palma Ave Ste 103",
        "address_2": null,
        "address_3": null,
        "city": "Anaheim",
        "state_province": "California",
        "postal_code": "92807-2082",
        "country": "United States",
        "longitude": "-117.8056915",
        "latitude": "33.85925032",
        "phone": "9517412771",
        "website_url": "http://www.all-americanaleworks.com",
        "state": "California",
        "street": "5120 E La Palma Ave Ste 103"
    },
    {
        "id": "8a7a2bc0-0f42-4889-94ef-7f8f647268fa",
        "name": "Allagash Brewing Co",
        "brewery_type": "regional",
        "address_1": "50 Industrial Way",
        "address_2": null,
        "address_3": null,
        "city": "Portland",
        "state_province": "Maine",
        "postal_code": "04103-1270",
        "country": "United States",
        "longitude": "-70.3179518",
        "latitude": "43.7030951",
        "phone": "2078785385",
        "website_url": "http://www.allagash.com",
        "state": "Maine",
        "street": "50 Industrial Way"
    },
    {
        "id": "0924f3af-e548-446b-baf8-687ea51b02ae",
        "name": "Allegheny City Brewing",
        "brewery_type": "micro",
        "address_1": "507 Foreland St",
        "address_2": null,
        "address_3": null,
        "city": "Pittsburgh",
        "state_province": "Pennsylvania",
        "postal_code": "15212-4910",
        "country": "United States",
        "longitude": "-80.00061073",
        "latitude": "40.45424933",
        "phone": "4129043732",
        "website_url": "http://www.alleghenycitybrewing.com",
        "state": "Pennsylvania",
        "street": "507 Foreland St"
    },
    {
        "id": "9b4f31d5-61b4-46ed-b501-6acc4d428666",
        "name": "Allegory Brewing",
        "brewery_type": "micro",
        "address_1": "777 NE 4th St",
        "address_2": null,
        "address_3": null,
        "city": "McMinnville",
        "state_province": "Oregon",
        "postal_code": "97128-4502",
        "country": "United States",
        "longitude": "-123.1917806",
        "latitude": "45.21081917",
        "phone": "9713731253",
        "website_url": "http://www.allegorybrewing.com",
        "state": "Oregon",
        "street": "777 NE 4th St"
    },
    {
        "id": "3f583ab8-71bf-4009-9257-193ef53a1fe1",
        "name": "Allentown Brew Works",
        "brewery_type": "brewpub",
        "address_1": "812 Hamilton St",
        "address_2": null,
        "address_3": null,
        "city": "Allentown",
        "state_province": "Pennsylvania",
        "postal_code": "18101-2437",
        "country": "United States",
        "longitude": "-75.4575021",
        "latitude": "40.6060468",
        "phone": "6104337777",
        "website_url": "http://www.thebrewworks.com",
        "state": "Pennsylvania",
        "street": "812 Hamilton St"
    },
    {
        "id": "9c3b028c-2949-4216-ba66-fbb098734cde",
        "name": "Alliance Brewing Company",
        "brewery_type": "micro",
        "address_1": "1130 Sevier Ave",
        "address_2": null,
        "address_3": null,
        "city": "Knoxville",
        "state_province": "Tennessee",
        "postal_code": "37920",
        "country": "United States",
        "longitude": "-83.9035469",
        "latitude": "35.9593516",
        "phone": "8652475355",
        "website_url": "http://www.alliancebrewing.com",
        "state": "Tennessee",
        "street": "1130 Sevier Ave"
    },
    {
        "id": "10795316-cc0d-42d7-80c7-e237aae40a06",
        "name": "Alligator Brewing / Tall Paul's Brewhouse",
        "brewery_type": "micro",
        "address_1": "10 SE 2nd Ave",
        "address_2": null,
        "address_3": null,
        "city": "Gainesville",
        "state_province": "Florida",
        "postal_code": "32601-6232",
        "country": "United States",
        "longitude": "-82.3222523",
        "latitude": "29.6502615",
        "phone": "3525050990",
        "website_url": null,
        "state": "Florida",
        "street": "10 SE 2nd Ave"
    },
    {
        "id": "1b259770-4334-44ad-be18-8097be571df6",
        "name": "Alloy Brewing Company",
        "brewery_type": "micro",
        "address_1": "2700 Coon Rapids Blvd NW",
        "address_2": null,
        "address_3": null,
        "city": "Coon Rapids",
        "state_province": "Minnesota",
        "postal_code": "55433-3955",
        "country": "United States",
        "longitude": "-93.33543497",
        "latitude": "45.16953614",
        "phone": "7634230939",
        "website_url": "http://www.alloybrewingcompany.com",
        "state": "Minnesota",
        "street": "2700 Coon Rapids Blvd NW"
    },
    {
        "id": "6889b781-b8f6-4a5a-a1ef-ab3e4c72aed9",
        "name": "Alltech's Lexington Brewing",
        "brewery_type": "regional",
        "address_1": "475 Angliana Ave",
        "address_2": null,
        "address_3": null,
        "city": "Lexington",
        "state_province": "Kentucky",
        "postal_code": "40508-3134",
        "country": "United States",
        "longitude": "-84.51599645",
        "latitude": "38.04950651",
        "phone": "8592552337",
        "website_url": "http://www.Kentuckyale.com",
        "state": "Kentucky",
        "street": "475 Angliana Ave"
    },
    {
        "id": "6e103afb-f4ad-4fea-bf67-b31d390c269d",
        "name": "Alluvial Brewing Company",
        "brewery_type": "micro",
        "address_1": "3715 W 190th St",
        "address_2": null,
        "address_3": null,
        "city": "Ames",
        "state_province": "Iowa",
        "postal_code": "50014-9316",
        "country": "United States",
        "longitude": "-93.6370387",
        "latitude": "41.5831617",
        "phone": "515337118",
        "website_url": "http://www.alluvialbrewing.com",
        "state": "Iowa",
        "street": "3715 W 190th St"
    },
    {
        "id": "4d43c467-2e30-4b93-a25c-d1e46998dc07",
        "name": "Alma Brewing Co",
        "brewery_type": "brewpub",
        "address_1": "208 E Superior St",
        "address_2": null,
        "address_3": null,
        "city": "Alma",
        "state_province": "Michigan",
        "postal_code": "48801-1819",
        "country": "United States",
        "longitude": "-84.6588719",
        "latitude": "43.37888808",
        "phone": "9894620208",
        "website_url": "http://www.almabrewing.com",
        "state": "Michigan",
        "street": "208 E Superior St"
    },
    {
        "id": "085c97d4-5a01-4e28-a1c6-683bf773b062",
        "name": "Alma Mader Brewing",
        "brewery_type": "micro",
        "address_1": "2635 Southwest Blvd",
        "address_2": null,
        "address_3": null,
        "city": "Kansas City",
        "state_province": "Missouri",
        "postal_code": "64108",
        "country": "United States",
        "longitude": "-94.599389",
        "latitude": "39.082495",
        "phone": "8169452589",
        "website_url": "http://almamaderbrewing.com",
        "state": "Missouri",
        "street": "2635 Southwest Blvd"
    },
    {
        "id": "9a6f84d7-194b-426d-999f-c1be9beb835d",
        "name": "Almanac Beer Company",
        "brewery_type": "micro",
        "address_1": "651B W Tower Ave",
        "address_2": null,
        "address_3": null,
        "city": "Alameda",
        "state_province": "California",
        "postal_code": "94501-5047",
        "country": "United States",
        "longitude": "-122.3062832",
        "latitude": "37.78344977",
        "phone": "4159326531",
        "website_url": "http://almanacbeer.com",
        "state": "California",
        "street": "651B W Tower Ave"
    },
    {
        "id": "fc0ae4ac-07b5-4df2-a1d2-0785af183a35",
        "name": "Almost Famous Brewing Company",
        "brewery_type": "micro",
        "address_1": "17 Kripes Rd",
        "address_2": null,
        "address_3": null,
        "city": "East Granby",
        "state_province": "Connecticut",
        "postal_code": "06026",
        "country": "United States",
        "longitude": "-72.4224674",
        "latitude": "41.9581654",
        "phone": "8604139401",
        "website_url": "https://www.almostfamousbrewing.com/",
        "state": "Connecticut",
        "street": "17 Kripes Rd"
    },
    {
        "id": "236cb5e3-d827-453a-a3a4-5a4d59d87adf",
        "name": "Ankrolab Brewing Company",
        "brewery_type": "planning",
        "address_1": null,
        "address_2": null,
        "address_3": null,
        "city": "Naples",
        "state_province": "Florida",
        "postal_code": "34112-6363",
        "country": "United States",
        "longitude": null,
        "latitude": null,
        "phone": "2394511223",
        "website_url": "http://ankrolab.com",
        "state": "Florida",
        "street": null
    },
    {
        "id": "cc1c18dc-77d7-4ca5-b3b7-8180f77feecd",
        "name": "Aloha Beer Co",
        "brewery_type": "brewpub",
        "address_1": "700 Queen St",
        "address_2": null,
        "address_3": null,
        "city": "Honolulu",
        "state_province": "Hawaii",
        "postal_code": "96813-5110",
        "country": "United States",
        "longitude": "-157.857248",
        "latitude": "21.301249",
        "phone": "8085455959",
        "website_url": "http://www.alohabeer.com",
        "state": "Hawaii",
        "street": "700 Queen St"
    },
    {
        "id": "30ef2457-11c4-48ef-ae58-37109ceda4c7",
        "name": "Alosta Brewing Co",
        "brewery_type": "micro",
        "address_1": "692 Arrow Grand Cir",
        "address_2": null,
        "address_3": null,
        "city": "Covina",
        "state_province": "California",
        "postal_code": "91722-2122",
        "country": "United States",
        "longitude": "-117.8781466",
        "latitude": "34.10365026",
        "phone": "9094558707",
        "website_url": "http://www.alostabrewing.com",
        "state": "California",
        "street": "692 Arrow Grand Cir"
    },
    {
        "id": "abe71cdf-8c92-4be2-adac-902d1a14e7bb",
        "name": "Alpenglow Beer Co",
        "brewery_type": "contract",
        "address_1": null,
        "address_2": null,
        "address_3": null,
        "city": "Lafayette",
        "state_province": "California",
        "postal_code": "94549-4621",
        "country": "United States",
        "longitude": "-122.1180201",
        "latitude": "37.8857582",
        "phone": null,
        "website_url": "http://www.buckwildbrew.com",
        "state": "California",
        "street": null
    },
    {
        "id": "dc9fb80b-fb92-47c2-8b13-9a6f6990f99e",
        "name": "Alpha Acid Brewing Co",
        "brewery_type": "micro",
        "address_1": "121 Industrial Way Ste 12",
        "address_2": null,
        "address_3": null,
        "city": "Belmont",
        "state_province": "California",
        "postal_code": "94002-8208",
        "country": "United States",
        "longitude": "-122.2655717",
        "latitude": "37.52125155",
        "phone": "6503944728",
        "website_url": null,
        "state": "California",
        "street": "121 Industrial Way Ste 12"
    },
    {
        "id": "0edb8050-2911-4a04-a99a-7927e05cd018",
        "name": "Alpha Brewing Co.",
        "brewery_type": "micro",
        "address_1": "4310 Fyler Ave",
        "address_2": null,
        "address_3": null,
        "city": "Saint Louis",
        "state_province": "Missouri",
        "postal_code": "63116",
        "country": "United States",
        "longitude": "-90.26236838",
        "latitude": "38.59861817",
        "phone": "3146212337",
        "website_url": "http://www.alphabrewingcompany.com",
        "state": "Missouri",
        "street": "4310 Fyler Ave"
    },
    {
        "id": "810e0e7c-293a-4e3e-a557-13691d30d399",
        "name": "Alphabet City Brewing Co",
        "brewery_type": "contract",
        "address_1": "96 Avenue C Frnt 4",
        "address_2": null,
        "address_3": null,
        "city": "New York",
        "state_province": "New York",
        "postal_code": "10009-7055",
        "country": "United States",
        "longitude": null,
        "latitude": null,
        "phone": "9143566809",
        "website_url": "http://www.acbnyc.com",
        "state": "New York",
        "street": "96 Avenue C Frnt 4"
    },
    {
        "id": "1d7c2273-8031-40d2-bb50-7f518722e291",
        "name": "Alpine Beer Company",
        "brewery_type": "brewpub",
        "address_1": "6550 Mira Mesa Blvd",
        "address_2": null,
        "address_3": null,
        "city": "San Diego",
        "state_province": "California",
        "postal_code": "92121-4100",
        "country": "United States",
        "longitude": "-117.113975",
        "latitude": "32.9167796",
        "phone": "6194452337",
        "website_url": "http://www.alpinebrewing.com",
        "state": "California",
        "street": "6550 Mira Mesa Blvd"
    },
    {
        "id": "d8dd6a64-c201-471f-a0a1-0fc8d04b5b49",
        "name": "Alpine Brewing Co",
        "brewery_type": "micro",
        "address_1": "821 14th Ave",
        "address_2": null,
        "address_3": null,
        "city": "Oroville",
        "state_province": "Washington",
        "postal_code": "98844",
        "country": "United States",
        "longitude": "-119.4305306",
        "latitude": "48.9365877",
        "phone": "5094769662",
        "website_url": "http://www.alpine-brewing.com",
        "state": "Washington",
        "street": "821 14th Ave"
    },
    {
        "id": "9d64f11c-4f42-41c6-8ba7-768f7bf9ec13",
        "name": "Alpine Dog Brewing Co",
        "brewery_type": "micro",
        "address_1": "1505 N Ogden St",
        "address_2": null,
        "address_3": null,
        "city": "Denver",
        "state_province": "Colorado",
        "postal_code": "80218-1405",
        "country": "United States",
        "longitude": null,
        "latitude": null,
        "phone": "3038321245",
        "website_url": "http://www.alpinedogbrewery.com",
        "state": "Colorado",
        "street": "1505 N Ogden St"
    },
    {
        "id": "8e69dcd6-de4f-41b5-a9be-cc35844fb273",
        "name": "ALT Brew / Greenview Brewing LLC",
        "brewery_type": "brewpub",
        "address_1": "1808 Wright St",
        "address_2": null,
        "address_3": null,
        "city": "Madison",
        "state_province": "Wisconsin",
        "postal_code": "53704-2522",
        "country": "United States",
        "longitude": "-89.33026",
        "latitude": "43.12576305",
        "phone": "6083523373",
        "website_url": "http://www.altbrew.com",
        "state": "Wisconsin",
        "street": "1808 Wright St"
    },
    {
        "id": "728f9750-1c56-48be-9f96-b26d04215958",
        "name": "Alta Brewing Company",
        "brewery_type": "micro",
        "address_1": "1983 Julian Avenue",
        "address_2": null,
        "address_3": null,
        "city": "San Diego",
        "state_province": "California",
        "postal_code": "92113-1125",
        "country": "United States",
        "longitude": "-117.1414712",
        "latitude": "32.7018758",
        "phone": "6197957300",
        "website_url": "http://www.altabrewing.com",
        "state": "California",
        "street": "1983 Julian Avenue"
    },
    {
        "id": "ce487823-fb0a-4ad9-b3de-2f2ec4ce0631",
        "name": "Altamont Beer Works",
        "brewery_type": "micro",
        "address_1": "2402 Research Dr",
        "address_2": null,
        "address_3": null,
        "city": "Livermore",
        "state_province": "California",
        "postal_code": "94550-3850",
        "country": "United States",
        "longitude": "-121.7210974",
        "latitude": "37.67839114",
        "phone": "9254432337",
        "website_url": "http://www.altamontbeerworks.com",
        "state": "California",
        "street": "2402 Research Dr"
    },
    {
        "id": "c7009224-b9ce-44d0-b426-cd0a1e95d6f9",
        "name": "Alter Brewing + Kitchen",
        "brewery_type": "micro",
        "address_1": "12 S 1st St",
        "address_2": null,
        "address_3": null,
        "city": "Saint Charles",
        "state_province": "Illinois",
        "postal_code": "60174-4591",
        "country": "United States",
        "longitude": "-88.31393731798914",
        "latitude": "41.913143276343376",
        "phone": "3319015949",
        "website_url": "http://www.alterbrewing.com",
        "state": "Illinois",
        "street": "12 S 1st St"
    },
    {
        "id": "0026ad13-246b-4091-b344-641934ef7cc3",
        "name": "Alter Brewing Company",
        "brewery_type": "micro",
        "address_1": "2300 Wisconsin Ave Ste 213",
        "address_2": null,
        "address_3": null,
        "city": "Downers Grove",
        "state_province": "Illinois",
        "postal_code": "60515-2234",
        "country": "United States",
        "longitude": null,
        "latitude": null,
        "phone": "6305419558",
        "website_url": "http://www.alterbrewing.com",
        "state": "Illinois",
        "street": "2300 Wisconsin Ave Ste 213"
    },
    {
        "id": "6dcf0b1b-3933-4207-bf88-0a37ee98994a",
        "name": "Alternation Brewing Company",
        "brewery_type": "micro",
        "address_1": "1539 S Broadway",
        "address_2": null,
        "address_3": null,
        "city": "Denver",
        "state_province": "Colorado",
        "postal_code": "80210-2607",
        "country": "United States",
        "longitude": "-104.9876117",
        "latitude": "39.68866374",
        "phone": "3038025340",
        "website_url": "http://www.alternationbrewing.com",
        "state": "Colorado",
        "street": "1539 S Broadway"
    },
    {
        "id": "b71c080f-8514-4100-bbb3-40d2582b8122",
        "name": "Altitude Chophouse and Brewery",
        "brewery_type": "brewpub",
        "address_1": "320 S 2nd St",
        "address_2": null,
        "address_3": null,
        "city": "Laramie",
        "state_province": "Wyoming",
        "postal_code": "82070-3612",
        "country": "United States",
        "longitude": "-105.5953366",
        "latitude": "41.31038565",
        "phone": "3077214031",
        "website_url": "http://www.altitudechophouse.com",
        "state": "Wyoming",
        "street": "320 S 2nd St"
    },
    {
        "id": "be64e523-9c15-4348-87e5-c6747b87abcb",
        "name": "Altmeyer and Lewis Brewing Company",
        "brewery_type": "micro",
        "address_1": "15898 N Hwy 123",
        "address_2": null,
        "address_3": null,
        "city": "San Marcos",
        "state_province": "Texas",
        "postal_code": "78666-2418",
        "country": "United States",
        "longitude": null,
        "latitude": null,
        "phone": "5126679537",
        "website_url": "http://www.altmeyerlewisbrewing.com",
        "state": "Texas",
        "street": "15898 N Hwy 123"
    },
    {
        "id": "c1e6f260-1f52-4e38-bc14-ae58fdb7bb14",
        "name": "Altruist Brewing Company",
        "brewery_type": "brewpub",
        "address_1": "559 Main St Unit 105",
        "address_2": null,
        "address_3": null,
        "city": "Sturbridge",
        "state_province": "Massachusetts",
        "postal_code": "01518-1208",
        "country": "United States",
        "longitude": null,
        "latitude": null,
        "phone": "7742418022",
        "website_url": "http://www.altruistbrewing.com",
        "state": "Massachusetts",
        "street": "559 Main St Unit 105"
    },
    {
        "id": "68410dce-b145-4c0a-993f-08fc280cc9c8",
        "name": "Altstadt Brewery",
        "brewery_type": "micro",
        "address_1": "6120 E US Highway 290",
        "address_2": null,
        "address_3": null,
        "city": "Fredericksburg",
        "state_province": "Texas",
        "postal_code": "78624-2176",
        "country": "United States",
        "longitude": "-98.8467263",
        "latitude": "30.2468574",
        "phone": "8303042337",
        "website_url": "http://www.altstadtbeer.com",
        "state": "Texas",
        "street": "6120 E US Highway 290"
    },
    {
        "id": "7d0a71c4-cec0-431b-be2f-d125a9b9a44b",
        "name": "Alvarado Street Brewery",
        "brewery_type": "micro",
        "address_1": "1315 Dayton St Ste E",
        "address_2": null,
        "address_3": null,
        "city": "Salinas",
        "state_province": "California",
        "postal_code": "93901-4400",
        "country": "United States",
        "longitude": "-121.6305329",
        "latitude": "36.64880356",
        "phone": null,
        "website_url": null,
        "state": "California",
        "street": "1315 Dayton St Ste E"
    },
    {
        "id": "08bf17d8-5f8f-40bc-88cb-5661f0791b35",
        "name": "Alvarado Street Brewery & Grill",
        "brewery_type": "brewpub",
        "address_1": "426 Alvarado St",
        "address_2": null,
        "address_3": null,
        "city": "Monterey",
        "state_province": "California",
        "postal_code": "93940-2711",
        "country": "United States",
        "longitude": "-121.8946096",
        "latitude": "36.59857755",
        "phone": "8316552337",
        "website_url": null,
        "state": "California",
        "street": "426 Alvarado St"
    },
    {
        "id": "15ccd19e-e5bc-4216-939f-3d3348fb6d5c",
        "name": "Alvarium Beer Company",
        "brewery_type": "micro",
        "address_1": "365 John Downey Dr Ste B",
        "address_2": null,
        "address_3": null,
        "city": "New Britain",
        "state_province": "Connecticut",
        "postal_code": "06051-2922",
        "country": "United States",
        "longitude": null,
        "latitude": null,
        "phone": "8603572039",
        "website_url": "http://www.alvariumbeer.com",
        "state": "Connecticut",
        "street": "365 John Downey Dr Ste B"
    },
    {
        "id": "a649a8d5-f59e-4007-bf75-e1609ef76467",
        "name": "Amador Brewing Company",
        "brewery_type": "micro",
        "address_1": "9659 Main St",
        "address_2": null,
        "address_3": null,
        "city": "Plymouth",
        "state_province": "California",
        "postal_code": "95669-9570",
        "country": "United States",
        "longitude": "-120.849271",
        "latitude": "38.4808723",
        "phone": "2095071900",
        "website_url": "http://www.amadorbrewing.com",
        "state": "California",
        "street": "9659 Main St"
    },
    {
        "id": "1a6103ad-023a-4710-988f-17e47a6732c2",
        "name": "Amalgam Brewing",
        "brewery_type": "proprietor",
        "address_1": "6381 Beach St Unit A",
        "address_2": null,
        "address_3": null,
        "city": "Denver",
        "state_province": "Colorado",
        "postal_code": "80221-2036",
        "country": "United States",
        "longitude": null,
        "latitude": null,
        "phone": null,
        "website_url": "http://www.amalgambrewing.com",
        "state": "Colorado",
        "street": "6381 Beach St Unit A"
    },
    {
        "id": "97ea0a56-c25b-45ab-afaa-ff0b37d68de5",
        "name": "Amani Brewing",
        "brewery_type": "brewpub",
        "address_1": "654 Ropp Dr",
        "address_2": null,
        "address_3": null,
        "city": "Martinsburg",
        "state_province": "West Virginia",
        "postal_code": "25403-1533",
        "country": "United States",
        "longitude": "-77.949602",
        "latitude": "39.5332966",
        "phone": "3042793861",
        "website_url": "https://amanibrewing.com",
        "state": "West Virginia",
        "street": "654 Ropp Dr"
    },
    {
        "id": "5306cc0f-35c0-4168-b49b-ea965437dc8e",
        "name": "Ambacht Brewing",
        "brewery_type": "micro",
        "address_1": "1060 NE 25th Ave Ste B",
        "address_2": null,
        "address_3": null,
        "city": "Hillsboro",
        "state_province": "Oregon",
        "postal_code": "97124-4903",
        "country": "United States",
        "longitude": "-122.9564737",
        "latitude": "45.53275124",
        "phone": "5038281400",
        "website_url": "http://www.ambacht.us",
        "state": "Oregon",
        "street": "1060 NE 25th Ave Ste B"
    },
    {
        "id": "5fffcb8c-fbca-4633-8ef4-7bfd7dd6d473",
        "name": "Amber Lantern Brewing Company",
        "brewery_type": "brewpub",
        "address_1": "44 N Main St",
        "address_2": null,
        "address_3": null,
        "city": "Warsaw",
        "state_province": "New York",
        "postal_code": "14569-1326",
        "country": "United States",
        "longitude": "-78.132363",
        "latitude": "42.7408423",
        "phone": "5857863559",
        "website_url": "http://www.amberlanternbrewingcompany.com",
        "state": "New York",
        "street": "44 N Main St"
    },
    {
        "id": "a580bbc1-343c-4213-968d-6f332755f739",
        "name": "Ambitious Ales",
        "brewery_type": "planning",
        "address_1": null,
        "address_2": null,
        "address_3": null,
        "city": "Long Beach",
        "state_province": "California",
        "postal_code": "90807-2907",
        "country": "United States",
        "longitude": "-118.1580493",
        "latitude": "33.78538945",
        "phone": "7142962550",
        "website_url": "http://www.ambitiousales.com",
        "state": "California",
        "street": null
    },
    {
        "id": "f02ee574-d02d-486f-8d2e-851ad54b25ab",
        "name": "Amelia Island Brewing Company",
        "brewery_type": "brewpub",
        "address_1": "318 Centre St",
        "address_2": null,
        "address_3": null,
        "city": "Fernandina Beach",
        "state_province": "Florida",
        "postal_code": "32034-4241",
        "country": "United States",
        "longitude": "-81.46236272",
        "latitude": "30.67106045",
        "phone": "9043106088",
        "website_url": "http://www.theameliatavern.com",
        "state": "Florida",
        "street": "318 Centre St"
    },
    {
        "id": "5e4e7f13-1e56-4715-b575-37522b595062",
        "name": "American Badass Beer",
        "brewery_type": "contract",
        "address_1": "1401 Abbott St Corktown",
        "address_2": null,
        "address_3": null,
        "city": "Detroit",
        "state_province": "Michigan",
        "postal_code": "48216-1946",
        "country": "United States",
        "longitude": null,
        "latitude": null,
        "phone": null,
        "website_url": "http://www.americanbadassbeer.com",
        "state": "Michigan",
        "street": "1401 Abbott St Corktown"
    },
    {
        "id": "2b3bdfe8-47fd-4105-939e-57c9864e83b4",
        "name": "American Brewers Inc",
        "brewery_type": "micro",
        "address_1": "3408 Miller Rd",
        "address_2": null,
        "address_3": null,
        "city": "Kalamazoo",
        "state_province": "Michigan",
        "postal_code": "49001-4111",
        "country": "United States",
        "longitude": "-85.5378194",
        "latitude": "42.26671998",
        "phone": "2692171920",
        "website_url": "http://www.americanbrewers.us",
        "state": "Michigan",
        "street": "3408 Miller Rd"
    },
    {
        "id": "29c900c4-16b4-45ef-b688-061ed0fe8bd4",
        "name": "American Brewing Company",
        "brewery_type": "closed",
        "address_1": "180 W Dayton St Ste 102",
        "address_2": null,
        "address_3": null,
        "city": "Edmonds",
        "state_province": "Washington",
        "postal_code": "98020-4127",
        "country": "United States",
        "longitude": null,
        "latitude": null,
        "phone": "4257741717",
        "website_url": "http://www.americanbrewing.com",
        "state": "Washington",
        "street": "180 W Dayton St Ste 102"
    },
    {
        "id": "538f360a-f2b7-48fc-aa66-3ed35af0f62e",
        "name": "American Harvest Brewpub At Schoolcraft College",
        "brewery_type": "brewpub",
        "address_1": "18600 Haggerty Rd",
        "address_2": null,
        "address_3": null,
        "city": "Livonia",
        "state_province": "Michigan",
        "postal_code": "48152-3932",
        "country": "United States",
        "longitude": "-83.42868497",
        "latitude": "42.419317",
        "phone": "7344627659",
        "website_url": "http://www.schoolcraft.edu",
        "state": "Michigan",
        "street": "18600 Haggerty Rd"
    },
    {
        "id": "4c92654b-a82a-4a9a-8c3f-fc03886a0be7",
        "name": "American Honor Beer Co",
        "brewery_type": "contract",
        "address_1": "700 N Pennsylvania Ave",
        "address_2": null,
        "address_3": null,
        "city": "Wilkes Barre",
        "state_province": "Pennsylvania",
        "postal_code": "18705-2451",
        "country": "United States",
        "longitude": "-75.859363",
        "latitude": "41.254896",
        "phone": null,
        "website_url": "http://www.BoondoggleBeer.com",
        "state": "Pennsylvania",
        "street": "700 N Pennsylvania Ave"
    },
    {
        "id": "6ec8cb60-72f6-4c30-af4b-3e59e736b3fc",
        "name": "American Icon Brewery",
        "brewery_type": "brewpub",
        "address_1": "1133 19th Place",
        "address_2": null,
        "address_3": null,
        "city": "Vero Beach",
        "state_province": "Florida",
        "postal_code": "32960",
        "country": "United States",
        "longitude": "-80.3955067",
        "latitude": "27.63674361",
        "phone": "7729344266",
        "website_url": "http://www.americaniconbrewery.com",
        "state": "Florida",
        "street": "1133 19th Place"
    },
    {
        "id": "f6350f89-c5df-4969-81b2-358b6e8e6ed0",
        "name": "American Solera",
        "brewery_type": "micro",
        "address_1": "1702 E 6th St",
        "address_2": null,
        "address_3": null,
        "city": "Tulsa",
        "state_province": "Oklahoma",
        "postal_code": "74104",
        "country": "United States",
        "longitude": "-95.9667403",
        "latitude": "36.1518928",
        "phone": "9189494318",
        "website_url": "http://www.americansolera.com",
        "state": "Oklahoma",
        "street": "1702 E 6th St"
    },
    {
        "id": "045441f8-1882-4960-9e4d-0a32d24625e6",
        "name": "Americana Brewery",
        "brewery_type": "planning",
        "address_1": null,
        "address_2": null,
        "address_3": null,
        "city": "Fort Lauderdale",
        "state_province": "Florida",
        "postal_code": "33328-1606",
        "country": "United States",
        "longitude": null,
        "latitude": null,
        "phone": null,
        "website_url": null,
        "state": "Florida",
        "street": null
    },
    {
        "id": "32dd19c9-33b8-4ed5-b5f0-1fb5f5d8ad02",
        "name": "Amerisports Brew Pub",
        "brewery_type": "brewpub",
        "address_1": "3200 Ameristar Dr",
        "address_2": null,
        "address_3": null,
        "city": "Kansas City",
        "state_province": "Missouri",
        "postal_code": "64161",
        "country": "United States",
        "longitude": "-94.484526",
        "latitude": "39.150682",
        "phone": "8164147435",
        "website_url": "http://www.ameristar.com",
        "state": "Missouri",
        "street": "3200 Ameristar Dr"
    },
    {
        "id": "9bd199ef-1796-410e-abaa-1a4c9da3a1ca",
        "name": "Amery Ale Works",
        "brewery_type": "micro",
        "address_1": "588 115th St",
        "address_2": null,
        "address_3": null,
        "city": "Amery",
        "state_province": "Wisconsin",
        "postal_code": "54001-7801",
        "country": "United States",
        "longitude": "-92.39679783454335",
        "latitude": "45.293806062122286",
        "phone": "7152685226",
        "website_url": "http://www.ameryaleworks.com",
        "state": "Wisconsin",
        "street": "588 115th St"
    },
    {
        "id": "fb1c5883-f652-4375-b887-a424584d0d9d",
        "name": "Amherst Brewing Co / Hangar Pub and Grill",
        "brewery_type": "brewpub",
        "address_1": "10 University Dr",
        "address_2": null,
        "address_3": null,
        "city": "Amherst",
        "state_province": "Massachusetts",
        "postal_code": "01002-2243",
        "country": "United States",
        "longitude": "-72.5318418",
        "latitude": "42.3728635",
        "phone": "4132534400",
        "website_url": "http://www.amherstbrewing.com",
        "state": "Massachusetts",
        "street": "10 University Dr"
    },
    {
        "id": "f4e14ed9-3db6-4829-a08f-3f964717e489",
        "name": "Ammo Brewing",
        "brewery_type": "micro",
        "address_1": "235 N Market St",
        "address_2": null,
        "address_3": null,
        "city": "Petersburg",
        "state_province": "Virginia",
        "postal_code": "23803-3207",
        "country": "United States",
        "longitude": "-77.407177",
        "latitude": "37.230765",
        "phone": "8047221667",
        "website_url": "http://www.ammobrewing.com",
        "state": "Virginia",
        "street": "235 N Market St"
    },
    {
        "id": "f330bf2b-e342-4265-b41f-59d8ebf8bba7",
        "name": "Amorphic Beer",
        "brewery_type": "micro",
        "address_1": "3700 N Fratney St",
        "address_2": null,
        "address_3": null,
        "city": "Milwaukee",
        "state_province": "Wisconsin",
        "postal_code": "53212-2360",
        "country": "United States",
        "longitude": "-87.9009785002345",
        "latitude": "43.08422407406965",
        "phone": "4144856705",
        "website_url": "http://www.amorphicbeer.com",
        "state": "Wisconsin",
        "street": "3700 N Fratney St"
    },
    {
        "id": "be80d6fe-27bc-4b12-a046-e7fc8fd947b6",
        "name": "Amorys Tomb Brewing Co",
        "brewery_type": "micro",
        "address_1": "76 Main St",
        "address_2": null,
        "address_3": null,
        "city": "Maynard",
        "state_province": "Massachusetts",
        "postal_code": "01754-2516",
        "country": "United States",
        "longitude": "-71.45315644",
        "latitude": "42.43203845",
        "phone": "9782430875",
        "website_url": "http://amorystomb.com",
        "state": "Massachusetts",
        "street": "76 Main St"
    },
    {
        "id": "fd0d376e-1c1d-48ce-ba6f-897298c20b85",
        "name": "Amplified Ale Works",
        "brewery_type": "brewpub",
        "address_1": "4150 Mission Blvd Ste 208",
        "address_2": null,
        "address_3": null,
        "city": "San Diego",
        "state_province": "California",
        "postal_code": "92109-5054",
        "country": "United States",
        "longitude": "-117.2511178",
        "latitude": "32.7719729",
        "phone": "6195871400",
        "website_url": "http://www.amplifiedales.com",
        "state": "California",
        "street": "4150 Mission Blvd Ste 208"
    },
    {
        "id": "c3f5bb6a-c7f4-45a9-829c-3978625f111e",
        "name": "Amplified Ale Works Miramar Studio",
        "brewery_type": "brewpub",
        "address_1": "9030 Kenamar Dr Ste 309",
        "address_2": null,
        "address_3": null,
        "city": "San Diego",
        "state_province": "California",
        "postal_code": "92121-2432",
        "country": "United States",
        "longitude": "-117.1570695",
        "latitude": "32.88687598",
        "phone": "6503804220",
        "website_url": "https://amplifiedales.com/",
        "state": "California",
        "street": "9030 Kenamar Dr Ste 309"
    },
    {
        "id": "f99c834f-df7e-41e9-8236-ce0d25e43189",
        "name": "Anacapa Brewing Co",
        "brewery_type": "brewpub",
        "address_1": "472 E Main St",
        "address_2": null,
        "address_3": null,
        "city": "Ventura",
        "state_province": "California",
        "postal_code": "93001-2627",
        "country": "United States",
        "longitude": "-119.2935874",
        "latitude": "34.28073347",
        "phone": "8056432337",
        "website_url": "http://www.anacapabrewing.com",
        "state": "California",
        "street": "472 E Main St"
    },
    {
        "id": "3447e49a-c978-471a-8c46-62244ca757b8",
        "name": "Anacortes Brewery/Rockfish Grill",
        "brewery_type": "brewpub",
        "address_1": "320 Commercial Ave",
        "address_2": null,
        "address_3": null,
        "city": "Anacortes",
        "state_province": "Washington",
        "postal_code": "98221-1517",
        "country": "United States",
        "longitude": "-122.6126089",
        "latitude": "48.51933431",
        "phone": "3605881720",
        "website_url": "http://www.anacortesrockfish.com",
        "state": "Washington",
        "street": "320 Commercial Ave"
    },
    {
        "id": "e6663203-a997-403b-b130-63dd975b00c6",
        "name": "Anaheim Brewery",
        "brewery_type": "micro",
        "address_1": "336 S Anaheim Blvd",
        "address_2": null,
        "address_3": null,
        "city": "Anaheim",
        "state_province": "California",
        "postal_code": "92805-3830",
        "country": "United States",
        "longitude": "-117.9125249",
        "latitude": "33.8328226",
        "phone": "7147801888",
        "website_url": "http://www.anaheimbrew.com",
        "state": "California",
        "street": "336 S Anaheim Blvd"
    },
    {
        "id": "bdc1beb9-2832-4c44-aa63-289726c3a13f",
        "name": "Anawan Brewing Company",
        "brewery_type": "planning",
        "address_1": null,
        "address_2": null,
        "address_3": null,
        "city": "Dighton",
        "state_province": "Massachusetts",
        "postal_code": "02764",
        "country": "United States",
        "longitude": null,
        "latitude": null,
        "phone": "7742296300",
        "website_url": "http://www.anawanbrewingco.com",
        "state": "Massachusetts",
        "street": null
    },
    {
        "id": "126392f8-8260-4619-a561-ec20153c6779",
        "name": "Ancestry Brewery",
        "brewery_type": "brewpub",
        "address_1": "20585 SW 115th Ave",
        "address_2": null,
        "address_3": null,
        "city": "Tualatin",
        "state_province": "Oregon",
        "postal_code": "97062-6857",
        "country": "United States",
        "longitude": "-122.7967838",
        "latitude": "45.3711546",
        "phone": "5037060448",
        "website_url": "http://www.ancestrybrewing.com",
        "state": "Oregon",
        "street": "20585 SW 115th Ave"
    },
    {
        "id": "25809e1c-0c76-498b-8a57-d6b85ff24c3c",
        "name": "Anchor Brewing Co",
        "brewery_type": "large",
        "address_1": "1705 Mariposa St",
        "address_2": null,
        "address_3": null,
        "city": "San Francisco",
        "state_province": "California",
        "postal_code": "94107-2334",
        "country": "United States",
        "longitude": "-122.4011065",
        "latitude": "37.7630772",
        "phone": "4158638350",
        "website_url": "http://www.anchorbrewing.com",
        "state": "California",
        "street": "1705 Mariposa St"
    },
    {
        "id": "ce8f55f6-ba10-4d74-94c3-e26cc131f473",
        "name": "Anchorage Brewing Co",
        "brewery_type": "micro",
        "address_1": "148 W 91st Ave",
        "address_2": null,
        "address_3": null,
        "city": "Anchorage",
        "state_province": "Alaska",
        "postal_code": "99515-1901",
        "country": "United States",
        "longitude": "-149.8893581",
        "latitude": "61.1385311",
        "phone": "9073605104",
        "website_url": "http://www.anchoragebrewingcompany.com",
        "state": "Alaska",
        "street": "148 W 91st Ave"
    },
    {
        "id": "6c8aafd9-6e4a-4f1d-9dc0-a5e4cb710dce",
        "name": "Ancient City Brewing Co.",
        "brewery_type": "micro",
        "address_1": "3420 Agricultural Center Dr Ste 8",
        "address_2": null,
        "address_3": null,
        "city": "Saint Augustine",
        "state_province": "Florida",
        "postal_code": "32092-0690",
        "country": "United States",
        "longitude": null,
        "latitude": null,
        "phone": "9044299654",
        "website_url": "http://www.ancientcitybrewing.com",
        "state": "Florida",
        "street": "3420 Agricultural Center Dr Ste 8"
    },
    {
        "id": "032a363c-447b-495a-bfed-814201b877c0",
        "name": "Andean Brewing",
        "brewery_type": "micro",
        "address_1": "300 Corporate Dr Ste 2",
        "address_2": null,
        "address_3": null,
        "city": "Blauvelt",
        "state_province": "New York",
        "postal_code": "10913-1162",
        "country": "United States",
        "longitude": null,
        "latitude": null,
        "phone": "6464505852",
        "website_url": null,
        "state": "New York",
        "street": "300 Corporate Dr Ste 2"
    },
    {
        "id": "1d690623-2a47-4bb2-aecb-08f51a8ef390",
        "name": "Anders Browar",
        "brewery_type": "brewpub",
        "address_1": "Broniewskiego 33",
        "address_2": null,
        "address_3": null,
        "city": "Syc\u00f3w",
        "state_province": "dolno\u015bl\u0105skie",
        "postal_code": "56-500",
        "country": "Poland",
        "longitude": "17.7046519",
        "latitude": "51.3044034",
        "phone": null,
        "website_url": null,
        "state": "dolno\u015bl\u0105skie",
        "street": "Broniewskiego 33"
    },
    {
        "id": "55bbdf14-e891-4572-9ed2-9c6bf25edda9",
        "name": "Anderson Valley Brewing Co",
        "brewery_type": "regional",
        "address_1": "17700 CA-253",
        "address_2": null,
        "address_3": null,
        "city": "Boonville",
        "state_province": "California",
        "postal_code": "95415",
        "country": "United States",
        "longitude": "-123.3560542",
        "latitude": "39.00141731",
        "phone": "7078952337",
        "website_url": "http://www.avbc.com",
        "state": "California",
        "street": "17700 CA-253"
    },
    {
        "id": "adb4eef2-cd2f-4664-9912-c58890711b30",
        "name": "Andrews Brewing Co",
        "brewery_type": "micro",
        "address_1": "353 High St",
        "address_2": null,
        "address_3": null,
        "city": "Lincolnville",
        "state_province": "Maine",
        "postal_code": "04849-5846",
        "country": "United States",
        "longitude": null,
        "latitude": null,
        "phone": "2077633305",
        "website_url": null,
        "state": "Maine",
        "street": "353 High St"
    },
    {
        "id": "bd12815b-aceb-485f-9070-e37b03bbcbb4",
        "name": "Andrews Brewing Co At Calaboose Cellars",
        "brewery_type": "micro",
        "address_1": "575 Aquone Rd",
        "address_2": null,
        "address_3": null,
        "city": "Andrews",
        "state_province": "North Carolina",
        "postal_code": "28901-7004",
        "country": "United States",
        "longitude": "-83.81487799",
        "latitude": "35.19958164",
        "phone": "8283212006",
        "website_url": "http://www.calaboosecellars.com",
        "state": "North Carolina",
        "street": "575 Aquone Rd"
    },
    {
        "id": "be95afe2-de19-4b3b-8c83-a24ac9cd4aa7",
        "name": "Angel City Brewery",
        "brewery_type": "micro",
        "address_1": "216 S Alameda St",
        "address_2": null,
        "address_3": null,
        "city": "Los Angeles",
        "state_province": "California",
        "postal_code": "90012-4201",
        "country": "United States",
        "longitude": "-118.237715",
        "latitude": "34.04627065",
        "phone": "2136221261",
        "website_url": "http://www.angelcitybrewery.com",
        "state": "California",
        "street": "216 S Alameda St"
    },
    {
        "id": "a7e8257d-956d-46ca-81f4-33d1b6a13fc8",
        "name": "Angelina Brewing Company, LLC.",
        "brewery_type": "planning",
        "address_1": null,
        "address_2": null,
        "address_3": null,
        "city": "Lufkin",
        "state_province": "Texas",
        "postal_code": "75904-7550",
        "country": "United States",
        "longitude": null,
        "latitude": null,
        "phone": "3168419327",
        "website_url": null,
        "state": "Texas",
        "street": null
    },
    {
        "id": "d4e376b6-3aad-46ae-ae8d-471791ae03f8",
        "name": "Angry Chair Brewing, LLC.",
        "brewery_type": "micro",
        "address_1": "6401 N Florida Ave",
        "address_2": null,
        "address_3": null,
        "city": "Tampa",
        "state_province": "Florida",
        "postal_code": "33604-6007",
        "country": "United States",
        "longitude": "-82.459381",
        "latitude": "28.005127",
        "phone": "8138921651",
        "website_url": "http://www.angrychairbrewing.com",
        "state": "Florida",
        "street": "6401 N Florida Ave"
    },
    {
        "id": "67616802-40bf-435e-8824-598bbf20e054",
        "name": "Angry Erik Brewing",
        "brewery_type": "micro",
        "address_1": "10 Millpond Dr Unit 8",
        "address_2": null,
        "address_3": null,
        "city": "Lafayette",
        "state_province": "New Jersey",
        "postal_code": "07848-3825",
        "country": "United States",
        "longitude": null,
        "latitude": null,
        "phone": "8624329003",
        "website_url": "http://www.angryerik.com",
        "state": "New Jersey",
        "street": "10 Millpond Dr Unit 8"
    },
    {
        "id": "8dc5e687-be97-44c3-ae27-9b0818d48471",
        "name": "Angry Fish Brewing Company",
        "brewery_type": "micro",
        "address_1": "106 Fabrister Ln Ste C",
        "address_2": null,
        "address_3": null,
        "city": "Lexington",
        "state_province": "South Carolina",
        "postal_code": "29072",
        "country": "United States",
        "longitude": null,
        "latitude": null,
        "phone": "8035707470",
        "website_url": "http://angryfishbewingco.com",
        "state": "South Carolina",
        "street": "106 Fabrister Ln Ste C"
    },
    {
        "id": "40ecc96b-6dea-4e6b-a8f0-55293970654b",
        "name": "Angry Hank's Microbrewery",
        "brewery_type": "micro",
        "address_1": "20 N 30th St",
        "address_2": null,
        "address_3": null,
        "city": "Billings",
        "state_province": "Montana",
        "postal_code": "59101-2140",
        "country": "United States",
        "longitude": "-108.5076025",
        "latitude": "45.78022173",
        "phone": "4062523370",
        "website_url": null,
        "state": "Montana",
        "street": "20 N 30th St"
    },
    {
        "id": "5d0bfbaa-e738-4d5b-a68e-5cfea2116197",
        "name": "Angry Horse Brewing",
        "brewery_type": "micro",
        "address_1": "603 W Whittier Blvd",
        "address_2": null,
        "address_3": null,
        "city": "Montebello",
        "state_province": "California",
        "postal_code": "90640-5235",
        "country": "United States",
        "longitude": "-118.1003743",
        "latitude": "34.0084152",
        "phone": "3235300015",
        "website_url": "http://angryhorsebrewing.com",
        "state": "California",
        "street": "603 W Whittier Blvd"
    },
    {
        "id": "4f22a5e8-e8e0-471b-8070-888584fc446a",
        "name": "Angry Inch Brewing",
        "brewery_type": "micro",
        "address_1": "20841 Holyoke Ave",
        "address_2": null,
        "address_3": null,
        "city": "Lakeville",
        "state_province": "Minnesota",
        "postal_code": "55044-",
        "country": "United States",
        "longitude": "-93.2432718",
        "latitude": "44.6476022",
        "phone": null,
        "website_url": "http://www.angryinchbrewing.com",
        "state": "Minnesota",
        "street": "20841 Holyoke Ave"
    },
    {
        "id": "c9b30f6c-608f-4762-b041-c4c91e8aeba2",
        "name": "Angry James Brewing Co",
        "brewery_type": "micro",
        "address_1": "421 Adams Ave",
        "address_2": null,
        "address_3": null,
        "city": "Silverthorne",
        "state_province": "Colorado",
        "postal_code": "80498",
        "country": "United States",
        "longitude": "-106.0764637",
        "latitude": "39.63306895",
        "phone": "9704558800",
        "website_url": "http://www.angryjamesbrewing.com",
        "state": "Colorado",
        "street": "421 Adams Ave"
    },
    {
        "id": "64b090eb-64c7-4dc2-9799-d0420b517169",
        "name": "Angry Minnow Brewery",
        "brewery_type": "brewpub",
        "address_1": "10440 Florida Ave",
        "address_2": null,
        "address_3": null,
        "city": "Hayward",
        "state_province": "Wisconsin",
        "postal_code": "54843-7112",
        "country": "United States",
        "longitude": "-91.4887672",
        "latitude": "46.0104853",
        "phone": "7159343055",
        "website_url": "http://www.angryminnow.com",
        "state": "Wisconsin",
        "street": "10440 Florida Ave"
    },
    {
        "id": "3929eda4-926c-46cd-ab20-cb5c9e6f7caf",
        "name": "Angry Scotsman Brewing",
        "brewery_type": "contract",
        "address_1": "704 W Reno Ave",
        "address_2": null,
        "address_3": null,
        "city": "Oklahoma City",
        "state_province": "Oklahoma",
        "postal_code": "73102-2434",
        "country": "United States",
        "longitude": "-97.6002769",
        "latitude": "35.4644206",
        "phone": "4056737713",
        "website_url": "http://www.angryscotbrew.com",
        "state": "Oklahoma",
        "street": "704 W Reno Ave"
    },
    {
        "id": "fa4da286-e9a3-4d00-ab49-8e5f027f76d5",
        "name": "Angry Troll Brewing / 222 Public House",
        "brewery_type": "brewpub",
        "address_1": "222 E Main St Ste U2",
        "address_2": null,
        "address_3": null,
        "city": "Elkin",
        "state_province": "North Carolina",
        "postal_code": "28621-3493",
        "country": "United States",
        "longitude": null,
        "latitude": null,
        "phone": "3362582251",
        "website_url": "http://www.angrytrollbrewing.com",
        "state": "North Carolina",
        "street": "222 E Main St Ste U2"
    },
    {
        "id": "d1a61260-d377-4e7d-8ce9-8851e30934ae",
        "name": "Anheuser-Busch InBev",
        "brewery_type": "large",
        "address_1": "1 Busch Pl",
        "address_2": null,
        "address_3": null,
        "city": "Saint Louis",
        "state_province": "Missouri",
        "postal_code": "63118-1849",
        "country": "United States",
        "longitude": "-90.2118998",
        "latitude": "38.5954536",
        "phone": "3145772000",
        "website_url": "http://www.anheuser-busch.com",
        "state": "Missouri",
        "street": "1 Busch Pl"
    },
    {
        "id": "12bc86df-c66b-4fb9-9f84-5bb405ccb8b1",
        "name": "Anheuser-Busch Inc - Fort Collins",
        "brewery_type": "large",
        "address_1": "2351 Busch Dr",
        "address_2": null,
        "address_3": null,
        "city": "Fort Collins",
        "state_province": "Colorado",
        "postal_code": "80524-9400",
        "country": "United States",
        "longitude": "-105.0019686",
        "latitude": "40.61817811",
        "phone": "9704904500",
        "website_url": null,
        "state": "Colorado",
        "street": "2351 Busch Dr"
    },
    {
        "id": "7d78f227-f2c5-4830-abb5-28a209de235d",
        "name": "Anheuser-Busch Inc - Los Angeles",
        "brewery_type": "large",
        "address_1": "15800 Roscoe Blvd",
        "address_2": null,
        "address_3": null,
        "city": "Van Nuys",
        "state_province": "California",
        "postal_code": "91406-1350",
        "country": "United States",
        "longitude": "-118.4721072",
        "latitude": "34.2213918",
        "phone": "8189895300",
        "website_url": null,
        "state": "California",
        "street": "15800 Roscoe Blvd"
    },
    {
        "id": "baec5c2d-a983-49e0-beb9-ca55879d4139",
        "name": "Anheuser-Busch Inc \u00e2\u0080\u0093 Baldwinsville",
        "brewery_type": "large",
        "address_1": "2885 Belgium Rd",
        "address_2": null,
        "address_3": null,
        "city": "Baldwinsville",
        "state_province": "New York",
        "postal_code": "13027-2706",
        "country": "United States",
        "longitude": "-76.31159343",
        "latitude": "43.16510925",
        "phone": "3156354000",
        "website_url": null,
        "state": "New York",
        "street": "2885 Belgium Rd"
    },
    {
        "id": "6599a1de-d497-4e4f-bf3d-16d5065fefec",
        "name": "Anheuser-Busch Inc \u00e2\u0080\u0093 Cartersville",
        "brewery_type": "large",
        "address_1": "100 Busch Dr NE",
        "address_2": null,
        "address_3": null,
        "city": "Cartersville",
        "state_province": "Georgia",
        "postal_code": "30121-7217",
        "country": "United States",
        "longitude": null,
        "latitude": null,
        "phone": "7703862000",
        "website_url": null,
        "state": "Georgia",
        "street": "100 Busch Dr NE"
    },
    {
        "id": "2360f91c-60cb-402c-ad58-3eb638859f4c",
        "name": "Anheuser-Busch Inc \u00e2\u0080\u0093 Columbus",
        "brewery_type": "large",
        "address_1": "700 Schrock Rd",
        "address_2": null,
        "address_3": null,
        "city": "Columbus",
        "state_province": "Ohio",
        "postal_code": "43229-1123",
        "country": "United States",
        "longitude": "-82.99307",
        "latitude": "40.102197",
        "phone": "6148886644",
        "website_url": null,
        "state": "Ohio",
        "street": "700 Schrock Rd"
    },
    {
        "id": "2f7efc38-d4fd-47fc-bc1e-4b506fb6e66c",
        "name": "Anheuser-Busch Inc \u00e2\u0080\u0093 Fairfield",
        "brewery_type": "large",
        "address_1": "3101 Busch Dr",
        "address_2": null,
        "address_3": null,
        "city": "Fairfield",
        "state_province": "California",
        "postal_code": "94534-9726",
        "country": "United States",
        "longitude": "-122.0902992",
        "latitude": "38.2365838",
        "phone": "7074292000",
        "website_url": null,
        "state": "California",
        "street": "3101 Busch Dr"
    },
    {
        "id": "34dd23fd-b208-4a7b-b4d2-3488b20e618f",
        "name": "Anheuser-Busch Inc \u00e2\u0080\u0093 Houston",
        "brewery_type": "large",
        "address_1": "775 Gellhorn Dr",
        "address_2": null,
        "address_3": null,
        "city": "Houston",
        "state_province": "Texas",
        "postal_code": "77029-1496",
        "country": "United States",
        "longitude": "-95.27130674",
        "latitude": "29.771858",
        "phone": "7136752311",
        "website_url": null,
        "state": "Texas",
        "street": "775 Gellhorn Dr"
    },
    {
        "id": "a7e9194f-28a7-4fb8-85fb-38ee669b66e6",
        "name": "Anheuser-Busch Inc \u00e2\u0080\u0093 Jacksonville",
        "brewery_type": "large",
        "address_1": "111 Busch Dr",
        "address_2": null,
        "address_3": null,
        "city": "Jacksonville",
        "state_province": "Florida",
        "postal_code": "32218-5546",
        "country": "United States",
        "longitude": "-81.6481156",
        "latitude": "30.4319552",
        "phone": "9047510700",
        "website_url": null,
        "state": "Florida",
        "street": "111 Busch Dr"
    },
    {
        "id": "c1e8a479-5371-44bb-a952-b76b60997a9e",
        "name": "Anheuser-Busch Inc \u00e2\u0080\u0093 Merrimack",
        "brewery_type": "large",
        "address_1": "221 Daniel Webster Hwy",
        "address_2": null,
        "address_3": null,
        "city": "Merrimack",
        "state_province": "New Hampshire",
        "postal_code": "03054-4807",
        "country": "United States",
        "longitude": "-71.48598162",
        "latitude": "42.8253635",
        "phone": "6038896631",
        "website_url": null,
        "state": "New Hampshire",
        "street": "221 Daniel Webster Hwy"
    },
    {
        "id": "5486bf95-fcc8-4829-854f-2cc5779e7212",
        "name": "Anheuser-Busch Inc \u00e2\u0080\u0093 Newark",
        "brewery_type": "large",
        "address_1": "200 US Highway 1",
        "address_2": null,
        "address_3": null,
        "city": "Newark",
        "state_province": "New Jersey",
        "postal_code": "07114-2298",
        "country": "United States",
        "longitude": null,
        "latitude": null,
        "phone": "9736457700",
        "website_url": "http://www.anheuser-busch.com",
        "state": "New Jersey",
        "street": "200 US Highway 1"
    },
    {
        "id": "277a6d32-7f94-4a94-ad41-ad7f4ce8ce1c",
        "name": "Anheuser-Busch Inc \u0322\ufffd\ufffd\ufffd\ufffd Williamsburg",
        "brewery_type": "large",
        "address_1": "7801 Pocahontas Trl",
        "address_2": null,
        "address_3": null,
        "city": "Williamsburg",
        "state_province": "Virginia",
        "postal_code": "23185-6302",
        "country": "United States",
        "longitude": "-76.6798988",
        "latitude": "37.2652889",
        "phone": "7572533600",
        "website_url": "http://www.anheuser-busch.com",
        "state": "Virginia",
        "street": "7801 Pocahontas Trl"
    },
    {
        "id": "c498dd04-30b2-4f8f-b06b-c47a34dd61c7",
        "name": "Animas Brewing Co",
        "brewery_type": "brewpub",
        "address_1": "1560 E 2nd Ave",
        "address_2": null,
        "address_3": null,
        "city": "Durango",
        "state_province": "Colorado",
        "postal_code": "81301-5186",
        "country": "United States",
        "longitude": "-107.8769912",
        "latitude": "37.27997215",
        "phone": "9704038850",
        "website_url": "http://www.animasbrewing.com",
        "state": "Colorado",
        "street": "1560 E 2nd Ave"
    },
    {
        "id": "f95b4c37-7d9c-4bcb-8958-31c352cd1cab",
        "name": "Anthem Brewing Co",
        "brewery_type": "micro",
        "address_1": "908 SW 4th St",
        "address_2": null,
        "address_3": null,
        "city": "Oklahoma City",
        "state_province": "Oklahoma",
        "postal_code": "73109-1012",
        "country": "United States",
        "longitude": "-97.5279236",
        "latitude": "35.46099673",
        "phone": "4056040446",
        "website_url": "http://www.anthembrewing.com",
        "state": "Oklahoma",
        "street": "908 SW 4th St"
    },
    {
        "id": "9379b79b-63c2-4ce3-9605-f499f7915f7e",
        "name": "Antietam Brewery,LLC",
        "brewery_type": "micro",
        "address_1": "140 Western Maryland Pkwy Unit G",
        "address_2": null,
        "address_3": null,
        "city": "Hagerstown",
        "state_province": "Maryland",
        "postal_code": "21740-5197",
        "country": "United States",
        "longitude": null,
        "latitude": null,
        "phone": "3017915915",
        "website_url": "http://www.antietambrewery.com",
        "state": "Maryland",
        "street": "140 Western Maryland Pkwy Unit G"
    },
    {
        "id": "1c215e2f-7a58-46ce-88cc-241bd3d39482",
        "name": "Antiques on High",
        "brewery_type": "micro",
        "address_1": "714 S High St",
        "address_2": null,
        "address_3": null,
        "city": "Columbus",
        "state_province": "Ohio",
        "postal_code": "43206",
        "country": "United States",
        "longitude": "-82.99774",
        "latitude": "39.9476",
        "phone": "614-725-2070",
        "website_url": "https://www.antiquesonhigh.com/",
        "state": "Ohio",
        "street": "714 S High St"
    },
    {
        "id": "26a850f9-f796-427c-810d-84b4ae08dfbb",
        "name": "Anvil Brewing",
        "brewery_type": "brewpub",
        "address_1": "115 S. Compress St",
        "address_2": null,
        "address_3": null,
        "city": "Pittsburg",
        "state_province": "Texas",
        "postal_code": "75686-1353",
        "country": "United States",
        "longitude": null,
        "latitude": null,
        "phone": "9039267741",
        "website_url": "http://www.anvilbrewingtx.com",
        "state": "Texas",
        "street": "115 S. Compress St"
    },
    {
        "id": "e61dc891-91d8-4a0f-a55e-b5e34acc97fd",
        "name": "Apex Aleworks Brew And BBQ Supplies",
        "brewery_type": "micro",
        "address_1": "4360 S Noland Rd",
        "address_2": null,
        "address_3": null,
        "city": "Independence",
        "state_province": "Missouri",
        "postal_code": "64055-4741",
        "country": "United States",
        "longitude": "-94.416872",
        "latitude": "39.041039",
        "phone": "8163135039",
        "website_url": "http://www.apexaleworks.com",
        "state": "Missouri",
        "street": "4360 S Noland Rd"
    },
    {
        "id": "e15991e7-755b-465a-9d39-0f850305e900",
        "name": "Apex Brewery",
        "brewery_type": "planning",
        "address_1": null,
        "address_2": null,
        "address_3": null,
        "city": "Central Valley",
        "state_province": "New York",
        "postal_code": "10917-3708",
        "country": "United States",
        "longitude": null,
        "latitude": null,
        "phone": "8455493006",
        "website_url": "http://www.apexbeer.co",
        "state": "New York",
        "street": null
    },
    {
        "id": "98f2d2a5-5f1d-494c-b920-c50d6761b62e",
        "name": "Apocalypse Ale Works",
        "brewery_type": "micro",
        "address_1": "1257 Burnbridge Rd",
        "address_2": null,
        "address_3": null,
        "city": "Forest",
        "state_province": "Virginia",
        "postal_code": "24551-3803",
        "country": "United States",
        "longitude": "-79.28917899",
        "latitude": "37.36302124",
        "phone": "4342588761",
        "website_url": "http://www.apocalypsebrewworks.com",
        "state": "Virginia",
        "street": "1257 Burnbridge Rd"
    },
    {
        "id": "b622e216-d777-41c0-a795-bb901d31a555",
        "name": "Apocalypse Brew Works",
        "brewery_type": "micro",
        "address_1": "1612 Mellwood Ave",
        "address_2": null,
        "address_3": null,
        "city": "Louisville",
        "state_province": "Kentucky",
        "postal_code": "40206-1752",
        "country": "United States",
        "longitude": "-85.72031443",
        "latitude": "38.2566442",
        "phone": "5025894843",
        "website_url": "http://www.apocalypsebrewworks.com",
        "state": "Kentucky",
        "street": "1612 Mellwood Ave"
    },
    {
        "id": "855b2e6e-9fa0-40da-bcba-343bef14d556",
        "name": "Appalachian Brewing Co - Collegeville",
        "brewery_type": "brewpub",
        "address_1": "50 W Third Ave Collegeville Station 2nd Floor",
        "address_2": null,
        "address_3": null,
        "city": "Collegeville",
        "state_province": "Pennsylvania",
        "postal_code": "19426-3655",
        "country": "United States",
        "longitude": null,
        "latitude": null,
        "phone": "4849736064",
        "website_url": "http://www.abcbrew.com",
        "state": "Pennsylvania",
        "street": "50 W Third Ave Collegeville Station 2nd Floor"
    },
    {
        "id": "cb55778e-fc31-4634-b56f-570961484c8d",
        "name": "Appalachian Brewing Co - Gettysburg Gateway",
        "brewery_type": "brewpub",
        "address_1": "70 Presidential Cir",
        "address_2": null,
        "address_3": null,
        "city": "Gettysburg",
        "state_province": "Pennsylvania",
        "postal_code": "17325-8399",
        "country": "United States",
        "longitude": null,
        "latitude": null,
        "phone": "7173982419",
        "website_url": "http://www.abcbrew.com",
        "state": "Pennsylvania",
        "street": "70 Presidential Cir"
    },
    {
        "id": "48fd38a6-736f-4e76-b69a-8642d82c67df",
        "name": "Appalachian Brewing Co - Harrisburg",
        "brewery_type": "brewpub",
        "address_1": "50 N Cameron St",
        "address_2": null,
        "address_3": null,
        "city": "Harrisburg",
        "state_province": "Pennsylvania",
        "postal_code": "17101-2407",
        "country": "United States",
        "longitude": "-76.8816961",
        "latitude": "40.291059",
        "phone": "7172211080",
        "website_url": "http://www.abcbrew.com",
        "state": "Pennsylvania",
        "street": "50 N Cameron St"
    },
    {
        "id": "dddd1391-58ad-4a74-bd0d-93997ccaf17d",
        "name": "Appalachian Brewing Co - Lititz",
        "brewery_type": "brewpub",
        "address_1": "55 N Water St",
        "address_2": null,
        "address_3": null,
        "city": "Lititz",
        "state_province": "Pennsylvania",
        "postal_code": "17543-1612",
        "country": "United States",
        "longitude": "-76.30100986",
        "latitude": "40.15827375",
        "phone": "7172211080",
        "website_url": "http://www.abcbrew.com",
        "state": "Pennsylvania",
        "street": "55 N Water St"
    },
    {
        "id": "19693f1b-962f-4b88-8d53-7faf3e176208",
        "name": "Appalachian Brewing Co - Mechanicsburg",
        "brewery_type": "brewpub",
        "address_1": "6462 Carlisle Pike",
        "address_2": null,
        "address_3": null,
        "city": "Mechanicsburg",
        "state_province": "Pennsylvania",
        "postal_code": "17050-2384",
        "country": "United States",
        "longitude": null,
        "latitude": null,
        "phone": "7177954660",
        "website_url": "http://www.abcbrew.com",
        "state": "Pennsylvania",
        "street": "6462 Carlisle Pike"
    },
    {
        "id": "5b127f6a-3364-4588-b5ad-f7953fc6ee54",
        "name": "Appalachian Mountain Brewery - Boone",
        "brewery_type": "micro",
        "address_1": "163 Boone Creek Dr",
        "address_2": null,
        "address_3": null,
        "city": "Boone",
        "state_province": "North Carolina",
        "postal_code": "28607-7911",
        "country": "United States",
        "longitude": "-81.668461",
        "latitude": "36.2033414",
        "phone": "8282631111",
        "website_url": "http://www.appalachianmountainbrewery.com",
        "state": "North Carolina",
        "street": "163 Boone Creek Dr"
    },
    {
        "id": "d8528f09-f3d8-48f9-9719-db00b4e10b71",
        "name": "Appalachian Mountain Brewery - Portsmouth",
        "brewery_type": "micro",
        "address_1": "1 Redhook Way",
        "address_2": null,
        "address_3": null,
        "city": "Portsmouth",
        "state_province": "New Hampshire",
        "postal_code": "03801-6853",
        "country": "United States",
        "longitude": "-70.8044602",
        "latitude": "43.087884",
        "phone": "8282631111",
        "website_url": null,
        "state": "New Hampshire",
        "street": "1 Redhook Way"
    },
    {
        "id": "b5d8ac9a-0449-46e7-8eb8-c1078ee793bb",
        "name": "Apple Blossom Brewing Co",
        "brewery_type": "brewpub",
        "address_1": "1550 E Zion Rd",
        "address_2": null,
        "address_3": null,
        "city": "Fayetteville",
        "state_province": "Arkansas",
        "postal_code": "72703-5017",
        "country": "United States",
        "longitude": "-94.1372796",
        "latitude": "36.1297079",
        "phone": "4792874344",
        "website_url": "http://www.appleblossombrewing.com",
        "state": "Arkansas",
        "street": "1550 E Zion Rd"
    },
    {
        "id": "12a02dc2-b34b-48cd-8e34-eac44554c0cf",
        "name": "Appleton Beer Factory",
        "brewery_type": "brewpub",
        "address_1": "603 W College Ave",
        "address_2": null,
        "address_3": null,
        "city": "Appleton",
        "state_province": "Wisconsin",
        "postal_code": "54911-5803",
        "country": "United States",
        "longitude": "-88.4139148",
        "latitude": "44.26173602",
        "phone": "9203649931",
        "website_url": "http://www.appletonbeerfactory.com",
        "state": "Wisconsin",
        "street": "603 W College Ave"
    },
    {
        "id": "ea5535e7-94e9-4c24-baa4-32b15b495c8b",
        "name": "Apponaug Brewing",
        "brewery_type": "brewpub",
        "address_1": "334 Knight St",
        "address_2": null,
        "address_3": null,
        "city": "Warwick",
        "state_province": "Rhode Island",
        "postal_code": "02886",
        "country": "United States",
        "longitude": "-71.4691256",
        "latitude": "41.7265254",
        "phone": "4016814321",
        "website_url": "http://www.apponaugbrewing.com",
        "state": "Rhode Island",
        "street": "334 Knight St"
    },
    {
        "id": "e04c1682-dba4-4366-ac2e-4a8dab19da3c",
        "name": "Aquabrew",
        "brewery_type": "brewpub",
        "address_1": "150 S L B J Dr",
        "address_2": null,
        "address_3": null,
        "city": "San Marcos",
        "state_province": "Texas",
        "postal_code": "78666-5506",
        "country": "United States",
        "longitude": null,
        "latitude": null,
        "phone": "5123532739",
        "website_url": "http://www.aqua-brew.com",
        "state": "Texas",
        "street": "150 S L B J Dr"
    },
    {
        "id": "61239a88-ebee-45d3-9794-12860e11259c",
        "name": "Aquatic Brewing LLC",
        "brewery_type": "planning",
        "address_1": null,
        "address_2": null,
        "address_3": null,
        "city": "Falmouth",
        "state_province": "Massachusetts",
        "postal_code": "02540-3299",
        "country": "United States",
        "longitude": null,
        "latitude": null,
        "phone": "5084442155",
        "website_url": "http://www.aquaticbrewing.com",
        "state": "Massachusetts",
        "street": null
    },
    {
        "id": "fc2ce5e0-8796-4749-9aba-8710cd557ccb",
        "name": "Aqueduct Brewing",
        "brewery_type": "micro",
        "address_1": "529 Grant St Ste 106",
        "address_2": null,
        "address_3": null,
        "city": "Akron",
        "state_province": "Ohio",
        "postal_code": "44311-1184",
        "country": "United States",
        "longitude": "-81.51788487",
        "latitude": "41.0698532",
        "phone": "3306066583",
        "website_url": "http://www.aqueductbrewing.shutterfly.com",
        "state": "Ohio",
        "street": "529 Grant St Ste 106"
    },
    {
        "id": "e37a575c-5e11-4a2f-8e58-8fcce92e78ac",
        "name": "Aransas Pass Brewing Company, LLC",
        "brewery_type": "planning",
        "address_1": null,
        "address_2": null,
        "address_3": null,
        "city": "Aransas Pass",
        "state_province": "Texas",
        "postal_code": "78336-1920",
        "country": "United States",
        "longitude": null,
        "latitude": null,
        "phone": null,
        "website_url": null,
        "state": "Texas",
        "street": null
    },
    {
        "id": "e38d5dc2-4bf9-4627-b468-922baaa621ab",
        "name": "Arbeiter Brewing Company",
        "brewery_type": "planning",
        "address_1": null,
        "address_2": null,
        "address_3": null,
        "city": "Minneapolis",
        "state_province": "Minnesota",
        "postal_code": "55418-2325",
        "country": "United States",
        "longitude": null,
        "latitude": null,
        "phone": null,
        "website_url": "http://www.arbeiterbrewing.com",
        "state": "Minnesota",
        "street": null
    }
]