[
    {
        "id": "a489a154-1f69-4eaa-9680-22e0646c192a",
        "name": "\ube0c\ub8e8\uc5b4\ub9ac304 (Brewery 304)",
        "brewery_type": "brewpub",
        "address_1": "7, Tongil-ro 11-gil",
        "address_2": null,
        "address_3": null,
        "city": "Seodaemun-gu",
        "state_province": "Seoul",
        "postal_code": "03734",
        "country": "South Korea",
        "longitude": "126.962571",
        "latitude": "37.56924092",
        "phone": "02-363-7304",
        "website_url": "https://www.brewery304.com/",
        "state": "Seoul",
        "street": "7, Tongil-ro 11-gil"
    },
    {
        "id": "adbffc2c-c973-441f-85a1-aac0f876f20b",
        "name": "\ube14\ub8e8\uc6e8\uc77c\ube0c\ub8e8\ud558\uc6b0\uc2a4(BlueWhale Brewhouse)",
        "brewery_type": "brewpub",
        "address_1": "109, Sajik-ro",
        "address_2": null,
        "address_3": null,
        "city": "Chungju-si",
        "state_province": "Chungcheongbukdo",
        "postal_code": "27410",
        "country": "South Korea",
        "longitude": "127.9248097",
        "latitude": "36.96760505",
        "phone": "043-843-7773",
        "website_url": "https://whalebeer.modoo.at/",
        "state": "Chungcheongbukdo",
        "street": "109, Sajik-ro"
    },
    {
        "id": "4065feb7-008b-4010-bc89-9220d39ab2af",
        "name": "\ube44\uc544\ube0c\ub8e8\uc5b4\ub9ac(Via Brewery)",
        "brewery_type": "brewpub",
        "address_1": "47, Imbangul-daero 826beon-gil",
        "address_2": null,
        "address_3": null,
        "city": "Gwangsan-gu",
        "state_province": "Gwangju",
        "postal_code": "62279",
        "country": "South Korea",
        "longitude": "126.8492063",
        "latitude": "35.21530647",
        "phone": "070-4126-4110",
        "website_url": "https://www.instagram.com/via_pub/",
        "state": "Gwangju",
        "street": "47, Imbangul-daero 826beon-gil"
    },
    {
        "id": "9ad6ad04-85ec-453d-b18c-c6c099794f69",
        "name": "\ube44\uc5b4\ubc14\ub098 (Beer Vana Brewing Co.)",
        "brewery_type": "brewpub",
        "address_1": "5-1, Dorim-ro 129-gil",
        "address_2": null,
        "address_3": null,
        "city": "Yeongdeungpo-gu",
        "state_province": "Seoul",
        "postal_code": "07290",
        "country": "South Korea",
        "longitude": "126.8952771",
        "latitude": "37.5133648",
        "phone": "02-2634-6277",
        "website_url": "https://www.instagram.com/beervana_brewery_seoul/",
        "state": "Seoul",
        "street": "5-1, Dorim-ro 129-gil"
    },
    {
        "id": "115b67f2-e2ec-4d54-9efb-a5dc5a38933a",
        "name": "\uc11c\uc6b8 \ube0c\ub8e8\uc5b4\ub9ac (Seoul Brewery)",
        "brewery_type": "brewpub",
        "address_1": "10, Tojeong-ro 3an-gil",
        "address_2": null,
        "address_3": null,
        "city": "Mapo-gu",
        "state_province": "Seoul",
        "postal_code": "04083",
        "country": "South Korea",
        "longitude": "126.9146756",
        "latitude": "37.54594861",
        "phone": "070-7756-0915",
        "website_url": "https://www.seoulbrewery.com/home",
        "state": "Seoul",
        "street": "10, Tojeong-ro 3an-gil"
    },
    {
        "id": "7d5a3056-0c03-4a76-ba08-befd4f61b5e9",
        "name": "\uc11c\uc6b8\uc9d1\uc2dc (Seoul Gypsy)",
        "brewery_type": "brewpub",
        "address_1": "107, Seosulla-gil",
        "address_2": null,
        "address_3": null,
        "city": "Jongno-gu",
        "state_province": "Seoul",
        "postal_code": "03134",
        "country": "South Korea",
        "longitude": "126.9915676",
        "latitude": "37.57504419",
        "phone": "02-743-1212",
        "website_url": "http://instagram.com/seoulgypsy",
        "state": "Seoul",
        "street": "107, Seosulla-gil"
    },
    {
        "id": "b38a706c-f137-4c9f-8f9e-4d26332e86a4",
        "name": "\uc21c\uc131\uc591\uc870\uc7a5(Sunseong Brewery)",
        "brewery_type": "brewpub",
        "address_1": "394, Maesil-ro",
        "address_2": "Sunseong-myeon",
        "address_3": null,
        "city": "Dangjin-si",
        "state_province": "Chungcheongnamdo",
        "postal_code": "31757",
        "country": "South Korea",
        "longitude": "126.7071635",
        "latitude": "36.83056542",
        "phone": "041-354-1204",
        "website_url": "https://www.instagram.com/sunseongbrew",
        "state": "Chungcheongnamdo",
        "street": "394, Maesil-ro"
    },
    {
        "id": "b5c4192b-902c-4073-ab22-128e7833ae17",
        "name": "\uc21c\ucc9c\uc591\uc870\uc7a5(Suncheon Brewery)",
        "brewery_type": "brewpub",
        "address_1": "57, Yeokjeon-gil",
        "address_2": null,
        "address_3": null,
        "city": "Suncheon-si",
        "state_province": "Jeollanamdo",
        "postal_code": "57964",
        "country": "South Korea",
        "longitude": "127.4987434",
        "latitude": "34.94739604",
        "phone": "061-745-2545",
        "website_url": "https://www.instagram.com/suncheon_brewery/",
        "state": "Jeollanamdo",
        "street": "57, Yeokjeon-gil"
    },
    {
        "id": "2abf3e94-2824-4c4a-999d-bd4f475bf553",
        "name": "\uc2a4\ud034\uc988\ube0c\ub8e8\uc5b4\ub9ac(Squeeze Brewery)",
        "brewery_type": "brewpub",
        "address_1": "353, Gongji-ro",
        "address_2": null,
        "address_3": null,
        "city": "Chuncheon-si",
        "state_province": "Gangwondo",
        "postal_code": "24365",
        "country": "South Korea",
        "longitude": "127.7270367",
        "latitude": "37.86982853",
        "phone": "033-818-1663",
        "website_url": "http://squeezebrewery.com/",
        "state": "Gangwondo",
        "street": "353, Gongji-ro"
    },
    {
        "id": "e706c6ba-82d4-4099-adb8-83054ae146ed",
        "name": "\uc544\ub9ac\ub791 \ube0c\ub8e8\uc5b4\ub9ac(Alilang-Brewery)",
        "brewery_type": "brewpub",
        "address_1": "26-55, Yemi 2-gil",
        "address_2": "Sindong-eup",
        "address_3": null,
        "city": "Jeongseon-gun",
        "state_province": "Gangwondo",
        "postal_code": "26142",
        "country": "South Korea",
        "longitude": "128.6513589",
        "latitude": "37.21507529",
        "phone": "033-378-7177",
        "website_url": "http://www.xn--9i2blz0qc217czqmswa.com/",
        "state": "Gangwondo",
        "street": "26-55, Yemi 2-gil"
    },
    {
        "id": "09c1e42a-8e73-4097-af34-f1ff0cd6034e",
        "name": "\uc544\uc26c\ud2b8\ub9ac (Ash Tree Brewery)",
        "brewery_type": "brewpub",
        "address_1": "22 Achasan-ro 49-gil",
        "address_2": null,
        "address_3": null,
        "city": "Gwangjin-gu",
        "state_province": "Seoul",
        "postal_code": "05043",
        "country": "South Korea",
        "longitude": "127.0323206",
        "latitude": "37.49360307",
        "phone": "02-6339-4858",
        "website_url": "https://www.ashtreebrewery.com/",
        "state": "Seoul",
        "street": "22 Achasan-ro 49-gil"
    },
    {
        "id": "930d5e04-4234-4bf4-9d32-ad0d812d1a95",
        "name": "\uc544\ud1a4\ube0c\ub8e8\uc5b4\ub9ac (Aton Brewery)",
        "brewery_type": "brewpub",
        "address_1": "23, Jangmun-ro",
        "address_2": null,
        "address_3": null,
        "city": "Yongsan-gu",
        "state_province": "Seoul",
        "postal_code": "04392",
        "country": "South Korea",
        "longitude": "126.9930459",
        "latitude": "37.52846912",
        "phone": "070-4009-5849",
        "website_url": "http://www.instagram.com/aton_brewery",
        "state": "Seoul",
        "street": "23, Jangmun-ro"
    },
    {
        "id": "aad01f28-c9ad-4b8a-b3f4-90fe07485602",
        "name": "\uc548\ub3d9\uac00\uc625(Andong House)",
        "brewery_type": "brewpub",
        "address_1": "16-7, Munhwagwangjang-gil",
        "address_2": null,
        "address_3": null,
        "city": "Andong-si",
        "state_province": "Gyeongsangbukdo",
        "postal_code": "36700",
        "country": "South Korea",
        "longitude": "128.7307751",
        "latitude": "36.56384588",
        "phone": "054-901-5550",
        "website_url": "http://instagram.com/andongbeer.pub",
        "state": "Gyeongsangbukdo",
        "street": "16-7, Munhwagwangjang-gil"
    },
    {
        "id": "99fdc1ac-a3ae-4754-8467-ed70f03c9048",
        "name": "\uc548\ub3d9\ube0c\ub8e8\uc5b4\ub9ac(Andong Brewing Co.)",
        "brewery_type": "micro",
        "address_1": "98, Goejeong 2-gil,",
        "address_2": "Pungsan-eup",
        "address_3": null,
        "city": "Andong-si",
        "state_province": "Gyeongsangbukdo",
        "postal_code": "36619",
        "country": "South Korea",
        "longitude": "128.5337984",
        "latitude": "36.60338246",
        "phone": "054-852-9602",
        "website_url": "https://www.instagram.com/andongbrewing/",
        "state": "Gyeongsangbukdo",
        "street": "98, Goejeong 2-gil,"
    },
    {
        "id": "363c5d1f-99e3-4b8a-afc7-acd4a7c30a1f",
        "name": "\uc5b4\uba54\uc774\uc9d5\ube0c\ub8e8\uc789\ucef4\ud37c\ub2c8 (Amazing Brewing Company)",
        "brewery_type": "brewpub",
        "address_1": "4, Seongsuil-ro 4-gil",
        "address_2": null,
        "address_3": null,
        "city": "Seongdong-gu",
        "state_province": "Seoul",
        "postal_code": "04780",
        "country": "South Korea",
        "longitude": "127.0495044",
        "latitude": "37.54297518",
        "phone": "02-465-5208",
        "website_url": "http://www.amazingbrewing.co.kr",
        "state": "Seoul",
        "street": "4, Seongsuil-ro 4-gil"
    },
    {
        "id": "0616a0ff-c23f-4cf3-a4c6-34b7f47f581c",
        "name": "\uc5d0\uc77c\ud06c\ub8e8\ube0c\ub8e8\uc789 (Alecrew Brewing)",
        "brewery_type": "brewpub",
        "address_1": "87, Moraenae-ro",
        "address_2": null,
        "address_3": null,
        "city": "Mapo-gu",
        "state_province": "Seoul",
        "postal_code": "03949",
        "country": "South Korea",
        "longitude": "126.912452",
        "latitude": "37.56657473",
        "phone": "02-304-8663",
        "website_url": "https://www.instagram.com/alecrew_brewing",
        "state": "Seoul",
        "street": "87, Moraenae-ro"
    },
    {
        "id": "cfa85b4b-30b6-4775-8e83-33339b8f877f",
        "name": "\uc5d0\uc787\ud53c\ud50c\ube0c\ub8e8\uc5b4\ub9ac(Eight People Brewery)",
        "brewery_type": "brewpub",
        "address_1": "3, Jaejaegi-ro 190beonan-gil",
        "address_2": "Hwado-eup",
        "address_3": null,
        "city": "Namyangju-si",
        "state_province": "Gyeonggido",
        "postal_code": "12200",
        "country": "South Korea",
        "longitude": "127.3033051",
        "latitude": "37.61749196",
        "phone": "031-595-5589",
        "website_url": "https://www.facebook.com/eightpeoplebrew/",
        "state": "Gyeonggido",
        "street": "3, Jaejaegi-ro 190beonan-gil"
    },
    {
        "id": "1b8e9bf0-27a4-4943-a268-d5ba4a6cd93d",
        "name": "\uc5d1\uc2a4\ud2b8\ub77c\uc2a4\ubab0\ube0c\ub8e8\uc789\ub8f8(XSBREWING-ROOM)",
        "brewery_type": "brewpub",
        "address_1": "19, Cheongmyeong-ro",
        "address_2": null,
        "address_3": null,
        "city": "Yeonsu-gu",
        "state_province": "Incheon",
        "postal_code": "21917",
        "country": "South Korea",
        "longitude": "126.6752048",
        "latitude": "37.41755734",
        "phone": null,
        "website_url": "https://www.instagram.com/xs.brewing.rm/",
        "state": "Incheon",
        "street": "19, Cheongmyeong-ro"
    },
    {
        "id": "32a97b7b-726c-41a2-b019-0f34037c00ee",
        "name": "\uc640\uc77c\ub4dc \uc6e8\uc774\ube0c(Wild Wave Brewing Co.)",
        "brewery_type": "brewpub",
        "address_1": "106-1, Songjeongjungang-ro 5beon-gil",
        "address_2": null,
        "address_3": null,
        "city": "Haeundae-gu",
        "state_province": "Busan",
        "postal_code": "48071",
        "country": "South Korea",
        "longitude": "129.2035339",
        "latitude": "35.18781109",
        "phone": "051-702-0838",
        "website_url": "https://www.wildwavebrew.com/",
        "state": "Busan",
        "street": "106-1, Songjeongjungang-ro 5beon-gil"
    },
    {
        "id": "1ca23f38-8691-4f9f-93e8-4d3f6c777f92",
        "name": "\uc644\ubcbd\ud55c\uc778\uc0dd(Perfectlife Brewery)",
        "brewery_type": "brewpub",
        "address_1": "30, Dogil-ro",
        "address_2": "Samdong-myeon",
        "address_3": null,
        "city": "Namhae-gun",
        "state_province": "Gyeongsangnamdo",
        "postal_code": "52447",
        "country": "South Korea",
        "longitude": "128.0435747",
        "latitude": "34.79733881",
        "phone": "055-867-0108",
        "website_url": "http://www.instagram.com/perfectlife.official",
        "state": "Gyeongsangnamdo",
        "street": "30, Dogil-ro"
    },
    {
        "id": "696350cb-1ab1-4b6e-850e-478e839c7372",
        "name": "\uc778\ucc9c\ub9e5\uc8fc(incheon_brewery)",
        "brewery_type": "brewpub",
        "address_1": "41, Sinpo-ro 15beon-gil",
        "address_2": null,
        "address_3": null,
        "city": "Jung-gu",
        "state_province": "Incheon",
        "postal_code": "22314",
        "country": "South Korea",
        "longitude": "126.6222289",
        "latitude": "37.47157834",
        "phone": "070-7722-0705",
        "website_url": "https://www.instagram.com/incheon_brewery",
        "state": "Incheon",
        "street": "41, Sinpo-ro 15beon-gil"
    },
    {
        "id": "9ca48b41-3962-4c18-a8be-a95bf73fa2cb",
        "name": "\uc81c\uc8fc\uc57d\uc218\ud130(Jejubeerfountain)",
        "brewery_type": "brewpub",
        "address_1": "35, Jungang-ro",
        "address_2": null,
        "address_3": null,
        "city": "Seogwipo-si",
        "state_province": "Jejudo",
        "postal_code": "63592",
        "country": "South Korea",
        "longitude": "126.5617044",
        "latitude": "33.24773328",
        "phone": "064-805-6572",
        "website_url": "http://www.instagram.com/jeju_beer_fountain",
        "state": "Jejudo",
        "street": "35, Jungang-ro"
    },
    {
        "id": "faefcbd2-3178-44c7-9520-de488f8ac4d1",
        "name": "\uce60\ud649\uc2a4 \ube0c\ub8e8\uc789(Chillhops Brewing Co.)",
        "brewery_type": "micro",
        "address_1": "148-3, Dongseo 1-ro",
        "address_2": null,
        "address_3": null,
        "city": "Seosan-si",
        "state_province": "Chungcheongnamdo",
        "postal_code": "31999",
        "country": "South Korea",
        "longitude": "126.4545751",
        "latitude": "36.76696044",
        "phone": "010-3022-4997",
        "website_url": "https://www.instagram.com/chillhopsbrewingco/",
        "state": "Chungcheongnamdo",
        "street": "148-3, Dongseo 1-ro"
    },
    {
        "id": "bc6e84e7-5020-4b1a-b81d-ec55683bc92d",
        "name": "\uce74\ube0c\ub8e8 (Ka-Brew)",
        "brewery_type": "brewpub",
        "address_1": "403, Songpa-daero",
        "address_2": null,
        "address_3": null,
        "city": "Songpa-gu",
        "state_province": "Seoul",
        "postal_code": "05686",
        "country": "South Korea",
        "longitude": "127.1087119",
        "latitude": "37.50309293",
        "phone": "02-3143-4082",
        "website_url": "http://www.kabrew.co.kr/",
        "state": "Seoul",
        "street": "403, Songpa-daero"
    },
    {
        "id": "659c476d-0144-48e3-baf4-d90b2d6c11e6",
        "name": "\uceec\ub7ec\ub4dc(Coloredd)",
        "brewery_type": "brewpub",
        "address_1": "39, Busandaehak-ro 63beon-gil",
        "address_2": null,
        "address_3": null,
        "city": "Geumjeong-gu",
        "state_province": "Busan",
        "postal_code": "46288",
        "country": "South Korea",
        "longitude": "129.084145",
        "latitude": "35.22989272",
        "phone": "051-518-3771",
        "website_url": "https://www.instagram.com/coloredd_brew/",
        "state": "Busan",
        "street": "39, Busandaehak-ro 63beon-gil"
    },
    {
        "id": "9f991b54-eff1-4126-9cc2-b03bfdf9e0ce",
        "name": "\ud06c\ub798\uba38\ub9ac \ube0c\ub8e8\uc5b4\ub9ac(Kraemerlee Brewery)",
        "brewery_type": "brewpub",
        "address_1": "429, Cheonggun-ro",
        "address_2": "Sang-myeon",
        "address_3": null,
        "city": "Gapyeong-gun",
        "state_province": "Gyeonggido",
        "postal_code": "12446",
        "country": "South Korea",
        "longitude": "127.3943665",
        "latitude": "37.7603212",
        "phone": "031-585-5977",
        "website_url": "https://www.instagram.com/kraemerlee/",
        "state": "Gyeonggido",
        "street": "429, Cheonggun-ro"
    },
    {
        "id": "fd23a3cb-6b21-44d3-b40c-008564f2f4f0",
        "name": "\ud06c\ub798\ud504\ud2b8\ube0c\ub85c\uc2a4 \ud0ed\ud558\uc6b0\uc2a4 & \ubc14\ud2c0\uc0f5 (Craftbros Tap House & Bottle Shop)",
        "brewery_type": "brewpub",
        "address_1": "18 Sapyeong-daero 22-gil",
        "address_2": null,
        "address_3": null,
        "city": "Seocho-gu",
        "state_province": "Seoul",
        "postal_code": "06576",
        "country": "South Korea",
        "longitude": "126.9977006",
        "latitude": "37.498793",
        "phone": "02-537-7451",
        "website_url": "http://www.craftbros.co.kr/",
        "state": "Seoul",
        "street": "18 Sapyeong-daero 22-gil"
    },
    {
        "id": "b41b1c36-6f0d-4afb-9574-0d84f1af12d0",
        "name": "\ud14c\ub77c\uc2a4\ud3ec\ub4dc \ube0c\ub8e8\uc789(Tetrapod Brewing)",
        "brewery_type": "brewpub",
        "address_1": "77, Jungang-daero 680beonga-gil",
        "address_2": null,
        "address_3": null,
        "city": "Busanjin-gu",
        "state_province": "Busan",
        "postal_code": "47292",
        "country": "South Korea",
        "longitude": "129.0609993",
        "latitude": "35.15692356",
        "phone": "051-791-1002",
        "website_url": "https://www.instagram.com/tetrapod_brewing_co/",
        "state": "Busan",
        "street": "77, Jungang-daero 680beonga-gil"
    },
    {
        "id": "d67acf79-8ca9-4932-9b34-d6578d83ffaa",
        "name": "\ud23c\ube0c\ub85c\uc774(Turmbrau)",
        "brewery_type": "brewpub",
        "address_1": "1244, Haeun-daero",
        "address_2": null,
        "address_3": null,
        "city": "Haeundae-gu",
        "state_province": "Busan",
        "postal_code": "48069",
        "country": "South Korea",
        "longitude": "129.2059199",
        "latitude": "35.19578923",
        "phone": "050-71342-6297",
        "website_url": "https://www.instagram.com/turmbrau_korea/",
        "state": "Busan",
        "street": "1244, Haeun-daero"
    },
    {
        "id": "c5c523b9-d8f4-402e-baee-c95cbc65ee21",
        "name": "\ud30c\uba38\uc2a4\ube0c\ub8e8\uc5b4\ub9ac(Farmers Brewery)",
        "brewery_type": "brewpub",
        "address_1": "15, Jeonjugaeksa 1-gil",
        "address_2": "Wansan-gu",
        "address_3": null,
        "city": "Jeonju-si",
        "state_province": "Jeollabukdo",
        "postal_code": "54999",
        "country": "South Korea",
        "longitude": "127.140034",
        "latitude": "35.81724263",
        "phone": "070-8803-3915",
        "website_url": "http://www.gdcbeer.co.kr/new/",
        "state": "Jeollabukdo",
        "street": "15, Jeonjugaeksa 1-gil"
    },
    {
        "id": "2056bc4b-2844-4128-a406-fca7a1dca89b",
        "name": "\ud39c\ub354\uba58\ud0c8 \ube0c\ub8e8\uc5b4\ub9ac(Fundamental Brewing Co.)",
        "brewery_type": "brewpub",
        "address_1": "61, Maeyeong-ro 269beon-gil",
        "address_2": "Yeongtong-gu",
        "address_3": null,
        "city": "Suwon-si",
        "state_province": "Gyeonggido",
        "postal_code": "16523",
        "country": "South Korea",
        "longitude": "127.0677246",
        "latitude": "37.25978047",
        "phone": "050-71319-7808",
        "website_url": "https://www.instagram.com/fundamental_brewing_co/",
        "state": "Gyeonggido",
        "street": "61, Maeyeong-ro 269beon-gil"
    },
    {
        "id": "8cf1b15f-c546-4c0f-8532-fb8480944275",
        "name": "\ud504\ub77c\ud558993(993 Praha)",
        "brewery_type": "brewpub",
        "address_1": "20, Gurak-ro 123beon-gil",
        "address_2": null,
        "address_3": null,
        "city": "Suyeong-gu",
        "state_province": "Busan",
        "postal_code": "48212",
        "country": "South Korea",
        "longitude": "129.1154295",
        "latitude": "35.17760201",
        "phone": "051-757-2703",
        "website_url": "http://praha993.com/",
        "state": "Busan",
        "street": "20, Gurak-ro 123beon-gil"
    },
    {
        "id": "57a70f5c-a995-4be1-949c-99244450940f",
        "name": "\ud50c\ub808\uc774\uadf8\ub77c\uc6b4\ub4dc \ube0c\ub8e8\uc5b4\ub9ac(playground Brewery)",
        "brewery_type": "brewpub",
        "address_1": "246-13, Isanpo-gil",
        "address_2": "Ilsanseo-gu",
        "address_3": null,
        "city": "Goyang-si",
        "state_province": "Gyeonggido",
        "postal_code": "10203",
        "country": "South Korea",
        "longitude": "126.7020113",
        "latitude": "37.66779467",
        "phone": "031-912-2463",
        "website_url": "https://www.playgroundbrewery.com/",
        "state": "Gyeonggido",
        "street": "246-13, Isanpo-gil"
    },
    {
        "id": "64a4f65c-47a9-4d8e-ad2e-3cc898b9689c",
        "name": "\ud578\ub4dc\uc564\ubab0\ud2b8 (Hand and Malt)",
        "brewery_type": "brewpub",
        "address_1": "19, Hangang-daero 38ga-gil",
        "address_2": null,
        "address_3": null,
        "city": "Yongsan-gu",
        "state_province": "Seoul",
        "postal_code": "04386",
        "country": "South Korea",
        "longitude": "126.9705831",
        "latitude": "37.52985655",
        "phone": "070-7178-4011",
        "website_url": "http://handandmalt.com/",
        "state": "Seoul",
        "street": "19, Hangang-daero 38ga-gil"
    },
    {
        "id": "a9541aa9-5c12-469b-8cbb-01fb5619cefc",
        "name": "\ud5c8\uc2ec\uccad\ube0c\ub8e8\uc789(Hursimchung Bru)",
        "brewery_type": "brewpub",
        "address_1": "23, Geumganggongwon-ro 20beon-gil",
        "address_2": null,
        "address_3": null,
        "city": "Dongnae-gu",
        "state_province": "Busan",
        "postal_code": "47709",
        "country": "South Korea",
        "longitude": "129.0826027",
        "latitude": "35.21990206",
        "phone": "051-550-2345",
        "website_url": "https://www.hotelnongshim.com/kr/index.php?pCode=hbrau_info",
        "state": "Busan",
        "street": "23, Geumganggongwon-ro 20beon-gil"
    },
    {
        "id": "6f317bdc-458e-466f-bd2a-9ab398d46631",
        "name": "\ud5e4\uc774\uc2a4\ud0c1 \ube0c\ub8e8\uc5b4\ub9ac(Haystack Brewery)",
        "brewery_type": "brewpub",
        "address_1": "25, Pangyogongwon-ro 3-gil",
        "address_2": "Bundang-gu",
        "address_3": null,
        "city": "Seongnam-si",
        "state_province": "Gyeonggido",
        "postal_code": "13477",
        "country": "South Korea",
        "longitude": "127.0890607",
        "latitude": "37.39125615",
        "phone": "070-7631-1110",
        "website_url": null,
        "state": "Gyeonggido",
        "street": "25, Pangyogongwon-ro 3-gil"
    },
    {
        "id": "a1308963-b966-49f7-8f84-97ba37775d14",
        "name": "\ud654\uc774\ud2b8\ud06c\ub85c\uc6b0 \ube0c\ub8e8\uc789(Whitecrow Brewing)",
        "brewery_type": "brewpub",
        "address_1": "65,Gowon-ro",
        "address_2": "Bangnim-myeon",
        "address_3": null,
        "city": "Pyeongchang-gun",
        "state_province": "Gangwondo",
        "postal_code": "25364",
        "country": "South Korea",
        "longitude": "128.2515424",
        "latitude": "37.47598351",
        "phone": "033-333-1201",
        "website_url": "https://www.instagram.com/whitecrowbrewing/",
        "state": "Gangwondo",
        "street": "65,Gowon-ro"
    }
]