[
    {
        "id": "7e32b8ba-f0d6-4e22-9b07-0e6cfe279235",
        "name": "Magnolia Brewing Company",
        "brewery_type": "brewpub",
        "address_1": "1398 Haight St",
        "address_2": null,
        "address_3": null,
        "city": "San Francisco",
        "state_province": "California",
        "postal_code": "94117-2909",
        "country": "United States",
        "longitude": "-122.4452044",
        "latitude": "37.7703537",
        "phone": null,
        "website_url": null,
        "state": "California",
        "street": "1398 Haight St"
    },
    {
        "id": "a42086a7-b358-498a-ad7e-44948cc75ed0",
        "name": "Magnolia Dogpatch",
        "brewery_type": "micro",
        "address_1": "2505 3rd St",
        "address_2": null,
        "address_3": null,
        "city": "San Francisco",
        "state_province": "California",
        "postal_code": "94107-3112",
        "country": "United States",
        "longitude": "-122.3880818",
        "latitude": "37.7577437",
        "phone": "4158647468",
        "website_url": "http://www.magnoliasmokestack.com",
        "state": "California",
        "street": "2505 3rd St"
    },
    {
        "id": "959be3f8-4cc7-4342-b430-9111b5a3d036",
        "name": "Magnuson Cafe and Brewery",
        "brewery_type": "brewpub",
        "address_1": "7801 62nd Ave NE",
        "address_2": null,
        "address_3": null,
        "city": "Seattle",
        "state_province": "Washington",
        "postal_code": "98115",
        "country": "United States",
        "longitude": "-122.2647516",
        "latitude": "47.68882925",
        "phone": "2065250669",
        "website_url": "https://magnusonbrewery.com",
        "state": "Washington",
        "street": "7801 62nd Ave NE"
    },
    {
        "id": "5d702444-3683-463e-abfe-1f587d63a7bc",
        "name": "Mahogany Ridge Brewery & Grill",
        "brewery_type": "brewpub",
        "address_1": "435 Lincoln Ave",
        "address_2": null,
        "address_3": null,
        "city": "Steamboat Springs",
        "state_province": "Colorado",
        "postal_code": "80477-5084",
        "country": "United States",
        "longitude": "-106.8306883",
        "latitude": "40.48389236",
        "phone": "9708793773",
        "website_url": null,
        "state": "Colorado",
        "street": "435 Lincoln Ave"
    },
    {
        "id": "bad259d6-ce30-4252-8b30-30e2a74934fb",
        "name": "Maiden City Brewing Company, LLC",
        "brewery_type": "micro",
        "address_1": "123 E Pike St",
        "address_2": null,
        "address_3": null,
        "city": "Cynthiana",
        "state_province": "Kentucky",
        "postal_code": "41031-1527",
        "country": "United States",
        "longitude": "-84.288072",
        "latitude": "38.388396",
        "phone": "8599545151",
        "website_url": "http://www.maidencitybrewing.com",
        "state": "Kentucky",
        "street": "123 E Pike St"
    },
    {
        "id": "b7825867-5c07-4e12-a1f2-dbf533deb48b",
        "name": "Maidens Brewery",
        "brewery_type": "brewpub",
        "address_1": "209 North Wabash Avenue of Flags",
        "address_2": null,
        "address_3": null,
        "city": "Evansville",
        "state_province": "Indiana",
        "postal_code": "47712",
        "country": "United States",
        "longitude": null,
        "latitude": null,
        "phone": "8124312836",
        "website_url": "http://www.maidensbrewery.com",
        "state": "Indiana",
        "street": "209 North Wabash Avenue of Flags"
    },
    {
        "id": "70ff7200-901e-4279-afa4-41f0ae57fdd2",
        "name": "Main And Mill Brewing Company",
        "brewery_type": "brewpub",
        "address_1": "240 E Main St",
        "address_2": null,
        "address_3": null,
        "city": "Festus",
        "state_province": "Missouri",
        "postal_code": "63028-1907",
        "country": "United States",
        "longitude": "-90.39265217",
        "latitude": "38.21974885",
        "phone": "6365433031",
        "website_url": "http://www.mainandmill.com",
        "state": "Missouri",
        "street": "240 E Main St"
    },
    {
        "id": "9ac5be0c-c048-4566-b831-7fb7e8d76b0f",
        "name": "Main Channel Brewing Company",
        "brewery_type": "micro",
        "address_1": "2090 Gunter Ave",
        "address_2": null,
        "address_3": null,
        "city": "Guntersville",
        "state_province": "Alabama",
        "postal_code": "35976-2113",
        "country": "United States",
        "longitude": "-86.31216035",
        "latitude": "34.33873684",
        "phone": "2569605070",
        "website_url": "http://www.mainchannelbeer.com",
        "state": "Alabama",
        "street": "2090 Gunter Ave"
    },
    {
        "id": "80d50e64-d6ac-4056-a170-42144fa4f9cd",
        "name": "Main Line Brewery",
        "brewery_type": "micro",
        "address_1": "1603 Ownby Ln",
        "address_2": null,
        "address_3": null,
        "city": "Richmond",
        "state_province": "Virginia",
        "postal_code": "23220",
        "country": "United States",
        "longitude": null,
        "latitude": null,
        "phone": "8043879670",
        "website_url": "https://mainlinerva.com/",
        "state": "Virginia",
        "street": "1603 Ownby Ln"
    },
    {
        "id": "bc35bec8-bdb0-405a-be1f-6c19a3d805a6",
        "name": "Main Sail Brewery / Atwood Yacht Club",
        "brewery_type": "micro",
        "address_1": "2637 Lodge Rd SW",
        "address_2": null,
        "address_3": null,
        "city": "Sherrodsville",
        "state_province": "Ohio",
        "postal_code": "44675-9719",
        "country": "United States",
        "longitude": null,
        "latitude": null,
        "phone": "3307352135",
        "website_url": "http://www.atwoodyachtclub.com",
        "state": "Ohio",
        "street": "2637 Lodge Rd SW"
    },
    {
        "id": "c979cb39-7e7f-4bdf-89ef-f45bebd906d7",
        "name": "Main St Brewery",
        "brewery_type": "brewpub",
        "address_1": "830 Main St Frnt",
        "address_2": null,
        "address_3": null,
        "city": "Pleasanton",
        "state_province": "California",
        "postal_code": "94566-6652",
        "country": "United States",
        "longitude": "-121.8738245",
        "latitude": "37.66475013",
        "phone": "9254628218",
        "website_url": "http://www.mainstbrewery.com",
        "state": "California",
        "street": "830 Main St Frnt"
    },
    {
        "id": "02dcafad-191a-47ed-82d6-d1a7a4ee8ccc",
        "name": "Main Street Brewery",
        "brewery_type": "brewpub",
        "address_1": "493 N Main St",
        "address_2": null,
        "address_3": null,
        "city": "Corona",
        "state_province": "California",
        "postal_code": "92880-2042",
        "country": "United States",
        "longitude": "-117.5636924",
        "latitude": "33.8925168",
        "phone": "9513711471",
        "website_url": "http://www.mainstreetbrewery.com",
        "state": "California",
        "street": "493 N Main St"
    },
    {
        "id": "269ae6fe-0f4b-4b1e-bac1-1eedc1332929",
        "name": "Main Street Brewery/Four Corners",
        "brewery_type": "brewpub",
        "address_1": "21 E Main St",
        "address_2": null,
        "address_3": null,
        "city": "Cortez",
        "state_province": "Colorado",
        "postal_code": "81321-3240",
        "country": "United States",
        "longitude": "-108.5846644",
        "latitude": "37.3484244",
        "phone": "9705649112",
        "website_url": null,
        "state": "Colorado",
        "street": "21 E Main St"
    },
    {
        "id": "d8ebbd1e-ee4b-4230-89df-9d40c208e013",
        "name": "Main Street Brewing Inc/Turonis Pizza",
        "brewery_type": "brewpub",
        "address_1": "408 N Main St",
        "address_2": null,
        "address_3": null,
        "city": "Evansville",
        "state_province": "Indiana",
        "postal_code": "47711-5418",
        "country": "United States",
        "longitude": "-87.56399527",
        "latitude": "37.98122094",
        "phone": "8124249871",
        "website_url": null,
        "state": "Indiana",
        "street": "408 N Main St"
    },
    {
        "id": "85e606f3-cfcc-44de-b8e5-9c29c873c532",
        "name": "Maine Beer Co",
        "brewery_type": "micro",
        "address_1": "525 US Route 1",
        "address_2": null,
        "address_3": null,
        "city": "Freeport",
        "state_province": "Maine",
        "postal_code": "04032-7009",
        "country": "United States",
        "longitude": null,
        "latitude": null,
        "phone": "2072215711",
        "website_url": "http://www.mainebeercompany.com",
        "state": "Maine",
        "street": "525 US Route 1"
    },
    {
        "id": "532b6171-7a1e-4caa-9e28-75cc148ce369",
        "name": "Mainely Brews Restaurant and Brewhouse",
        "brewery_type": "contract",
        "address_1": "1 Post Office Sq Ste 302",
        "address_2": null,
        "address_3": null,
        "city": "Waterville",
        "state_province": "Maine",
        "postal_code": "04901-6651",
        "country": "United States",
        "longitude": null,
        "latitude": null,
        "phone": "2078732457",
        "website_url": "http://www.mainelybrews.com",
        "state": "Maine",
        "street": "1 Post Office Sq Ste 302"
    },
    {
        "id": "4dcaeb97-edb6-4930-bf22-b27d434900f2",
        "name": "Mainstreet Brewing Company",
        "brewery_type": "micro",
        "address_1": "4204 W Main St",
        "address_2": null,
        "address_3": null,
        "city": "Belleville",
        "state_province": "Illinois",
        "postal_code": "62226",
        "country": "United States",
        "longitude": "-90.02053343",
        "latitude": "38.53796122",
        "phone": "6184167261",
        "website_url": "http://www.mainstreetbrewingco.com",
        "state": "Illinois",
        "street": "4204 W Main St"
    },
    {
        "id": "b35ddbfe-490e-4eaf-aeca-fb041e06c7aa",
        "name": "Maize Valley Craft Brewery",
        "brewery_type": "brewpub",
        "address_1": "6193 Edison St NE",
        "address_2": null,
        "address_3": null,
        "city": "Hartville",
        "state_province": "Ohio",
        "postal_code": "44632-9326",
        "country": "United States",
        "longitude": "-81.27813638",
        "latitude": "40.95340888",
        "phone": "3308778344",
        "website_url": "http://www.maizevalley.com",
        "state": "Ohio",
        "street": "6193 Edison St NE"
    },
    {
        "id": "686b5441-1a16-4bef-abc2-889de7800102",
        "name": "Makai Brewing Company",
        "brewery_type": "micro",
        "address_1": "5850 Ocean Hwy W",
        "address_2": null,
        "address_3": null,
        "city": "Ocean Isle Beach",
        "state_province": "North Carolina",
        "postal_code": "28469-3510",
        "country": "United States",
        "longitude": null,
        "latitude": null,
        "phone": "9105792739",
        "website_url": "http://www.MakaiBrewingCompany.com",
        "state": "North Carolina",
        "street": "5850 Ocean Hwy W"
    },
    {
        "id": "f01c6462-20da-4cb6-ac2b-40996eb27016",
        "name": "Makers Craft Brewery",
        "brewery_type": "planning",
        "address_1": null,
        "address_2": null,
        "address_3": null,
        "city": "Norfolk",
        "state_province": "Virginia",
        "postal_code": "23504-1905",
        "country": "United States",
        "longitude": null,
        "latitude": null,
        "phone": "7576249024",
        "website_url": "http://www.makers.beer",
        "state": "Virginia",
        "street": null
    },
    {
        "id": "dce22bec-12d1-4aa6-a355-5780190abffe",
        "name": "Malai Fort Worth",
        "brewery_type": "brewpub",
        "address_1": "5289 Monahans Ave",
        "address_2": null,
        "address_3": null,
        "city": "Fort Worth",
        "state_province": "Texas",
        "postal_code": "76109",
        "country": "United States",
        "longitude": null,
        "latitude": null,
        "phone": "6827073959",
        "website_url": null,
        "state": "Texas",
        "street": "5289 Monahans Ave"
    },
    {
        "id": "90b5b8ad-037c-4372-96f4-5566dec973a2",
        "name": "Mallory Brewing",
        "brewery_type": "planning",
        "address_1": null,
        "address_2": null,
        "address_3": null,
        "city": "Houston",
        "state_province": "Texas",
        "postal_code": "77018",
        "country": "United States",
        "longitude": null,
        "latitude": null,
        "phone": null,
        "website_url": "https://www.facebook.com/profile.php?id=100063450295613",
        "state": "Texas",
        "street": null
    },
    {
        "id": "67b9f26e-f7f1-4744-b44c-f04c776d5063",
        "name": "Maltese Brewing Company",
        "brewery_type": "micro",
        "address_1": "11047 Pierson Dr Ste B",
        "address_2": null,
        "address_3": null,
        "city": "Fredericksburg",
        "state_province": "Virginia",
        "postal_code": "22408-2062",
        "country": "United States",
        "longitude": null,
        "latitude": null,
        "phone": "5406424512",
        "website_url": "http://www.maltesebrewing.com",
        "state": "Virginia",
        "street": "11047 Pierson Dr Ste B"
    },
    {
        "id": "b6e3b8af-2f93-4520-8daa-5c0c9dc4e3c1",
        "name": "Mammoth Brewing Company",
        "brewery_type": "micro",
        "address_1": "18 Lake Mary Rd",
        "address_2": null,
        "address_3": null,
        "city": "Mammoth Lakes",
        "state_province": "California",
        "postal_code": "93546",
        "country": "United States",
        "longitude": "-118.9835694",
        "latitude": "37.64888165",
        "phone": "7609347141",
        "website_url": "http://www.mammothbrewingco.com",
        "state": "California",
        "street": "18 Lake Mary Rd"
    },
    {
        "id": "ecd253a8-292a-4233-908f-4141491d0d32",
        "name": "Man Skirt Brewing",
        "brewery_type": "micro",
        "address_1": "144 Main St",
        "address_2": null,
        "address_3": null,
        "city": "Hackettstown",
        "state_province": "New Jersey",
        "postal_code": "07840-1930",
        "country": "United States",
        "longitude": "-74.8299453",
        "latitude": "40.85378205",
        "phone": "9089890286",
        "website_url": "http://www.manskirtbrewing.com",
        "state": "New Jersey",
        "street": "144 Main St"
    },
    {
        "id": "a9c4d58a-f01d-4bec-9ebf-4ad61e8a6bcd",
        "name": "ManaFirkin",
        "brewery_type": "micro",
        "address_1": "450 East Bay Ave Ste 2",
        "address_2": null,
        "address_3": null,
        "city": "Manahawkin",
        "state_province": "New Jersey",
        "postal_code": "08050",
        "country": "United States",
        "longitude": null,
        "latitude": null,
        "phone": "6097564798",
        "website_url": null,
        "state": "New Jersey",
        "street": "450 East Bay Ave Ste 2"
    },
    {
        "id": "38040138-55a0-4f87-9601-0a5744186600",
        "name": "Manayunk Brewing Co & Restaurant",
        "brewery_type": "brewpub",
        "address_1": "4120 Main St",
        "address_2": null,
        "address_3": null,
        "city": "Philadelphia",
        "state_province": "Pennsylvania",
        "postal_code": "19127-1618",
        "country": "United States",
        "longitude": "-75.2189308",
        "latitude": "40.0223235",
        "phone": "2154828220",
        "website_url": "http://www.manayunkbrewery.com",
        "state": "Pennsylvania",
        "street": "4120 Main St"
    },
    {
        "id": "274b3acf-4f2c-40f0-8ac7-29506f2e8f5c",
        "name": "Mancos Brewing Company",
        "brewery_type": "brewpub",
        "address_1": "484 E. Frontage Rd",
        "address_2": null,
        "address_3": null,
        "city": "Mancos",
        "state_province": "Colorado",
        "postal_code": "81328-9079",
        "country": "United States",
        "longitude": null,
        "latitude": null,
        "phone": "9705339761",
        "website_url": "http://www.mancosbrewingcompany.com",
        "state": "Colorado",
        "street": "484 E. Frontage Rd"
    },
    {
        "id": "7d87f747-3b19-4648-9f34-6c0f2ff07b34",
        "name": "Mandatory Fun Brewing",
        "brewery_type": "planning",
        "address_1": null,
        "address_2": null,
        "address_3": null,
        "city": "Marietta",
        "state_province": "Georgia",
        "postal_code": "30064",
        "country": "United States",
        "longitude": null,
        "latitude": null,
        "phone": "9517955337",
        "website_url": "http://www.vikingalchemist.com",
        "state": "Georgia",
        "street": null
    },
    {
        "id": "29f8aa88-0252-488b-9c6d-3bdfafbbf455",
        "name": "Manfish Brewing",
        "brewery_type": "micro",
        "address_1": "19611 276th Ave SE",
        "address_2": null,
        "address_3": null,
        "city": "Issaquah",
        "state_province": "Washington",
        "postal_code": "98027-8292",
        "country": "United States",
        "longitude": "-121.9732919",
        "latitude": "47.42561663",
        "phone": "4255847264",
        "website_url": "http://www.manfishbrewing.com",
        "state": "Washington",
        "street": "19611 276th Ave SE"
    },
    {
        "id": "1bd5d598-c751-4438-bc01-7a7adf6cdb92",
        "name": "Manifest Beer Company",
        "brewery_type": "micro",
        "address_1": "740 Willamette St",
        "address_2": null,
        "address_3": null,
        "city": "Eugene",
        "state_province": "Oregon",
        "postal_code": "97401-2934",
        "country": "United States",
        "longitude": "-123.0928507",
        "latitude": "44.05174833",
        "phone": "5412067232",
        "website_url": "http://www.manifestbeer.com",
        "state": "Oregon",
        "street": "740 Willamette St"
    },
    {
        "id": "b8af95f3-2057-40d5-ac94-c388f2f639e6",
        "name": "Manitou Brewing Company",
        "brewery_type": "brewpub",
        "address_1": "725 Manitou Ave",
        "address_2": null,
        "address_3": null,
        "city": "Manitou Springs",
        "state_province": "Colorado",
        "postal_code": "80829-1809",
        "country": "United States",
        "longitude": "-104.9157413",
        "latitude": "38.8569869",
        "phone": "7192827709",
        "website_url": "http://www.manitou-brewing.com",
        "state": "Colorado",
        "street": "725 Manitou Ave"
    },
    {
        "id": "03f6dd60-d50e-4053-94db-1e83d087333f",
        "name": "Mankato Brewery",
        "brewery_type": "micro",
        "address_1": "1119 Center St",
        "address_2": null,
        "address_3": null,
        "city": "North Mankato",
        "state_province": "Minnesota",
        "postal_code": "56003-2108",
        "country": "United States",
        "longitude": "-94.013784",
        "latitude": "44.18144279",
        "phone": "5073862337",
        "website_url": "http://www.mankatobrewery.com",
        "state": "Minnesota",
        "street": "1119 Center St"
    },
    {
        "id": "7167267a-7a89-448d-8586-9caad8d72bdb",
        "name": "Manor Hill Brewing",
        "brewery_type": "micro",
        "address_1": "4411 Manor Ln",
        "address_2": null,
        "address_3": null,
        "city": "Ellicott City",
        "state_province": "Maryland",
        "postal_code": "21042-6111",
        "country": "United States",
        "longitude": null,
        "latitude": null,
        "phone": "4109977771",
        "website_url": "http://www.manorhillbrewing.com",
        "state": "Maryland",
        "street": "4411 Manor Ln"
    },
    {
        "id": "2b21af13-3882-4ded-9acd-340b81cb5a70",
        "name": "ManRock Brewing",
        "brewery_type": "brewpub",
        "address_1": "1750 El Camino Real Ste A",
        "address_2": null,
        "address_3": null,
        "city": "Grover Beach",
        "state_province": "California",
        "postal_code": "93433-1416",
        "country": "United States",
        "longitude": "-120.6082797",
        "latitude": "35.12963742",
        "phone": "7022172826",
        "website_url": "http://www.manrockbrewing.com",
        "state": "California",
        "street": "1750 El Camino Real Ste A"
    },
    {
        "id": "129dfd95-492b-443d-af67-dd03bef8a157",
        "name": "Mantorville Brewing Co LLC",
        "brewery_type": "contract",
        "address_1": "101 5th St E",
        "address_2": null,
        "address_3": null,
        "city": "Mantorville",
        "state_province": "Minnesota",
        "postal_code": "55955-8087",
        "country": "United States",
        "longitude": "-92.753035",
        "latitude": "44.067031",
        "phone": "6513870708",
        "website_url": "http://www.mantorvillebeer.com",
        "state": "Minnesota",
        "street": "101 5th St E"
    },
    {
        "id": "8f13ef71-9339-4aec-9bc7-b9e8e2d5d806",
        "name": "Mantra Artisan Ales",
        "brewery_type": "micro",
        "address_1": "216 Noah Dr Ste 140",
        "address_2": null,
        "address_3": null,
        "city": "Franklin",
        "state_province": "Tennessee",
        "postal_code": "37064-4024",
        "country": "United States",
        "longitude": "-86.866949",
        "latitude": "35.893554",
        "phone": "6156288776",
        "website_url": "http://www.mantrabrewing.com",
        "state": "Tennessee",
        "street": "216 Noah Dr Ste 140"
    },
    {
        "id": "a0637ba4-fc85-4dd3-b1f2-e23e5ad5c862",
        "name": "Manufaktura Piwowarska Z\u0142ota Woda",
        "brewery_type": "micro",
        "address_1": "Sudecka",
        "address_2": null,
        "address_3": null,
        "city": "\u0141omnica",
        "state_province": "dolno\u015bl\u0105skie",
        "postal_code": "58-340",
        "country": "Poland",
        "longitude": "16.3447144",
        "latitude": "50.6793293",
        "phone": null,
        "website_url": null,
        "state": "dolno\u015bl\u0105skie",
        "street": "Sudecka"
    },
    {
        "id": "fc9e541f-a40c-4e2c-bc42-561194e654d7",
        "name": "MAP Brewing Company",
        "brewery_type": "brewpub",
        "address_1": "510 Manley Rd",
        "address_2": null,
        "address_3": null,
        "city": "Bozeman",
        "state_province": "Montana",
        "postal_code": "59715-8784",
        "country": "United States",
        "longitude": "-111.0400807",
        "latitude": "45.7033199",
        "phone": "4065874070",
        "website_url": "http://www.mapbrewing.com",
        "state": "Montana",
        "street": "510 Manley Rd"
    },
    {
        "id": "d140a6a7-8618-4302-b7ca-d55880904a84",
        "name": "Maple Branch Craft Brewery",
        "brewery_type": "planning",
        "address_1": null,
        "address_2": null,
        "address_3": null,
        "city": "Fort Worth",
        "state_province": "Texas",
        "postal_code": "76133-1226",
        "country": "United States",
        "longitude": null,
        "latitude": null,
        "phone": "3149108854",
        "website_url": "https://www.maplebranchbrew.com/",
        "state": "Texas",
        "street": null
    },
    {
        "id": "c806e91b-2179-46f1-ab2c-390291ed7cba",
        "name": "Maple Island Brewing",
        "brewery_type": "micro",
        "address_1": "225 Main St N",
        "address_2": null,
        "address_3": null,
        "city": "Stillwater",
        "state_province": "Minnesota",
        "postal_code": "55082-5021",
        "country": "United States",
        "longitude": "-92.80653912",
        "latitude": "45.0577993",
        "phone": "6514300044",
        "website_url": "http://www.mapleislandbrewing.com",
        "state": "Minnesota",
        "street": "225 Main St N"
    },
    {
        "id": "2b99e526-9f10-4e4d-bbfc-5890c7e4e69c",
        "name": "Maple Lawn Brewery",
        "brewery_type": "micro",
        "address_1": "110 Mulberry Ave",
        "address_2": null,
        "address_3": null,
        "city": "Pomeroy",
        "state_province": "Ohio",
        "postal_code": "45769-1004",
        "country": "United States",
        "longitude": "-82.034268",
        "latitude": "39.027513",
        "phone": "7406915018",
        "website_url": "http://www.maplelawnbrew.com",
        "state": "Ohio",
        "street": "110 Mulberry Ave"
    },
    {
        "id": "a1a02e31-20d5-47dc-8a57-607f4b6d77e4",
        "name": "Maplewood Brewing Company",
        "brewery_type": "micro",
        "address_1": "2717 N Maplewood Ave",
        "address_2": null,
        "address_3": null,
        "city": "Chicago",
        "state_province": "Illinois",
        "postal_code": "60647-1930",
        "country": "United States",
        "longitude": "-87.69106414",
        "latitude": "41.93075205",
        "phone": "7732701061",
        "website_url": "http://www.maplewoodbrew.com",
        "state": "Illinois",
        "street": "2717 N Maplewood Ave"
    },
    {
        "id": "45a4d916-2bc4-4e46-8d7a-d7e994f0d3fb",
        "name": "Marble Brewery - Mav Lab",
        "brewery_type": "micro",
        "address_1": "9904 Montgomery Blvd NE",
        "address_2": null,
        "address_3": null,
        "city": "Albuquerque",
        "state_province": "New Mexico",
        "postal_code": "87111-3554",
        "country": "United States",
        "longitude": "-106.5308452",
        "latitude": "35.13056812",
        "phone": "5053234030",
        "website_url": null,
        "state": "New Mexico",
        "street": "9904 Montgomery Blvd NE"
    },
    {
        "id": "90ecf47b-00b7-4b34-8ce3-2a704d6eddd6",
        "name": "Marble Brewery - Production",
        "brewery_type": "regional",
        "address_1": "111 Marble Ave NW",
        "address_2": null,
        "address_3": null,
        "city": "Albuquerque",
        "state_province": "New Mexico",
        "postal_code": "87102-2315",
        "country": "United States",
        "longitude": "-106.6467287",
        "latitude": "35.0928224",
        "phone": "5052432739",
        "website_url": "http://www.marblebrewery.com",
        "state": "New Mexico",
        "street": "111 Marble Ave NW"
    },
    {
        "id": "2f2409c0-09db-4b7b-b68d-4eb5076226bc",
        "name": "Marblehead Brewing Company",
        "brewery_type": "micro",
        "address_1": "124 Pleasant St",
        "address_2": null,
        "address_3": null,
        "city": "Marblehead",
        "state_province": "Massachusetts",
        "postal_code": "01945",
        "country": "United States",
        "longitude": "-70.8573661",
        "latitude": "42.50125386",
        "phone": "7817970211",
        "website_url": "http://www.marbleheadbrewing.co",
        "state": "Massachusetts",
        "street": "124 Pleasant St"
    },
    {
        "id": "8acae3ab-9840-4619-9f8b-873d262ff38e",
        "name": "March First Brewing",
        "brewery_type": "brewpub",
        "address_1": "7885 E Kemper Rd",
        "address_2": null,
        "address_3": null,
        "city": "Cincinnati",
        "state_province": "Ohio",
        "postal_code": "45249-1622",
        "country": "United States",
        "longitude": null,
        "latitude": null,
        "phone": "5135620759",
        "website_url": "http://www.marchfirstbrewing.com",
        "state": "Ohio",
        "street": "7885 E Kemper Rd"
    },
    {
        "id": "efb2d5d8-8c2c-4e53-adec-156c22f79eed",
        "name": "March Hare Brewing",
        "brewery_type": "planning",
        "address_1": null,
        "address_2": null,
        "address_3": null,
        "city": "Parker",
        "state_province": "Colorado",
        "postal_code": "80134-3627",
        "country": "United States",
        "longitude": null,
        "latitude": null,
        "phone": "3039606020",
        "website_url": null,
        "state": "Colorado",
        "street": null
    },
    {
        "id": "c440f494-5670-4510-9624-d1707fa1e2b7",
        "name": "Mare Island Brewing Co.",
        "brewery_type": "brewpub",
        "address_1": "289 Mare Island Way",
        "address_2": null,
        "address_3": null,
        "city": "Vallejo",
        "state_province": "California",
        "postal_code": "94590-5801",
        "country": "United States",
        "longitude": "-122.2631011",
        "latitude": "38.0998706",
        "phone": "7075563000",
        "website_url": "http://www.mareislandbrewingco.com",
        "state": "California",
        "street": "289 Mare Island Way"
    },
    {
        "id": "6ec5c9d0-34df-4a2e-b041-ff956ce3d98a",
        "name": "Marietta Brewing Co",
        "brewery_type": "brewpub",
        "address_1": "167 Front St",
        "address_2": null,
        "address_3": null,
        "city": "Marietta",
        "state_province": "Ohio",
        "postal_code": "45750-3125",
        "country": "United States",
        "longitude": "-81.45339993",
        "latitude": "39.41184635",
        "phone": "7403732739",
        "website_url": "http://www.mariettabrewingcompany.com",
        "state": "Ohio",
        "street": "167 Front St"
    },
    {
        "id": "36d25eb4-d6b7-4783-bce1-568b5839f402",
        "name": "Marin Brewing Co",
        "brewery_type": "brewpub",
        "address_1": "1809 Larkspur Landing Cir",
        "address_2": null,
        "address_3": null,
        "city": "Larkspur",
        "state_province": "California",
        "postal_code": "94939-1801",
        "country": "United States",
        "longitude": "-122.5068874",
        "latitude": "37.9458177",
        "phone": "4154614677",
        "website_url": "http://www.marinbrewing.com",
        "state": "California",
        "street": "1809 Larkspur Landing Cir"
    },
    {
        "id": "f2e26a12-0265-4335-91fe-c04f7035ee4b",
        "name": "Maritime Pacific Brewing Co",
        "brewery_type": "micro",
        "address_1": "1111 NW Ballard Way",
        "address_2": null,
        "address_3": null,
        "city": "Seattle",
        "state_province": "Washington",
        "postal_code": "98107-4639",
        "country": "United States",
        "longitude": "-122.371641",
        "latitude": "47.66347198",
        "phone": "2067826181",
        "website_url": "http://www.maritimebrewery.com",
        "state": "Washington",
        "street": "1111 NW Ballard Way"
    },
    {
        "id": "e9673697-3229-45ee-bab1-6889e63ccffe",
        "name": "Mark Twain Brewing Company",
        "brewery_type": "brewpub",
        "address_1": "422 N Main St",
        "address_2": null,
        "address_3": null,
        "city": "Hannibal",
        "state_province": "Missouri",
        "postal_code": "63401-3324",
        "country": "United States",
        "longitude": "-91.35744225",
        "latitude": "39.71293685",
        "phone": "5734061300",
        "website_url": "http://www.marktwainbrewery.com",
        "state": "Missouri",
        "street": "422 N Main St"
    },
    {
        "id": "1cf8e00c-e42d-428a-8be5-d8fdfeccc21e",
        "name": "Marker 48 Brewing LLC",
        "brewery_type": "micro",
        "address_1": "12147 Cortez Blvd",
        "address_2": null,
        "address_3": null,
        "city": "Brooksville",
        "state_province": "Florida",
        "postal_code": "34613-5551",
        "country": "United States",
        "longitude": "-82.4012824",
        "latitude": "28.5396995",
        "phone": "3526062509",
        "website_url": "http://www.marker48.com",
        "state": "Florida",
        "street": "12147 Cortez Blvd"
    },
    {
        "id": "c87c9776-065c-4ce0-8042-9113c7995915",
        "name": "Market Cross Pub & Brewery",
        "brewery_type": "micro",
        "address_1": "113 N Hanover St",
        "address_2": null,
        "address_3": null,
        "city": "Carlisle",
        "state_province": "Pennsylvania",
        "postal_code": "17013-2422",
        "country": "United States",
        "longitude": "-77.18872886",
        "latitude": "40.20335743",
        "phone": "7172581234",
        "website_url": "http://www.marketcrosspub.com",
        "state": "Pennsylvania",
        "street": "113 N Hanover St"
    },
    {
        "id": "cbff0c83-0ea9-4114-bb4c-96d372c21365",
        "name": "Market Garden Brewery",
        "brewery_type": "micro",
        "address_1": "1849 W 24th St",
        "address_2": null,
        "address_3": null,
        "city": "Cleveland",
        "state_province": "Ohio",
        "postal_code": "44113",
        "country": "United States",
        "longitude": "-81.70272815",
        "latitude": "41.48573746",
        "phone": "2166214000",
        "website_url": null,
        "state": "Ohio",
        "street": "1849 W 24th St"
    },
    {
        "id": "2634ae09-4e13-4aa7-b0f1-dfcecf935a42",
        "name": "Market Garden Brewery",
        "brewery_type": "micro",
        "address_1": "1947 W 25th St",
        "address_2": null,
        "address_3": null,
        "city": "Cleveland",
        "state_province": "Ohio",
        "postal_code": "44113-3418",
        "country": "United States",
        "longitude": "-81.7036495",
        "latitude": "41.4848964",
        "phone": "2166214000",
        "website_url": "http://www.marketgardenbrewery.com",
        "state": "Ohio",
        "street": "1947 W 25th St"
    },
    {
        "id": "d14e2dee-999d-4983-a9cd-5d74d35af35b",
        "name": "Market Street Brewing Co",
        "brewery_type": "brewpub",
        "address_1": "63 W Market St # 65",
        "address_2": null,
        "address_3": null,
        "city": "Corning",
        "state_province": "New York",
        "postal_code": "14830-2526",
        "country": "United States",
        "longitude": "-77.0571571",
        "latitude": "42.143984",
        "phone": "6079362337",
        "website_url": "http://www.936-beer.com",
        "state": "New York",
        "street": "63 W Market St # 65"
    },
    {
        "id": "db1b4d4d-31e9-468d-8fae-2c033f6fcbe4",
        "name": "Market Street Public House",
        "brewery_type": "brewpub",
        "address_1": "200 Market St",
        "address_2": null,
        "address_3": null,
        "city": "Denton",
        "state_province": "Maryland",
        "postal_code": "21629-1037",
        "country": "United States",
        "longitude": "-75.831804",
        "latitude": "38.886037",
        "phone": "4104794720",
        "website_url": "http://www.marketstreet.pub",
        "state": "Maryland",
        "street": "200 Market St"
    },
    {
        "id": "e8c1c4c5-6835-418a-af97-d85a7e73335f",
        "name": "Marley's Brewery",
        "brewery_type": "brewpub",
        "address_1": "1323 Columbia Blvd",
        "address_2": null,
        "address_3": null,
        "city": "Bloomsburg",
        "state_province": "Pennsylvania",
        "postal_code": "17815-8860",
        "country": "United States",
        "longitude": "-76.4477386",
        "latitude": "41.0013964",
        "phone": "5707849600",
        "website_url": "http://www.marleysbrewery.com",
        "state": "Pennsylvania",
        "street": "1323 Columbia Blvd"
    },
    {
        "id": "05330622-853a-411b-8e86-a8c167bf58ae",
        "name": "Marsh Island Brewing Company",
        "brewery_type": "micro",
        "address_1": "2 Main St",
        "address_2": null,
        "address_3": null,
        "city": "Orono",
        "state_province": "Maine",
        "postal_code": "04473-4004",
        "country": "United States",
        "longitude": "-68.671416",
        "latitude": "44.884496",
        "phone": "2078661277",
        "website_url": "http://www.marshislandbrewing.com",
        "state": "Maine",
        "street": "2 Main St"
    },
    {
        "id": "3abc62ca-39c8-4fb3-a9bd-9bc343bf5ea2",
        "name": "Marshall Brewing Co, LLC",
        "brewery_type": "micro",
        "address_1": "1742 E 6th St",
        "address_2": null,
        "address_3": null,
        "city": "Tulsa",
        "state_province": "Oklahoma",
        "postal_code": "74104",
        "country": "United States",
        "longitude": "-95.9650788",
        "latitude": "36.1516146",
        "phone": "9182928781",
        "website_url": "http://www.marshallbrewing.com",
        "state": "Oklahoma",
        "street": "1742 E 6th St"
    },
    {
        "id": "f4fee96e-e540-44f0-9e7a-177758d1f2ec",
        "name": "Marshall Wharf Brewing Co",
        "brewery_type": "micro",
        "address_1": "40 Marshall Wharf",
        "address_2": null,
        "address_3": null,
        "city": "Belfast",
        "state_province": "Maine",
        "postal_code": "04915-6835",
        "country": "United States",
        "longitude": null,
        "latitude": null,
        "phone": "2073381707",
        "website_url": "http://www.marshallwharf.com",
        "state": "Maine",
        "street": "40 Marshall Wharf"
    },
    {
        "id": "40add606-afd1-430a-b274-2af693e0e5aa",
        "name": "Martha's Exchange Restaurant and Brewery",
        "brewery_type": "brewpub",
        "address_1": "185 Main St",
        "address_2": null,
        "address_3": null,
        "city": "Nashua",
        "state_province": "New Hampshire",
        "postal_code": "03060-2701",
        "country": "United States",
        "longitude": "-71.46548181",
        "latitude": "42.7604446",
        "phone": "6038838781",
        "website_url": "http://www.marthas-exchange.com",
        "state": "New Hampshire",
        "street": "185 Main St"
    },
    {
        "id": "1c357f75-dc18-43cf-bcc4-45e1089b6086",
        "name": "Martin City Brewing Company",
        "brewery_type": "micro",
        "address_1": "500 E 135th St",
        "address_2": null,
        "address_3": null,
        "city": "Kansas City",
        "state_province": "Missouri",
        "postal_code": "64145-1672",
        "country": "United States",
        "longitude": "-94.590214",
        "latitude": "38.882691",
        "phone": "8162682222",
        "website_url": "http://www.martincitybrewing.com",
        "state": "Missouri",
        "street": "500 E 135th St"
    },
    {
        "id": "e64276ac-2aa7-404a-a538-212734a0eb84",
        "name": "Martin City Brewing Company Pizza and Taproom",
        "brewery_type": "brewpub",
        "address_1": "354 SW Blue Pkwy",
        "address_2": null,
        "address_3": null,
        "city": "Lees Summit",
        "state_province": "Missouri",
        "postal_code": "64063",
        "country": "United States",
        "longitude": "-94.388546",
        "latitude": "38.916883",
        "phone": "8164345100",
        "website_url": "http://www.martincitybrewingcompany.com",
        "state": "Missouri",
        "street": "354 SW Blue Pkwy"
    },
    {
        "id": "90ea9a74-74a3-46b7-bada-c336227ef480",
        "name": "Martin House Brewing Company",
        "brewery_type": "micro",
        "address_1": "220 S Sylvania Ave Ste 209",
        "address_2": null,
        "address_3": null,
        "city": "Fort Worth",
        "state_province": "Texas",
        "postal_code": "76111-2232",
        "country": "United States",
        "longitude": null,
        "latitude": null,
        "phone": "8172220177",
        "website_url": "http://www.martinhousebrewing.com",
        "state": "Texas",
        "street": "220 S Sylvania Ave Ste 209"
    },
    {
        "id": "a74e31ee-d113-4a2b-9daf-5d1c6a06aefb",
        "name": "Marz Community Brewing",
        "brewery_type": "proprietor",
        "address_1": "3630 S Iron St",
        "address_2": null,
        "address_3": null,
        "city": "Chicago",
        "state_province": "Illinois",
        "postal_code": "60609",
        "country": "United States",
        "longitude": "-87.6595253",
        "latitude": "41.827819",
        "phone": null,
        "website_url": "http://www.marzbrewing.com",
        "state": "Illinois",
        "street": "3630 S Iron St"
    },
    {
        "id": "d73817c1-57a4-403a-89d4-00533aecf05d",
        "name": "Marzoni's Brick Oven and Brewery",
        "brewery_type": "brewpub",
        "address_1": "165 Patch Way Rd",
        "address_2": null,
        "address_3": null,
        "city": "Duncansville",
        "state_province": "Pennsylvania",
        "postal_code": "16635-8431",
        "country": "United States",
        "longitude": null,
        "latitude": null,
        "phone": "8146951300",
        "website_url": "http://www.marzonis.com",
        "state": "Pennsylvania",
        "street": "165 Patch Way Rd"
    },
    {
        "id": "e5f2a11d-9da7-40ad-b4c1-7ec2da6c7083",
        "name": "Mascher Brewing Co.",
        "brewery_type": "planning",
        "address_1": null,
        "address_2": null,
        "address_3": null,
        "city": "Aurora",
        "state_province": "Colorado",
        "postal_code": "80014-8226",
        "country": "United States",
        "longitude": null,
        "latitude": null,
        "phone": "8329482020",
        "website_url": "http://www.mascher.beer/",
        "state": "Colorado",
        "street": null
    },
    {
        "id": "57d8c1a8-2932-4735-88d1-eba02bd05e4e",
        "name": "Mash Brewing Company",
        "brewery_type": "closed",
        "address_1": "122 N George St",
        "address_2": null,
        "address_3": null,
        "city": "Charles Town",
        "state_province": "West Virginia",
        "postal_code": "25414-1502",
        "country": "United States",
        "longitude": "-77.86015133",
        "latitude": "39.28926882",
        "phone": "6812521788",
        "website_url": "http://www.mashbrewingcompany.com",
        "state": "West Virginia",
        "street": "122 N George St"
    },
    {
        "id": "43d60f58-3534-41f2-b65c-905f8dd67ca4",
        "name": "Mash Cult Brewing",
        "brewery_type": "micro",
        "address_1": "6823 Burlington Pike",
        "address_2": null,
        "address_3": null,
        "city": "Florence",
        "state_province": "Kentucky",
        "postal_code": "41042-1616",
        "country": "United States",
        "longitude": "-84.6436665",
        "latitude": "39.0008541",
        "phone": "8593714466",
        "website_url": null,
        "state": "Kentucky",
        "street": "6823 Burlington Pike"
    },
    {
        "id": "b41d9c2b-b22e-4744-acdc-6ab0c5ca383f",
        "name": "Mash House Restaurant & Brewery",
        "brewery_type": "brewpub",
        "address_1": "4150 Sycamore Dairy Rd",
        "address_2": null,
        "address_3": null,
        "city": "Fayetteville",
        "state_province": "North Carolina",
        "postal_code": "28303-3459",
        "country": "United States",
        "longitude": "-78.95654831",
        "latitude": "35.07468171",
        "phone": "9108679223",
        "website_url": "http://www.themashhouse.com",
        "state": "North Carolina",
        "street": "4150 Sycamore Dairy Rd"
    },
    {
        "id": "24ca52df-8487-4992-aaa9-f5e36a3f5297",
        "name": "Mash Lab Brewing",
        "brewery_type": "micro",
        "address_1": "4395 Highland Meadows Pkwy",
        "address_2": null,
        "address_3": null,
        "city": "Windsor",
        "state_province": "Colorado",
        "postal_code": "80550-8007",
        "country": "United States",
        "longitude": "-104.9677936",
        "latitude": "40.4386998",
        "phone": "9702629225",
        "website_url": "http://www.mashlabbrewing.com",
        "state": "Colorado",
        "street": "4395 Highland Meadows Pkwy"
    },
    {
        "id": "6eda5cd6-c8c7-4297-bd3f-b3e9aa2013a0",
        "name": "Mash Monkeys Brewing Company",
        "brewery_type": "micro",
        "address_1": "920 U.S. Highway 1 Unit 1",
        "address_2": null,
        "address_3": null,
        "city": "Sebastian",
        "state_province": "Florida",
        "postal_code": "32958",
        "country": "United States",
        "longitude": null,
        "latitude": null,
        "phone": "7725716283",
        "website_url": "http://Www.mashmonkeysbrewing.com",
        "state": "Florida",
        "street": "920 U.S. Highway 1 Unit 1"
    },
    {
        "id": "5e5efe9d-03bb-44f0-838e-b8e0cd2c99a2",
        "name": "MashCraft Brewing",
        "brewery_type": "micro",
        "address_1": "1140 N State Road 135 Ste M",
        "address_2": null,
        "address_3": null,
        "city": "Greenwood",
        "state_province": "Indiana",
        "postal_code": "46142-1016",
        "country": "United States",
        "longitude": null,
        "latitude": null,
        "phone": "3172154578",
        "website_url": "http://www.mashcraft.com",
        "state": "Indiana",
        "street": "1140 N State Road 135 Ste M"
    },
    {
        "id": "c816f568-d053-473a-8820-fa7cf9b8fa7f",
        "name": "Mason Ale Works",
        "brewery_type": "micro",
        "address_1": "2002 S Coast Hwy",
        "address_2": null,
        "address_3": null,
        "city": "Oceanside",
        "state_province": "California",
        "postal_code": "92054-6535",
        "country": "United States",
        "longitude": "-117.358767",
        "latitude": "33.171842",
        "phone": "8583958809",
        "website_url": "http://www.masonaleworks.com",
        "state": "California",
        "street": "2002 S Coast Hwy"
    },
    {
        "id": "c73bb5c8-f1cc-4554-9b58-9878ce1c8554",
        "name": "Mason City Brewing",
        "brewery_type": "micro",
        "address_1": "28 E State St",
        "address_2": null,
        "address_3": null,
        "city": "Mason City",
        "state_province": "Iowa",
        "postal_code": "50401-3318",
        "country": "United States",
        "longitude": "-93.20033373",
        "latitude": "43.15160788",
        "phone": "6414231080",
        "website_url": "http://www.masoncitybrewing.com",
        "state": "Iowa",
        "street": "28 E State St"
    },
    {
        "id": "7ed9bc5e-2062-476c-810f-8c5a9833df9d",
        "name": "Mason Jar Lager Co.",
        "brewery_type": "micro",
        "address_1": "341 Broad St # 151",
        "address_2": null,
        "address_3": null,
        "city": "Fuquay Varina",
        "state_province": "North Carolina",
        "postal_code": "27526-1703",
        "country": "United States",
        "longitude": "-78.8026696",
        "latitude": "35.6015909",
        "phone": "9195575303",
        "website_url": "http://www.masonjarlagerco.com",
        "state": "North Carolina",
        "street": "341 Broad St # 151"
    },
    {
        "id": "4b1d8776-79c5-40c4-9baf-a6ba63f9ba2a",
        "name": "Mason's Brewing Company",
        "brewery_type": "micro",
        "address_1": "15 Hardy St",
        "address_2": null,
        "address_3": null,
        "city": "Brewer",
        "state_province": "Maine",
        "postal_code": "04412-2207",
        "country": "United States",
        "longitude": "-68.76957092",
        "latitude": "44.79146596",
        "phone": "2079896300",
        "website_url": "http://www.masonsbrewingcompany.com",
        "state": "Maine",
        "street": "15 Hardy St"
    },
    {
        "id": "d124427e-32a9-4946-a033-6fe93b09d6d8",
        "name": "Mast Landing Brewing Company",
        "brewery_type": "micro",
        "address_1": "920 Main St",
        "address_2": null,
        "address_3": null,
        "city": "Westbrook",
        "state_province": "Maine",
        "postal_code": "04092-2862",
        "country": "United States",
        "longitude": "-70.36920486",
        "latitude": "43.676947",
        "phone": "2077126051",
        "website_url": "http://www.mastlandingbrewing.com",
        "state": "Maine",
        "street": "920 Main St"
    },
    {
        "id": "c4ef8974-6ae8-43c3-9e51-01f8e0317622",
        "name": "Masters BrewHouse",
        "brewery_type": "brewpub",
        "address_1": "831 S Main St Suite M",
        "address_2": null,
        "address_3": null,
        "city": "Deer Park",
        "state_province": "Washington",
        "postal_code": "99006",
        "country": "United States",
        "longitude": "-117.4756027",
        "latitude": "47.94576147",
        "phone": "5096353508",
        "website_url": "https://deerparkcraftbeer.com",
        "state": "Washington",
        "street": "831 S Main St Suite M"
    },
    {
        "id": "cefd9035-5695-4a1e-97bb-8d449468797a",
        "name": "Masthead Brewing Co",
        "brewery_type": "brewpub",
        "address_1": "1261 Superior Ave E",
        "address_2": null,
        "address_3": null,
        "city": "Cleveland",
        "state_province": "Ohio",
        "postal_code": "44114-3204",
        "country": "United States",
        "longitude": "-81.6853889",
        "latitude": "41.5041432",
        "phone": "4192604770",
        "website_url": "http://www.mastheadbrewingco.com",
        "state": "Ohio",
        "street": "1261 Superior Ave E"
    },
    {
        "id": "8342cc4f-2867-423c-be9c-5384b7e8a3f7",
        "name": "Mastiff Brewery",
        "brewery_type": "planning",
        "address_1": null,
        "address_2": null,
        "address_3": null,
        "city": "Middle River",
        "state_province": "Maryland",
        "postal_code": "21220-2818",
        "country": "United States",
        "longitude": null,
        "latitude": null,
        "phone": "3023127011",
        "website_url": null,
        "state": "Maryland",
        "street": null
    },
    {
        "id": "95ace274-f4ca-4490-a5f3-0f5e68930f84",
        "name": "Mastry's Brewing Co",
        "brewery_type": "micro",
        "address_1": "7701 Blind Pass Rd",
        "address_2": null,
        "address_3": null,
        "city": "St Pete Beach",
        "state_province": "Florida",
        "postal_code": "33706-1726",
        "country": "United States",
        "longitude": "-82.751357",
        "latitude": "27.74434",
        "phone": "7272028045",
        "website_url": "http://www.mastrysbrewingco.com",
        "state": "Florida",
        "street": "7701 Blind Pass Rd"
    },
    {
        "id": "304126ea-a12e-4685-9e26-be36742f8d64",
        "name": "Matanuska Brewing Company - Downtown Brewpub",
        "brewery_type": "brewpub",
        "address_1": "535 W 3rd Ave",
        "address_2": null,
        "address_3": null,
        "city": "Anchorage",
        "state_province": "Alaska",
        "postal_code": "99501",
        "country": "United States",
        "longitude": "-149.893012",
        "latitude": "61.219744",
        "phone": "9078656995",
        "website_url": "https://matanuskabrewingcompany.com",
        "state": "Alaska",
        "street": "535 W 3rd Ave"
    },
    {
        "id": "3fba9614-8dae-420b-b024-4f0387278a64",
        "name": "Matanuska Brewing Company - Eagle River",
        "brewery_type": "brewpub",
        "address_1": "11901 Old Glenn Hwy",
        "address_2": null,
        "address_3": null,
        "city": "Eagle River",
        "state_province": "Alaska",
        "postal_code": "99577",
        "country": "United States",
        "longitude": "-149.568403",
        "latitude": "61.328403",
        "phone": "9076963000",
        "website_url": "https://matanuskabrewingcompany.com",
        "state": "Alaska",
        "street": "11901 Old Glenn Hwy"
    },
    {
        "id": "3515eba4-8e81-4e9a-924d-a9b03ffe0072",
        "name": "Matanuska Brewing Company - Midtown Brewpub",
        "brewery_type": "brewpub",
        "address_1": "2830 C St",
        "address_2": null,
        "address_3": null,
        "city": "Anchorage",
        "state_province": "Alaska",
        "postal_code": "99503",
        "country": "United States",
        "longitude": "-149.888563",
        "latitude": "61.195228",
        "phone": "9076772531",
        "website_url": "https://matanuskabrewingcompany.com",
        "state": "Alaska",
        "street": "2830 C St"
    },
    {
        "id": "d9913c2c-03cb-435b-b091-3576446e23b9",
        "name": "Matchless Brewing",
        "brewery_type": "micro",
        "address_1": "8036 River Dr SE Ste 208",
        "address_2": null,
        "address_3": null,
        "city": "Tumwater",
        "state_province": "Washington",
        "postal_code": "98501-6814",
        "country": "United States",
        "longitude": "-122.884827",
        "latitude": "46.97137083",
        "phone": "5033173284",
        "website_url": "http://www.matchlessbrewing.com",
        "state": "Washington",
        "street": "8036 River Dr SE Ste 208"
    },
    {
        "id": "452434ec-1c9b-4167-a29c-ccb99ea7df05",
        "name": "Matchstick Brewing Company",
        "brewery_type": "closed",
        "address_1": null,
        "address_2": null,
        "address_3": null,
        "city": "Coeur D Alene",
        "state_province": "Idaho",
        "postal_code": "83815",
        "country": "United States",
        "longitude": null,
        "latitude": null,
        "phone": null,
        "website_url": "http://www.matchstickbrewing.com",
        "state": "Idaho",
        "street": null
    },
    {
        "id": "08bbf721-d074-4271-9878-b52d03e284df",
        "name": "Matchwood Brewing Company",
        "brewery_type": "brewpub",
        "address_1": "513 Oak St",
        "address_2": null,
        "address_3": null,
        "city": "Sandpoint",
        "state_province": "Idaho",
        "postal_code": "83864-3201",
        "country": "United States",
        "longitude": "-116.554588",
        "latitude": "48.277777",
        "phone": "2087182739",
        "website_url": "http://www.matchwoodbrewing.com",
        "state": "Idaho",
        "street": "513 Oak St"
    },
    {
        "id": "1dba5e88-52ec-4d47-a3aa-9d955b4374ea",
        "name": "Mathews Brewing Company",
        "brewery_type": "micro",
        "address_1": "130 S H St",
        "address_2": null,
        "address_3": null,
        "city": "Lake Worth",
        "state_province": "Florida",
        "postal_code": "33460-4431",
        "country": "United States",
        "longitude": "-80.05819245",
        "latitude": "26.6136144",
        "phone": "5618123738",
        "website_url": "http://www.mathewsbrewingcompany.com",
        "state": "Florida",
        "street": "130 S H St"
    },
    {
        "id": "0686cabe-b090-4b23-a821-2ae7c08c49c0",
        "name": "Matties",
        "brewery_type": "bar",
        "address_1": "2535 Mountain City Hwy",
        "address_2": null,
        "address_3": null,
        "city": "Elko",
        "state_province": "Nevada",
        "postal_code": "89801-4496",
        "country": "United States",
        "longitude": "-115.793393",
        "latitude": "40.836405",
        "phone": "7757535100",
        "website_url": "http://www.mattiesbar-n-grill.com/",
        "state": "Nevada",
        "street": "2535 Mountain City Hwy"
    },
    {
        "id": "a47e6f5c-22fb-4166-a10f-e5032764da84",
        "name": "Maui Brewing Co - Kihei",
        "brewery_type": "brewpub",
        "address_1": "605 Lipoa Pkwy",
        "address_2": null,
        "address_3": null,
        "city": "Kihei",
        "state_province": "Hawaii",
        "postal_code": "96753-6947",
        "country": "United States",
        "longitude": "-156.4402411",
        "latitude": "20.74961566",
        "phone": "8082133002",
        "website_url": "http://www.mauibrewingco.com",
        "state": "Hawaii",
        "street": "605 Lipoa Pkwy"
    },
    {
        "id": "1c2fd1ee-d81c-4408-a584-bbedc2a23c6e",
        "name": "Maui Brewing Co - Lahaina",
        "brewery_type": "brewpub",
        "address_1": "4405 Honoapiilani Hwy Ste 217",
        "address_2": null,
        "address_3": null,
        "city": "Lahaina",
        "state_province": "Hawaii",
        "postal_code": "96761-9272",
        "country": "United States",
        "longitude": "-156.653963",
        "latitude": "20.845329",
        "phone": "8086693474",
        "website_url": "http://www.mauibrewingco.com",
        "state": "Hawaii",
        "street": "4405 Honoapiilani Hwy Ste 217"
    },
    {
        "id": "4cfbbdc1-142e-4a66-8f3b-54bb830d2c20",
        "name": "Maui Brewing Co - Waikiki",
        "brewery_type": "brewpub",
        "address_1": "2300 Kalakua Ave",
        "address_2": null,
        "address_3": null,
        "city": "Honolulu",
        "state_province": "Hawaii",
        "postal_code": "96815",
        "country": "United States",
        "longitude": "-157.826624",
        "latitude": "21.278349",
        "phone": "8088432739",
        "website_url": "https://www.mauibrewingco.com",
        "state": "Hawaii",
        "street": "2300 Kalakua Ave"
    },
    {
        "id": "a1feb3da-eae6-4fa3-8972-73bb057798bc",
        "name": "Maumee Bay Brewing Co",
        "brewery_type": "brewpub",
        "address_1": "27 Broadway St Ste A",
        "address_2": null,
        "address_3": null,
        "city": "Toledo",
        "state_province": "Ohio",
        "postal_code": "43604-8701",
        "country": "United States",
        "longitude": null,
        "latitude": null,
        "phone": "4192431302",
        "website_url": "http://www.maumeebaybrewing.com",
        "state": "Ohio",
        "street": "27 Broadway St Ste A"
    },
    {
        "id": "10dcbe08-3216-43ef-bddc-1a5235bf68f1",
        "name": "Maverick Ales & Lager",
        "brewery_type": "planning",
        "address_1": null,
        "address_2": null,
        "address_3": null,
        "city": "Chicago",
        "state_province": "Illinois",
        "postal_code": "60612",
        "country": "United States",
        "longitude": null,
        "latitude": null,
        "phone": "4086051508",
        "website_url": "http://www.maverickbrews.com",
        "state": "Illinois",
        "street": null
    },
    {
        "id": "e85f0bf7-91b9-4f63-9b69-4b78f516e8cb",
        "name": "Max Lager's Wood Fired Grill & Brewery",
        "brewery_type": "brewpub",
        "address_1": "320 Peachtree St NE",
        "address_2": null,
        "address_3": null,
        "city": "Atlanta",
        "state_province": "Georgia",
        "postal_code": "30308-3210",
        "country": "United States",
        "longitude": "-84.38706074",
        "latitude": "33.76333225",
        "phone": "4045254400",
        "website_url": "http://www.maxlagers.com",
        "state": "Georgia",
        "street": "320 Peachtree St NE"
    },
    {
        "id": "240ea2c7-bc2c-46ee-97e3-ed35ac6ed31e",
        "name": "Max's Fanno Creek Brew Pub",
        "brewery_type": "brewpub",
        "address_1": "12562 SW Main St",
        "address_2": null,
        "address_3": null,
        "city": "Portland",
        "state_province": "Oregon",
        "postal_code": "97223-6195",
        "country": "United States",
        "longitude": "-122.6771146",
        "latitude": "45.5156226",
        "phone": "5036249400",
        "website_url": "http://www.maxsfannocreek.com",
        "state": "Oregon",
        "street": "12562 SW Main St"
    },
    {
        "id": "16a73b0d-7b12-4ba3-b43c-8d8e8e34489a",
        "name": "Maxline Brewing",
        "brewery_type": "micro",
        "address_1": "2724 McClelland Dr Ste 190",
        "address_2": null,
        "address_3": null,
        "city": "Fort Collins",
        "state_province": "Colorado",
        "postal_code": "80525-2575",
        "country": "United States",
        "longitude": "-105.0797489",
        "latitude": "40.55059012",
        "phone": "9702862855",
        "website_url": "http://www.maxlinebrewing.com",
        "state": "Colorado",
        "street": "2724 McClelland Dr Ste 190"
    },
    {
        "id": "b970c0b3-ce7a-4058-921a-e82f4678dfa3",
        "name": "Mayday Brewery",
        "brewery_type": "micro",
        "address_1": "521 Old Salem Rd Ste C",
        "address_2": null,
        "address_3": null,
        "city": "Murfreesboro",
        "state_province": "Tennessee",
        "postal_code": "37129-5305",
        "country": "United States",
        "longitude": null,
        "latitude": null,
        "phone": "6154799722",
        "website_url": "http://www.maydaybrewery.com",
        "state": "Tennessee",
        "street": "521 Old Salem Rd Ste C"
    },
    {
        "id": "7d7f31a3-8e08-4cfc-b929-c545b41eaa05",
        "name": "Mayflower Brewing Co",
        "brewery_type": "micro",
        "address_1": "12 Resnik Rd",
        "address_2": null,
        "address_3": null,
        "city": "Plymouth",
        "state_province": "Massachusetts",
        "postal_code": "02360-7245",
        "country": "United States",
        "longitude": "-70.71255496",
        "latitude": "41.94926024",
        "phone": "5087462674",
        "website_url": "http://www.mayflowerbrewing.com",
        "state": "Massachusetts",
        "street": "12 Resnik Rd"
    },
    {
        "id": "13b89410-7391-4eee-9f99-38184e513ca5",
        "name": "Mayhew Junction Brewing Company",
        "brewery_type": "micro",
        "address_1": "106 Eckford Dr",
        "address_2": null,
        "address_3": null,
        "city": "Starkville",
        "state_province": "Mississippi",
        "postal_code": "39759-3710",
        "country": "United States",
        "longitude": null,
        "latitude": null,
        "phone": "6625460510",
        "website_url": "http://www.mayhewjunction.com",
        "state": "Mississippi",
        "street": "106 Eckford Dr"
    },
    {
        "id": "c3b2d49e-ba21-4142-9854-a0b49b739720",
        "name": "Mazama Brewing Co",
        "brewery_type": "micro",
        "address_1": "33930 SE Eastgate Cir Unit A",
        "address_2": null,
        "address_3": null,
        "city": "Corvallis",
        "state_province": "Oregon",
        "postal_code": "97333-2272",
        "country": "United States",
        "longitude": "-123.226008",
        "latitude": "44.56360936",
        "phone": "15412301810",
        "website_url": "http://www.mazamabrewing.com",
        "state": "Oregon",
        "street": "33930 SE Eastgate Cir Unit A"
    },
    {
        "id": "70972189-e029-4a8e-ba79-da86b66ba67e",
        "name": "MBF Brewing Co",
        "brewery_type": "closed",
        "address_1": "530 W 7th St Apt 401",
        "address_2": null,
        "address_3": null,
        "city": "Los Angeles",
        "state_province": "California",
        "postal_code": "90014-2507",
        "country": "United States",
        "longitude": "-118.2564646",
        "latitude": "34.04700723",
        "phone": "8315217921",
        "website_url": "http://www.MBFcompany.com",
        "state": "California",
        "street": "530 W 7th St Apt 401"
    },
    {
        "id": "c3e7b965-dfce-4765-9d5b-dd2d49b28e7a",
        "name": "McArthur's Brew House",
        "brewery_type": "micro",
        "address_1": "2721 Front St",
        "address_2": null,
        "address_3": null,
        "city": "Cuyahoga Falls",
        "state_province": "Ohio",
        "postal_code": "44221-1904",
        "country": "United States",
        "longitude": "-81.47237058",
        "latitude": "41.14618347",
        "phone": "3308054600",
        "website_url": "http://www.mcarthursbrewhouse.com",
        "state": "Ohio",
        "street": "2721 Front St"
    },
    {
        "id": "f46a3893-14c5-4830-ac6b-63510cc8429d",
        "name": "McCall Brewing Co",
        "brewery_type": "brewpub",
        "address_1": "807 N 3rd St",
        "address_2": null,
        "address_3": null,
        "city": "McCall",
        "state_province": "Idaho",
        "postal_code": "83638-3806",
        "country": "United States",
        "longitude": "-116.097991",
        "latitude": "44.904411",
        "phone": "2086343309",
        "website_url": "http://www.mccallbrew.com",
        "state": "Idaho",
        "street": "807 N 3rd St"
    },
    {
        "id": "8938798a-3cd6-4864-96a9-e6febf1b25be",
        "name": "McClellan's Brewing Company",
        "brewery_type": "brewpub",
        "address_1": "1035 S Taft Hill Rd",
        "address_2": null,
        "address_3": null,
        "city": "Fort Collins",
        "state_province": "Colorado",
        "postal_code": "80521-4222",
        "country": "United States",
        "longitude": "-105.1151806",
        "latitude": "40.5737952",
        "phone": "9705688473",
        "website_url": "http://www.mcclellansbrewingcompany.com",
        "state": "Colorado",
        "street": "1035 S Taft Hill Rd"
    },
    {
        "id": "771010b0-2631-49c3-8821-034588bfbc7a",
        "name": "McCoy's Public House",
        "brewery_type": "closed",
        "address_1": "4057 Pennsylvania Ave",
        "address_2": null,
        "address_3": null,
        "city": "Kansas City",
        "state_province": "Missouri",
        "postal_code": "64111-3021",
        "country": "United States",
        "longitude": "-94.5911729",
        "latitude": "39.1002989",
        "phone": "8169600866",
        "website_url": "http://www.mccoyspublichouse.com",
        "state": "Missouri",
        "street": "4057 Pennsylvania Ave"
    },
    {
        "id": "c2b0f72c-c305-40b5-919e-19f7542f6609",
        "name": "McFate Brewing Company",
        "brewery_type": "brewpub",
        "address_1": "1312 N Scottsdale Rd",
        "address_2": null,
        "address_3": null,
        "city": "Scottsdale",
        "state_province": "Arizona",
        "postal_code": "85257-3488",
        "country": "United States",
        "longitude": "-111.9254955",
        "latitude": "33.658427",
        "phone": "4806569100",
        "website_url": "http://mcfatebrewing.com",
        "state": "Arizona",
        "street": "1312 N Scottsdale Rd"
    },
    {
        "id": "fb49a213-fa62-4889-acae-1146f3afc238",
        "name": "McFate's Tap + Barrel",
        "brewery_type": "brewpub",
        "address_1": "7337 E Shea Blvd Ste 105",
        "address_2": null,
        "address_3": null,
        "city": "Scottsdale",
        "state_province": "Arizona",
        "postal_code": "85260-6465",
        "country": "United States",
        "longitude": null,
        "latitude": null,
        "phone": "4809941275",
        "website_url": "http://www.fatebrewing.com",
        "state": "Arizona",
        "street": "7337 E Shea Blvd Ste 105"
    },
    {
        "id": "76768b9c-de50-4f63-a69a-2188a21fda51",
        "name": "McFleshman's Public House",
        "brewery_type": "planning",
        "address_1": null,
        "address_2": null,
        "address_3": null,
        "city": "Appleton",
        "state_province": "Wisconsin",
        "postal_code": "54911-5840",
        "country": "United States",
        "longitude": null,
        "latitude": null,
        "phone": "4056270167",
        "website_url": "http://www.mcfleshmans.com",
        "state": "Wisconsin",
        "street": null
    },
    {
        "id": "8df1dd63-af4f-4173-805a-3c1c22a4df2d",
        "name": "McGuire's Irish Pub and Brewery - Destin",
        "brewery_type": "brewpub",
        "address_1": "33 Highway 98 E",
        "address_2": null,
        "address_3": null,
        "city": "Destin",
        "state_province": "Florida",
        "postal_code": "32541-2309",
        "country": "United States",
        "longitude": null,
        "latitude": null,
        "phone": "8506540567",
        "website_url": "http://www.mcguiresirishpub.com",
        "state": "Florida",
        "street": "33 Highway 98 E"
    },
    {
        "id": "b29d754c-ba72-49ec-a6e7-d1cf054ebe17",
        "name": "McGuire's Irish Pub and Brewery - Pensacola",
        "brewery_type": "brewpub",
        "address_1": "600 E Gregory St",
        "address_2": null,
        "address_3": null,
        "city": "Pensacola",
        "state_province": "Florida",
        "postal_code": "32502-4153",
        "country": "United States",
        "longitude": "-87.2024655",
        "latitude": "30.4180618",
        "phone": "8504336789",
        "website_url": "http://www.mcguiresirishpub.com",
        "state": "Florida",
        "street": "600 E Gregory St"
    },
    {
        "id": "7edb5d33-d3af-4dc6-964f-6f90bd7e7908",
        "name": "McHale's Brewhouse",
        "brewery_type": "brewpub",
        "address_1": "724 Ashland Ter",
        "address_2": null,
        "address_3": null,
        "city": "Chattanooga",
        "state_province": "Tennessee",
        "postal_code": "37415-3536",
        "country": "United States",
        "longitude": "-85.27573976",
        "latitude": "35.11640583",
        "phone": "4238772124",
        "website_url": "http://www.mchalesbrewhouse.com",
        "state": "Tennessee",
        "street": "724 Ashland Ter"
    },
    {
        "id": "2b9e1914-2432-418d-972d-78ccdff2072b",
        "name": "McHenry Brewing Company",
        "brewery_type": "planning",
        "address_1": null,
        "address_2": null,
        "address_3": null,
        "city": "McHenry",
        "state_province": "Illinois",
        "postal_code": "60050",
        "country": "United States",
        "longitude": null,
        "latitude": null,
        "phone": "8154032212",
        "website_url": null,
        "state": "Illinois",
        "street": null
    },
    {
        "id": "0e6bc707-ecba-4651-852f-45f698a1bceb",
        "name": "McIntosh Orchards",
        "brewery_type": "micro",
        "address_1": "6431 107th Ave",
        "address_2": null,
        "address_3": null,
        "city": "South Haven",
        "state_province": "Michigan",
        "postal_code": "49090-9369",
        "country": "United States",
        "longitude": null,
        "latitude": null,
        "phone": "7078783734",
        "website_url": "http://www.mcintoshorchards.com",
        "state": "Michigan",
        "street": "6431 107th Ave"
    },
    {
        "id": "d1ae1dec-b5f2-493d-bfc0-409d8d4f3101",
        "name": "McIntyre Brewing Company",
        "brewery_type": "planning",
        "address_1": null,
        "address_2": null,
        "address_3": null,
        "city": "Hermitage",
        "state_province": "Tennessee",
        "postal_code": "37076",
        "country": "United States",
        "longitude": null,
        "latitude": null,
        "phone": "4065291183",
        "website_url": "http://www.mcintyrebrew.com",
        "state": "Tennessee",
        "street": null
    },
    {
        "id": "45366282-0e7e-44ba-9aac-4cd9f4f82a8e",
        "name": "McKenzie Brew House",
        "brewery_type": "brewpub",
        "address_1": "451 Wilmington Pike - W Chester Pike",
        "address_2": null,
        "address_3": null,
        "city": "Glen Mills",
        "state_province": "Pennsylvania",
        "postal_code": "19342-1249",
        "country": "United States",
        "longitude": null,
        "latitude": null,
        "phone": "6103619800",
        "website_url": "http://www.mckenziebrewhouse.com",
        "state": "Pennsylvania",
        "street": "451 Wilmington Pike - W Chester Pike"
    },
    {
        "id": "20d49ccb-4a92-4c5d-90ff-ec3e363d8407",
        "name": "McKenzie Brew House (#2)",
        "brewery_type": "brewpub",
        "address_1": "240 Lancaster Ave",
        "address_2": null,
        "address_3": null,
        "city": "Malvern",
        "state_province": "Pennsylvania",
        "postal_code": "19355-1802",
        "country": "United States",
        "longitude": null,
        "latitude": null,
        "phone": "6102962222",
        "website_url": "http://www.mckenziebrewhouse.com",
        "state": "Pennsylvania",
        "street": "240 Lancaster Ave"
    },
    {
        "id": "aef95b1b-3201-4aa9-8b9e-9bf92bcca975",
        "name": "McKenzie Brew House (#3)",
        "brewery_type": "brewpub",
        "address_1": "324 W Swedesford Rd",
        "address_2": null,
        "address_3": null,
        "city": "Berwyn",
        "state_province": "Pennsylvania",
        "postal_code": "19312-1165",
        "country": "United States",
        "longitude": null,
        "latitude": null,
        "phone": "6103619800",
        "website_url": null,
        "state": "Pennsylvania",
        "street": "324 W Swedesford Rd"
    },
    {
        "id": "258023a7-eaa3-421d-b011-b6b341403388",
        "name": "McKenzie Brewing Company",
        "brewery_type": "brewpub",
        "address_1": "199 E 5th Ave",
        "address_2": null,
        "address_3": null,
        "city": "Eugene",
        "state_province": "Oregon",
        "postal_code": "97401-8715",
        "country": "United States",
        "longitude": "-123.089843",
        "latitude": "44.054404",
        "phone": "5416862739",
        "website_url": "http://www.steelheadbrewery.com",
        "state": "Oregon",
        "street": "199 E 5th Ave"
    },
    {
        "id": "1892d9b8-4037-4f23-87c5-6c4c8f093779",
        "name": "McMenamins - Cedar Hills",
        "brewery_type": "brewpub",
        "address_1": "2885 SW Cedar Hills Blvd",
        "address_2": null,
        "address_3": null,
        "city": "Beaverton",
        "state_province": "Oregon",
        "postal_code": "97005-1343",
        "country": "United States",
        "longitude": "-122.8058983",
        "latitude": "45.5013601",
        "phone": "5036410151",
        "website_url": null,
        "state": "Oregon",
        "street": "2885 SW Cedar Hills Blvd"
    },
    {
        "id": "1c4cb8bf-6529-4372-aa73-6bc063b90a65",
        "name": "McMenamins Anderson School Brewery",
        "brewery_type": "brewpub",
        "address_1": "18607 Bothell Way NE",
        "address_2": null,
        "address_3": null,
        "city": "Bothell",
        "state_province": "Washington",
        "postal_code": "98011-1928",
        "country": "United States",
        "longitude": "-122.2080698",
        "latitude": "47.76387772",
        "phone": "4253980122",
        "website_url": "http://www.mcmenamins.com/anderson-school",
        "state": "Washington",
        "street": "18607 Bothell Way NE"
    },
    {
        "id": "db962489-e1d3-4102-a8cd-85ad5cc9a02b",
        "name": "McMenamins Breweries",
        "brewery_type": "micro",
        "address_1": "430 N Killingsworth St",
        "address_2": null,
        "address_3": null,
        "city": "Portland",
        "state_province": "Oregon",
        "postal_code": "97217-2441",
        "country": "United States",
        "longitude": "-122.6708112",
        "latitude": "45.5624447",
        "phone": "5032230109",
        "website_url": "http://www.mcmenamins.com",
        "state": "Oregon",
        "street": "430 N Killingsworth St"
    },
    {
        "id": "a11222c9-a317-4cef-aaec-a1da131cb749",
        "name": "McMenamins Concordia Brewery at Kennedy School",
        "brewery_type": "brewpub",
        "address_1": "5736 NE 33rd Ave",
        "address_2": null,
        "address_3": null,
        "city": "Portland",
        "state_province": "Oregon",
        "postal_code": "97211-7302",
        "country": "United States",
        "longitude": "-122.6299694",
        "latitude": "45.56447065",
        "phone": "5032881937",
        "website_url": "http://www.mcmenamins.com",
        "state": "Oregon",
        "street": "5736 NE 33rd Ave"
    },
    {
        "id": "1467b102-9664-4df9-85e8-f2d0ae1e3508",
        "name": "McMenamins Cornelius Pass Roadhouse",
        "brewery_type": "brewpub",
        "address_1": "4045 NE Cornelius Pass Rd",
        "address_2": null,
        "address_3": null,
        "city": "Hillsboro",
        "state_province": "Oregon",
        "postal_code": "97124-9367",
        "country": "United States",
        "longitude": "-122.9009845",
        "latitude": "45.5490862",
        "phone": "5036406174",
        "website_url": "http://www.mcmenamins.com",
        "state": "Oregon",
        "street": "4045 NE Cornelius Pass Rd"
    },
    {
        "id": "03ed67c1-0784-4817-971f-581a95060e7c",
        "name": "Melvin Brewing Bellingham",
        "brewery_type": "closed",
        "address_1": "2416 Meridian St",
        "address_2": null,
        "address_3": null,
        "city": "Bellingham",
        "state_province": "Washington",
        "postal_code": "98225-2405",
        "country": "United States",
        "longitude": "-122.485982",
        "latitude": "48.7621709",
        "phone": "3603063285",
        "website_url": null,
        "state": "Washington",
        "street": "2416 Meridian St"
    },
    {
        "id": "19d30f50-d7a9-4f8e-86dd-9ae9d3cbffa7",
        "name": "McMenamins Crystal Ballroom Brewery",
        "brewery_type": "brewpub",
        "address_1": "1332 W Burnside St",
        "address_2": null,
        "address_3": null,
        "city": "Portland",
        "state_province": "Oregon",
        "postal_code": "97209-2612",
        "country": "United States",
        "longitude": "-122.6850673",
        "latitude": "45.5228146",
        "phone": "5037785625",
        "website_url": "http://www.mcmenamins.com",
        "state": "Oregon",
        "street": "1332 W Burnside St"
    },
    {
        "id": "38d9665c-277c-46f5-9cd2-8dd2ebc5bdb2",
        "name": "McMenamins East Vancouver Brewery",
        "brewery_type": "brewpub",
        "address_1": "1900B NE 162nd Ave Ste B107",
        "address_2": null,
        "address_3": null,
        "city": "Vancouver",
        "state_province": "Washington",
        "postal_code": "98684-3013",
        "country": "United States",
        "longitude": "-122.5068563",
        "latitude": "45.63739909",
        "phone": "3606959033",
        "website_url": "https://www.mcmenamins.com/east-vancouver",
        "state": "Washington",
        "street": "1900B NE 162nd Ave Ste B107"
    },
    {
        "id": "06d34341-3309-4023-978c-478285e8a391",
        "name": "McMenamins Edgefield Brewery",
        "brewery_type": "micro",
        "address_1": "2126 SW Halsey St",
        "address_2": null,
        "address_3": null,
        "city": "Troutdale",
        "state_province": "Oregon",
        "postal_code": "97060-1026",
        "country": "United States",
        "longitude": "-122.4060641",
        "latitude": "45.5368535",
        "phone": "5036674352",
        "website_url": "http://www.mcmenamins.com",
        "state": "Oregon",
        "street": "2126 SW Halsey St"
    },
    {
        "id": "f588b69c-2537-4d6e-8560-9037a16b2af1",
        "name": "McMenamins Elks Temple",
        "brewery_type": "brewpub",
        "address_1": "565 Broadway",
        "address_2": null,
        "address_3": null,
        "city": "Tacoma",
        "state_province": "Washington",
        "postal_code": "98402",
        "country": "United States",
        "longitude": "-122.44092625961628",
        "latitude": "47.25818868519068",
        "phone": null,
        "website_url": "https://www.mcmenamins.com/elks-temple",
        "state": "Washington",
        "street": "565 Broadway"
    },
    {
        "id": "faf099d7-5437-40ff-a51e-f277d58447a4",
        "name": "McMenamins Fulton Pub and Brewery",
        "brewery_type": "micro",
        "address_1": "0618 SW Nebraska St",
        "address_2": null,
        "address_3": null,
        "city": "Portland",
        "state_province": "Oregon",
        "postal_code": "97239-3556",
        "country": "United States",
        "longitude": "-122.6726223",
        "latitude": "45.47711805",
        "phone": "5032464363",
        "website_url": "http://www.mcmenamins.com",
        "state": "Oregon",
        "street": "0618 SW Nebraska St"
    },
    {
        "id": "5527e67d-4ff5-4843-b6cb-dd6695cf5b2c",
        "name": "McMenamins High Street Brewery",
        "brewery_type": "brewpub",
        "address_1": "1243 High St",
        "address_2": null,
        "address_3": null,
        "city": "Eugene",
        "state_province": "Oregon",
        "postal_code": "97401-3207",
        "country": "United States",
        "longitude": "-123.0879134",
        "latitude": "44.0461346",
        "phone": "5413454913",
        "website_url": "http://www.mcmenamins.com",
        "state": "Oregon",
        "street": "1243 High St"
    },
    {
        "id": "1a4b9cf0-e54e-460c-bd7a-c91585d42adc",
        "name": "McMenamins Highland Pub and Brewery",
        "brewery_type": "brewpub",
        "address_1": "4225 SE 182nd Ave",
        "address_2": null,
        "address_3": null,
        "city": "Gresham",
        "state_province": "Oregon",
        "postal_code": "97030-5082",
        "country": "United States",
        "longitude": "-122.475815",
        "latitude": "45.4915603",
        "phone": "5036653015",
        "website_url": "http://www.mcmenamins.com",
        "state": "Oregon",
        "street": "4225 SE 182nd Ave"
    },
    {
        "id": "82cf7577-0457-4889-b49b-3738c3d58dd1",
        "name": "McMenamins Hillsdale Brewery and Public House",
        "brewery_type": "micro",
        "address_1": "1505 SW Sunset Blvd",
        "address_2": null,
        "address_3": null,
        "city": "Portland",
        "state_province": "Oregon",
        "postal_code": "97239-2625",
        "country": "United States",
        "longitude": "-122.6936922",
        "latitude": "45.4792439",
        "phone": "5032931753",
        "website_url": "http://www.mcmenamins.com",
        "state": "Oregon",
        "street": "1505 SW Sunset Blvd"
    },
    {
        "id": "7435ef24-5a83-4bd8-bc65-525088350803",
        "name": "McMenamins John Barleycorns",
        "brewery_type": "brewpub",
        "address_1": "14610 SW Sequoia Pkwy",
        "address_2": null,
        "address_3": null,
        "city": "Tigard",
        "state_province": "Oregon",
        "postal_code": "97224-7185",
        "country": "United States",
        "longitude": "-122.7466466",
        "latitude": "45.41452585",
        "phone": "5036846253",
        "website_url": "http://www.mcmenamins.com",
        "state": "Oregon",
        "street": "14610 SW Sequoia Pkwy"
    },
    {
        "id": "cbe2a6f6-294a-440d-902f-f3c147378a99",
        "name": "McMenamins Kalama Harbor Lodge",
        "brewery_type": "brewpub",
        "address_1": "215 N Hendrickson Dr",
        "address_2": null,
        "address_3": null,
        "city": "Kalama",
        "state_province": "Washington",
        "postal_code": "98625",
        "country": "United States",
        "longitude": "-122.8470478",
        "latitude": "46.00555187",
        "phone": "3606739210",
        "website_url": "https://www.mcmenamins.com/kalama-harbor-lodge",
        "state": "Washington",
        "street": "215 N Hendrickson Dr"
    },
    {
        "id": "48dc01b2-c5a0-4c6b-80f9-25945a0eb2f6",
        "name": "McMenamins Lighthouse Brewery",
        "brewery_type": "brewpub",
        "address_1": "4157 NW Highway 101 Ste 117",
        "address_2": null,
        "address_3": null,
        "city": "Lincoln City",
        "state_province": "Oregon",
        "postal_code": "97367-5050",
        "country": "United States",
        "longitude": "-124.0050694",
        "latitude": "44.99673605",
        "phone": "5419949628",
        "website_url": "http://www.mcmenamins.com",
        "state": "Oregon",
        "street": "4157 NW Highway 101 Ste 117"
    },
    {
        "id": "2b1cfbdf-23a1-4a0e-b370-11e6da46d64d",
        "name": "McMenamins Mill Creek Brewery",
        "brewery_type": "brewpub",
        "address_1": "13300 Bothell Everett Hwy Ste 304",
        "address_2": null,
        "address_3": null,
        "city": "Mill Creek",
        "state_province": "Washington",
        "postal_code": "98012-5312",
        "country": "United States",
        "longitude": "-122.2123317",
        "latitude": "47.87765468",
        "phone": "4253169817",
        "website_url": "https://www.mcmenamins.com/mill-creek",
        "state": "Washington",
        "street": "13300 Bothell Everett Hwy Ste 304"
    },
    {
        "id": "6098da96-d790-4675-aadb-8836048dab5e",
        "name": "McMenamins Murray & Allen",
        "brewery_type": "brewpub",
        "address_1": "6179 SW Murray Blvd",
        "address_2": null,
        "address_3": null,
        "city": "Beaverton",
        "state_province": "Oregon",
        "postal_code": "97008-4421",
        "country": "United States",
        "longitude": "-122.8264537",
        "latitude": "45.4750792",
        "phone": "5035269618",
        "website_url": "http://www.mcmenamins.com",
        "state": "Oregon",
        "street": "6179 SW Murray Blvd"
    },
    {
        "id": "f162f822-f631-4c3a-8de9-bed207e8cc0a",
        "name": "McMenamins Oak Hills Brewery",
        "brewery_type": "micro",
        "address_1": "14740 NW Cornell Rd Ste 80",
        "address_2": null,
        "address_3": null,
        "city": "Portland",
        "state_province": "Oregon",
        "postal_code": "97229-5400",
        "country": "United States",
        "longitude": "-122.7105079",
        "latitude": "45.5330425",
        "phone": "5036450117",
        "website_url": "http://www.mcmenamins.com",
        "state": "Oregon",
        "street": "14740 NW Cornell Rd Ste 80"
    },
    {
        "id": "4cdae732-9672-463f-b4ba-5c4f3cdcac6c",
        "name": "McMenamins Old Church Brewery",
        "brewery_type": "brewpub",
        "address_1": "30340 SW Boones Ferry Rd",
        "address_2": null,
        "address_3": null,
        "city": "Wilsonville",
        "state_province": "Oregon",
        "postal_code": "-97070",
        "country": "United States",
        "longitude": "-122.7726765",
        "latitude": "45.3007043",
        "phone": "5034272505",
        "website_url": "http://www.mcmenamins.com/Wilsonville",
        "state": "Oregon",
        "street": "30340 SW Boones Ferry Rd"
    },
    {
        "id": "61305a0a-ccbe-4c55-8eb8-54b49983d590",
        "name": "McMenamins Old St. Francis School",
        "brewery_type": "brewpub",
        "address_1": "700 NW Bond St",
        "address_2": null,
        "address_3": null,
        "city": "Bend",
        "state_province": "Oregon",
        "postal_code": "97703-2702",
        "country": "United States",
        "longitude": "-121.314499",
        "latitude": "44.0566885",
        "phone": "5413825174",
        "website_url": "http://www.mcmenamins.com",
        "state": "Oregon",
        "street": "700 NW Bond St"
    },
    {
        "id": "597943b0-96e5-4f02-95e3-8c76c2b07b84",
        "name": "McMenamins Olympic Club Brewery",
        "brewery_type": "brewpub",
        "address_1": "112 N Tower Ave",
        "address_2": null,
        "address_3": null,
        "city": "Centralia",
        "state_province": "Washington",
        "postal_code": "98531-4220",
        "country": "United States",
        "longitude": "-122.9539398",
        "latitude": "46.7167828",
        "phone": "3607365164",
        "website_url": "https://www.mcmenamins.com/olympic-club",
        "state": "Washington",
        "street": "112 N Tower Ave"
    },
    {
        "id": "a8acab3f-b025-47e5-b2ce-b77c3c38afcf",
        "name": "McMenamins on Monroe",
        "brewery_type": "brewpub",
        "address_1": "2001 NW Monroe Ave Ste 106",
        "address_2": null,
        "address_3": null,
        "city": "Corvallis",
        "state_province": "Oregon",
        "postal_code": "97330-5567",
        "country": "United States",
        "longitude": "-123.275563",
        "latitude": "44.56825637",
        "phone": "5417580880",
        "website_url": null,
        "state": "Oregon",
        "street": "2001 NW Monroe Ave Ste 106"
    },
    {
        "id": "d34b6cea-2b33-458e-88f9-1eea39c07f1f",
        "name": "McMenamins On the Columbia Brewery",
        "brewery_type": "brewpub",
        "address_1": "1801 SE Columbia River Dr",
        "address_2": null,
        "address_3": null,
        "city": "Vancouver",
        "state_province": "Washington",
        "postal_code": "98661-8030",
        "country": "United States",
        "longitude": "-122.6529665",
        "latitude": "45.61508455",
        "phone": "3606691521",
        "website_url": "https://www.mcmenamins.com/mcmenamins-on-the-columbia",
        "state": "Washington",
        "street": "1801 SE Columbia River Dr"
    },
    {
        "id": "e10e2e70-8086-4b8b-956e-953449c58bf9",
        "name": "McMenamins Queen Anne Brewery",
        "brewery_type": "brewpub",
        "address_1": "200 Roy St Ste 105",
        "address_2": null,
        "address_3": null,
        "city": "Seattle",
        "state_province": "Washington",
        "postal_code": "98109-4110",
        "country": "United States",
        "longitude": "-122.3520571",
        "latitude": "47.6255427",
        "phone": "2062854722",
        "website_url": "https://www.mcmenamins.com/queen-anne",
        "state": "Washington",
        "street": "200 Roy St Ste 105"
    },
    {
        "id": "86687c9b-6107-4e9b-947d-9c6c392e67fa",
        "name": "McMenamins Roseburg Station Brewery",
        "brewery_type": "micro",
        "address_1": "700 SE Sheridan St",
        "address_2": null,
        "address_3": null,
        "city": "Roseburg",
        "state_province": "Oregon",
        "postal_code": "97470-3470",
        "country": "United States",
        "longitude": "-123.349051",
        "latitude": "43.208554",
        "phone": "5416721934",
        "website_url": "http://www.mcmenamins.com",
        "state": "Oregon",
        "street": "700 SE Sheridan St"
    },
    {
        "id": "e527ae5b-352c-40a0-809f-96fae6b66718",
        "name": "McMenamins Six Arms Brewery",
        "brewery_type": "brewpub",
        "address_1": "300 E Pike St",
        "address_2": null,
        "address_3": null,
        "city": "Seattle",
        "state_province": "Washington",
        "postal_code": "98122",
        "country": "United States",
        "longitude": "-122.327845",
        "latitude": "47.61462221",
        "phone": "2062231698",
        "website_url": "https://www.mcmenamins.com/six-arms",
        "state": "Washington",
        "street": "300 E Pike St"
    },
    {
        "id": "73d1b31a-e57d-4ed6-b5c3-b53a5988bc5b",
        "name": "McMenamins Spar Cafe Brewery",
        "brewery_type": "brewpub",
        "address_1": "114 4th Ave E",
        "address_2": null,
        "address_3": null,
        "city": "Olympia",
        "state_province": "Washington",
        "postal_code": "98501-1103",
        "country": "United States",
        "longitude": "-122.9013768",
        "latitude": "47.04499974",
        "phone": "3603576444",
        "website_url": "https://www.mcmenamins.com/spar-cafe",
        "state": "Washington",
        "street": "114 4th Ave E"
    },
    {
        "id": "41da837d-8b75-42a1-8719-a2f833a2cd69",
        "name": "McMenamins Thompson Brewery",
        "brewery_type": "micro",
        "address_1": "3575 Liberty Rd S",
        "address_2": null,
        "address_3": null,
        "city": "Salem",
        "state_province": "Oregon",
        "postal_code": "97302-5621",
        "country": "United States",
        "longitude": "-123.051309",
        "latitude": "44.904043",
        "phone": "5033712945",
        "website_url": "http://www.mcmenamins.com",
        "state": "Oregon",
        "street": "3575 Liberty Rd S"
    },
    {
        "id": "2c606589-3e2d-41dd-bd10-65ce9488dd7d",
        "name": "McMenamins West Linn Brewery",
        "brewery_type": "micro",
        "address_1": "2090 8th Ave",
        "address_2": null,
        "address_3": null,
        "city": "West Linn",
        "state_province": "Oregon",
        "postal_code": "97068-4612",
        "country": "United States",
        "longitude": "-122.6520654",
        "latitude": "45.34604029",
        "phone": "5036562935",
        "website_url": "http://www.mcmenamins.com",
        "state": "Oregon",
        "street": "2090 8th Ave"
    },
    {
        "id": "4d1ba278-c182-4c2c-8185-a0d133342486",
        "name": "McNeills Brewery",
        "brewery_type": "brewpub",
        "address_1": "90 Elliot St",
        "address_2": null,
        "address_3": null,
        "city": "Brattleboro",
        "state_province": "Vermont",
        "postal_code": "05301-3269",
        "country": "United States",
        "longitude": "-72.55933779",
        "latitude": "42.8518861",
        "phone": "8022542553",
        "website_url": null,
        "state": "Vermont",
        "street": "90 Elliot St"
    },
    {
        "id": "6896acbe-391c-4267-bcd0-4e1e9765ad39",
        "name": "McOva Craft Beer Works, LLC",
        "brewery_type": "planning",
        "address_1": null,
        "address_2": null,
        "address_3": null,
        "city": "Castle Rock",
        "state_province": "Colorado",
        "postal_code": "80104",
        "country": "United States",
        "longitude": null,
        "latitude": null,
        "phone": "3035215027",
        "website_url": null,
        "state": "Colorado",
        "street": null
    },
    {
        "id": "66ba9cf3-e15c-41c6-8f52-a38637a570a1",
        "name": "MDs Sports Tavern and Grill",
        "brewery_type": "brewpub",
        "address_1": "3040 N State Rd",
        "address_2": null,
        "address_3": null,
        "city": "Davison",
        "state_province": "Michigan",
        "postal_code": "48423-1146",
        "country": "United States",
        "longitude": "-83.5173133",
        "latitude": "43.05021425",
        "phone": "8106536408",
        "website_url": "http://www.mdsportstavern.com",
        "state": "Michigan",
        "street": "3040 N State Rd"
    },
    {
        "id": "3842a6be-3f32-4cd1-99c0-48fcaef62602",
        "name": "Meadowlark Brewing",
        "brewery_type": "brewpub",
        "address_1": "117 S Central Ave",
        "address_2": null,
        "address_3": null,
        "city": "Sidney",
        "state_province": "Montana",
        "postal_code": "59270-4123",
        "country": "United States",
        "longitude": "-104.1602945",
        "latitude": "47.7105211",
        "phone": null,
        "website_url": "http://www.meadowlarkbrewing.com",
        "state": "Montana",
        "street": "117 S Central Ave"
    },
    {
        "id": "fd44ed6d-eb54-4d4c-bcb1-5fae973395b3",
        "name": "Mean Max Brew Works",
        "brewery_type": "micro",
        "address_1": "193 Glen St # 2",
        "address_2": null,
        "address_3": null,
        "city": "Glens Falls",
        "state_province": "New York",
        "postal_code": "12801-3539",
        "country": "United States",
        "longitude": "-73.64451861",
        "latitude": "43.31016635",
        "phone": "5187932337",
        "website_url": "http://www.meanmaxbrew.com",
        "state": "New York",
        "street": "193 Glen St # 2"
    },
    {
        "id": "8f0626fd-2bfe-4f6f-a8eb-42dbe0a3984b",
        "name": "Mean Sardine",
        "brewery_type": "micro",
        "address_1": "58 Surf Building",
        "address_2": "Av. S\u00e3o Sebasti\u00e3o 36b",
        "address_3": null,
        "city": "Ericeira",
        "state_province": "Lisboa",
        "postal_code": "2655-483",
        "country": "Portugal",
        "longitude": "-9.417647159720808",
        "latitude": "38.98126500163354",
        "phone": null,
        "website_url": "https://meansardine.pt",
        "state": "Lisboa",
        "street": "58 Surf Building"
    },
    {
        "id": "5694c81b-ce73-4efd-82fa-e685d3a13434",
        "name": "Mecan River Brewing Company",
        "brewery_type": "brewpub",
        "address_1": "113 East Main Street",
        "address_2": "P.O.Box 352",
        "address_3": null,
        "city": "Coloma",
        "state_province": "Wisconsin",
        "postal_code": "54930",
        "country": "United States",
        "longitude": "-89.5238403",
        "latitude": "44.0343194",
        "phone": "7152813506",
        "website_url": "https://mecanriverbrewing.com/",
        "state": "Wisconsin",
        "street": "113 East Main Street"
    },
    {
        "id": "04ca6748-c9f5-4f3f-976f-ea9453c1b073",
        "name": "Mechanistic Brewing",
        "brewery_type": "planning",
        "address_1": null,
        "address_2": null,
        "address_3": null,
        "city": "Clarion",
        "state_province": "Pennsylvania",
        "postal_code": "16214-2018",
        "country": "United States",
        "longitude": null,
        "latitude": null,
        "phone": null,
        "website_url": null,
        "state": "Pennsylvania",
        "street": null
    },
    {
        "id": "95682129-a52a-40f1-a9d9-16dbf53c7380",
        "name": "Meddlesome Brewing Company",
        "brewery_type": "micro",
        "address_1": "7750 Trinity Rd Ste 114",
        "address_2": null,
        "address_3": null,
        "city": "Cordova",
        "state_province": "Tennessee",
        "postal_code": "38018-2736",
        "country": "United States",
        "longitude": "-89.802564",
        "latitude": "35.14057",
        "phone": "6185218036",
        "website_url": "http://www.meddlesomebrewing.com",
        "state": "Tennessee",
        "street": "7750 Trinity Rd Ste 114"
    },
    {
        "id": "0a21307c-a2d0-48eb-b9c9-a88032b3b49c",
        "name": "Medusa Brewing Company",
        "brewery_type": "micro",
        "address_1": "111 Main St",
        "address_2": null,
        "address_3": null,
        "city": "Hudson",
        "state_province": "Massachusetts",
        "postal_code": "01749-2210",
        "country": "United States",
        "longitude": "-71.566681",
        "latitude": "42.3909986",
        "phone": "5083950122",
        "website_url": "http://www.medusabrewing.com",
        "state": "Massachusetts",
        "street": "111 Main St"
    },
    {
        "id": "7560c905-1ba6-4706-a1d7-3d731962ed4b",
        "name": "Mel's Micro",
        "brewery_type": "brewpub",
        "address_1": "21733 US Hwy 14",
        "address_2": null,
        "address_3": null,
        "city": "Richland Center",
        "state_province": "Wisconsin",
        "postal_code": "53581",
        "country": "United States",
        "longitude": "-90.3868474",
        "latitude": "43.3294383",
        "phone": null,
        "website_url": "http://www.melsmicro.com",
        "state": "Wisconsin",
        "street": "21733 US Hwy 14"
    },
    {
        "id": "531a2d9a-c743-43ad-b663-948083a07511",
        "name": "Melms Brewing Co",
        "brewery_type": "proprietor",
        "address_1": "418 Merton Ave",
        "address_2": null,
        "address_3": null,
        "city": "Hartland",
        "state_province": "Wisconsin",
        "postal_code": "53029-1524",
        "country": "United States",
        "longitude": "-88.33311459",
        "latitude": "43.11075028",
        "phone": "2629932566",
        "website_url": "http://www.melmsbrewery.com",
        "state": "Wisconsin",
        "street": "418 Merton Ave"
    },
    {
        "id": "6fdaf0f7-d914-4314-b744-eae724453c6e",
        "name": "Melvin Brewing",
        "brewery_type": "regional",
        "address_1": "110 Hilltop Village Center Dr",
        "address_2": null,
        "address_3": null,
        "city": "Eureka",
        "state_province": "Missouri",
        "postal_code": "63025",
        "country": "United States",
        "longitude": "-90.649695",
        "latitude": "38.52826",
        "phone": "6365499231",
        "website_url": "http://www.melvinbrewing.com",
        "state": "Missouri",
        "street": "110 Hilltop Village Center Dr"
    },
    {
        "id": "458bd9fd-c86a-49ec-b0c3-bf0a3370e85b",
        "name": "Melvin Brewing",
        "brewery_type": "regional",
        "address_1": "624 County Road 101",
        "address_2": null,
        "address_3": null,
        "city": "Alpine",
        "state_province": "Wyoming",
        "postal_code": "83128-0314",
        "country": "United States",
        "longitude": null,
        "latitude": null,
        "phone": "3076540426",
        "website_url": "http://www.melvinbrewing.com",
        "state": "Wyoming",
        "street": "624 County Road 101"
    },
    {
        "id": "6f582cf6-b505-4ae4-9e2a-b5b7f1e72d71",
        "name": "Melvin Brewing Co",
        "brewery_type": "micro",
        "address_1": "75 E Pearl Ave",
        "address_2": null,
        "address_3": null,
        "city": "Jackson",
        "state_province": "Wyoming",
        "postal_code": "83001-8658",
        "country": "United States",
        "longitude": "-110.7618578",
        "latitude": "43.47859778",
        "phone": "3077330005",
        "website_url": null,
        "state": "Wyoming",
        "street": "75 E Pearl Ave"
    },
    {
        "id": "201479a3-680e-4f64-b6f4-ac8c81a4cc58",
        "name": "Memphis Filling Station",
        "brewery_type": "planning",
        "address_1": null,
        "address_2": null,
        "address_3": null,
        "city": "Memphis",
        "state_province": "Tennessee",
        "postal_code": "38112-4938",
        "country": "United States",
        "longitude": null,
        "latitude": null,
        "phone": "9014978109",
        "website_url": "http://www.memphisfillingstation.com",
        "state": "Tennessee",
        "street": null
    },
    {
        "id": "718cf6aa-a2a3-4264-bbae-7a0067d87853",
        "name": "Memphis Made Brewing Company",
        "brewery_type": "micro",
        "address_1": "768 S Cooper St",
        "address_2": null,
        "address_3": null,
        "city": "Memphis",
        "state_province": "Tennessee",
        "postal_code": "38104-5406",
        "country": "United States",
        "longitude": "-89.990701",
        "latitude": "35.124723",
        "phone": "9012075343",
        "website_url": "http://www.memphismadebrewing.com",
        "state": "Tennessee",
        "street": "768 S Cooper St"
    },
    {
        "id": "9221185e-c3ed-44ea-8131-d7077e7d3b0f",
        "name": "Menace Brewing",
        "brewery_type": "micro",
        "address_1": "2529 Meridian St",
        "address_2": null,
        "address_3": null,
        "city": "Bellingham",
        "state_province": "Washington",
        "postal_code": "98225-2406",
        "country": "United States",
        "longitude": "-122.4862211",
        "latitude": "48.76355086",
        "phone": "3605954059",
        "website_url": "https://www.menacebrewing.com",
        "state": "Washington",
        "street": "2529 Meridian St"
    },
    {
        "id": "72c36c03-55db-4310-8b6f-66ed9942c29e",
        "name": "Merrimack Ales",
        "brewery_type": "micro",
        "address_1": "92 Bolt St",
        "address_2": null,
        "address_3": null,
        "city": "Lowell",
        "state_province": "Massachusetts",
        "postal_code": "01852-5316",
        "country": "United States",
        "longitude": "-71.300252",
        "latitude": "42.625366",
        "phone": "9787017225",
        "website_url": "http://www.merrimackales.com",
        "state": "Massachusetts",
        "street": "92 Bolt St"
    },
    {
        "id": "0568b76d-4876-4cb9-a919-cfbf8a2e566c",
        "name": "Mescan Brewery",
        "brewery_type": "micro",
        "address_1": "Cartoor",
        "address_2": null,
        "address_3": null,
        "city": "Kilsallagh",
        "state_province": "Mayo",
        "postal_code": "F28 FW70",
        "country": "Ireland",
        "longitude": "9.73047",
        "latitude": "53.7471934",
        "phone": "353868320320",
        "website_url": "https://www.mescanbrewery.com/",
        "state": "Mayo",
        "street": "Cartoor"
    },
    {
        "id": "a674f295-8d93-4266-b2bf-e4cfcb4adc6a",
        "name": "Mesquite River Brewing",
        "brewery_type": "micro",
        "address_1": "13610 N Scottsdale Rd, Suite 18",
        "address_2": null,
        "address_3": null,
        "city": "Scottsdale",
        "state_province": "Arizona",
        "postal_code": "85254-4037",
        "country": "United States",
        "longitude": null,
        "latitude": null,
        "phone": "4806567696",
        "website_url": "http://www.mesquiteriverbrewing.com",
        "state": "Arizona",
        "street": "13610 N Scottsdale Rd, Suite 18"
    },
    {
        "id": "606eeca9-1d11-4af6-a95f-a526d5f17be4",
        "name": "Metal Monkey Brewing LLC",
        "brewery_type": "micro",
        "address_1": "515 Anderson Dr Ste 900",
        "address_2": null,
        "address_3": null,
        "city": "Romeoville",
        "state_province": "Illinois",
        "postal_code": "60446-1494",
        "country": "United States",
        "longitude": "-88.07788064",
        "latitude": "41.6450575",
        "phone": "8155243139",
        "website_url": "http://www.metalmonkeybrewing.com",
        "state": "Illinois",
        "street": "515 Anderson Dr Ste 900"
    },
    {
        "id": "58d4385e-b363-4d10-b5dd-a0cc7aeb965e",
        "name": "Metalman Brewing Company",
        "brewery_type": "micro",
        "address_1": "Unit 14",
        "address_2": "Tycor Business Centre",
        "address_3": "Tycor",
        "city": "Waterford",
        "state_province": "Waterford",
        "postal_code": "X91 HP89",
        "country": "Ireland",
        "longitude": "-7.1302473",
        "latitude": "52.2562844",
        "phone": "35351348448",
        "website_url": "http://www.metalmanbrewing.com/",
        "state": "Waterford",
        "street": "Unit 14"
    },
    {
        "id": "42431b40-da93-44f6-923c-98a25a89e376",
        "name": "Metazoa Brewing Co.",
        "brewery_type": "micro",
        "address_1": "140 S College Ave",
        "address_2": null,
        "address_3": null,
        "city": "Indianapolis",
        "state_province": "Indiana",
        "postal_code": "46202-4004",
        "country": "United States",
        "longitude": "-86.14585025",
        "latitude": "39.76455049",
        "phone": "3175082274",
        "website_url": "http://www.metazoa.beer",
        "state": "Indiana",
        "street": "140 S College Ave"
    },
    {
        "id": "16563e2d-05ad-43d9-a393-a7db75c1d29d",
        "name": "Metier Brewing Company",
        "brewery_type": "micro",
        "address_1": "14125 NE 189th St",
        "address_2": null,
        "address_3": null,
        "city": "Woodinville",
        "state_province": "Washington",
        "postal_code": "98072-6831",
        "country": "United States",
        "longitude": "-122.1515611",
        "latitude": "47.76422098",
        "phone": "4254158466",
        "website_url": "http://www.metierbrewing.com",
        "state": "Washington",
        "street": "14125 NE 189th St"
    },
    {
        "id": "80cea19e-4e59-4e82-94a3-5b3cb0cd29b3",
        "name": "Metropolitan Brewing",
        "brewery_type": "micro",
        "address_1": "3057 N Rockwell St",
        "address_2": null,
        "address_3": null,
        "city": "Chicago",
        "state_province": "Illinois",
        "postal_code": "60618-7917",
        "country": "United States",
        "longitude": "-87.6912391",
        "latitude": "41.9376382",
        "phone": "7734746489",
        "website_url": "http://www.metrobrewing.com",
        "state": "Illinois",
        "street": "3057 N Rockwell St"
    },
    {
        "id": "d30adc33-3715-41b2-950c-63c2e906629f",
        "name": "Mexitaly Brick Oven Brewhouse",
        "brewery_type": "brewpub",
        "address_1": "2440 E Market St",
        "address_2": null,
        "address_3": null,
        "city": "York",
        "state_province": "Pennsylvania",
        "postal_code": "17402-2409",
        "country": "United States",
        "longitude": "-76.6781639",
        "latitude": "39.9735865",
        "phone": "7176008226",
        "website_url": "http://www.mexitaly.com",
        "state": "Pennsylvania",
        "street": "2440 E Market St"
    },
    {
        "id": "9b407952-8478-4c53-aced-81a006a1dddb",
        "name": "MI Brewery / Kayla Rae Cellars",
        "brewery_type": "micro",
        "address_1": "31 Courtland St",
        "address_2": null,
        "address_3": null,
        "city": "Rockford",
        "state_province": "Michigan",
        "postal_code": "49341-1080",
        "country": "United States",
        "longitude": null,
        "latitude": null,
        "phone": "6169517001",
        "website_url": "http://www.kaylaraecellars.com",
        "state": "Michigan",
        "street": "31 Courtland St"
    },
    {
        "id": "61bd6b89-b37b-4793-a3a5-b2de69f0aeea",
        "name": "Mia and Pias Pizzeria/Brewhouse",
        "brewery_type": "brewpub",
        "address_1": "3545 Summers Ln",
        "address_2": null,
        "address_3": null,
        "city": "Klamath Falls",
        "state_province": "Oregon",
        "postal_code": "97603-7411",
        "country": "United States",
        "longitude": "-121.7375719",
        "latitude": "42.19324978",
        "phone": "5418844880",
        "website_url": null,
        "state": "Oregon",
        "street": "3545 Summers Ln"
    },
    {
        "id": "66578541-da2c-44e8-905d-13658b49e726",
        "name": "Miami Brewing Co",
        "brewery_type": "brewpub",
        "address_1": "30205 SW 217th Ave",
        "address_2": null,
        "address_3": null,
        "city": "Homestead",
        "state_province": "Florida",
        "postal_code": "33030-7601",
        "country": "United States",
        "longitude": null,
        "latitude": null,
        "phone": "3052421224",
        "website_url": "http://www.miamibrewing.org",
        "state": "Florida",
        "street": "30205 SW 217th Ave"
    },
    {
        "id": "e1c5d42f-a9b3-4a2e-afe1-d1fa24ff9825",
        "name": "Miami Creek Brewing Company",
        "brewery_type": "closed",
        "address_1": "14226 NW County Road 14001",
        "address_2": null,
        "address_3": null,
        "city": "Drexel",
        "state_province": "Missouri",
        "postal_code": "64742-9733",
        "country": "United States",
        "longitude": null,
        "latitude": null,
        "phone": "8168920297",
        "website_url": "http://www.miamicreek.com",
        "state": "Missouri",
        "street": "14226 NW County Road 14001"
    },
    {
        "id": "b1b569f5-9c84-468e-bf1a-89f1867fa64c",
        "name": "Mica Town Brewing",
        "brewery_type": "micro",
        "address_1": "25 Brown Dr",
        "address_2": null,
        "address_3": null,
        "city": "Marion",
        "state_province": "North Carolina",
        "postal_code": "28752-4294",
        "country": "United States",
        "longitude": null,
        "latitude": null,
        "phone": "8285598300",
        "website_url": "http://www.micatownbrewing.com",
        "state": "North Carolina",
        "street": "25 Brown Dr"
    },
    {
        "id": "b43a8593-0e7e-42dd-b3f1-0c1ec9da44bf",
        "name": "Michigan Brewing Works",
        "brewery_type": "brewpub",
        "address_1": "3435 Dietz Rd",
        "address_2": null,
        "address_3": null,
        "city": "Williamston",
        "state_province": "Michigan",
        "postal_code": "48895-9506",
        "country": "United States",
        "longitude": null,
        "latitude": null,
        "phone": "5176557777",
        "website_url": null,
        "state": "Michigan",
        "street": "3435 Dietz Rd"
    },
    {
        "id": "c35a6630-0112-4f4f-b853-696bad041990",
        "name": "MickDuff's Brewing Co",
        "brewery_type": "micro",
        "address_1": "312 N First Ave",
        "address_2": null,
        "address_3": null,
        "city": "Sandpoint",
        "state_province": "Idaho",
        "postal_code": "83864-1404",
        "country": "United States",
        "longitude": "-116.54764",
        "latitude": "48.27597",
        "phone": "2082554351",
        "website_url": "http://www.mickduffs.com",
        "state": "Idaho",
        "street": "312 N First Ave"
    },
    {
        "id": "7cb839b2-bd03-4672-a7b4-1d1946e32b8a",
        "name": "Mickey Finns Brewery",
        "brewery_type": "brewpub",
        "address_1": "345 N Milwaukee Ave",
        "address_2": null,
        "address_3": null,
        "city": "Libertyville",
        "state_province": "Illinois",
        "postal_code": "60048-2237",
        "country": "United States",
        "longitude": "-87.9542955",
        "latitude": "42.2863321",
        "phone": "8473626688",
        "website_url": "http://www.mickeyfinnsbrewery.com",
        "state": "Illinois",
        "street": "345 N Milwaukee Ave"
    },
    {
        "id": "904ae847-cf63-468e-bba7-59c4f95df604",
        "name": "Middle Ages Brewing Co Ltd",
        "brewery_type": "micro",
        "address_1": "120 Wilkinson St Ste 3",
        "address_2": null,
        "address_3": null,
        "city": "Syracuse",
        "state_province": "New York",
        "postal_code": "13204-2490",
        "country": "United States",
        "longitude": null,
        "latitude": null,
        "phone": "3154764250",
        "website_url": "http://www.middleagesbrewing.com",
        "state": "New York",
        "street": "120 Wilkinson St Ste 3"
    },
    {
        "id": "b7b96ece-e357-4fcf-b195-954b618ca4b6",
        "name": "Middle Brow Beer Company",
        "brewery_type": "micro",
        "address_1": "2840 W Armitage Ave",
        "address_2": null,
        "address_3": null,
        "city": "Chicago",
        "state_province": "Illinois",
        "postal_code": "60647",
        "country": "United States",
        "longitude": "-87.6988905",
        "latitude": "41.9177811",
        "phone": "7088465511",
        "website_url": "http://www.middlebrowbeer.com",
        "state": "Illinois",
        "street": "2840 W Armitage Ave"
    },
    {
        "id": "53b5289a-b220-4c1a-8fe4-4d509fe6577d",
        "name": "Middle James Brewing Company",
        "brewery_type": "planning",
        "address_1": null,
        "address_2": null,
        "address_3": null,
        "city": "Pineville",
        "state_province": "North Carolina",
        "postal_code": "28134",
        "country": "United States",
        "longitude": null,
        "latitude": null,
        "phone": null,
        "website_url": null,
        "state": "North Carolina",
        "street": null
    },
    {
        "id": "47067a16-91aa-401c-920d-080104960ed1",
        "name": "Middleton Brewing (MBTX)",
        "brewery_type": "micro",
        "address_1": "101 Oakwood Loop",
        "address_2": null,
        "address_3": null,
        "city": "San Marcos",
        "state_province": "Texas",
        "postal_code": "78666-1762",
        "country": "United States",
        "longitude": null,
        "latitude": null,
        "phone": "5128473435",
        "website_url": "http://www.mbtx.com",
        "state": "Texas",
        "street": "101 Oakwood Loop"
    },
    {
        "id": "cf57e209-8ef4-4a27-8ef6-d538050e38a1",
        "name": "Middleton Brewing Co",
        "brewery_type": "brewpub",
        "address_1": "607 SE Everett Mall Way Ste 27A",
        "address_2": null,
        "address_3": null,
        "city": "Everett",
        "state_province": "Washington",
        "postal_code": "98208-3264",
        "country": "United States",
        "longitude": "-122.224702",
        "latitude": "47.911397",
        "phone": "4252809178",
        "website_url": "https://www.facebook.com/MiddletonBrews",
        "state": "Washington",
        "street": "607 SE Everett Mall Way Ste 27A"
    },
    {
        "id": "146870a5-aad1-4b3a-9b25-c4af2a711f1a",
        "name": "Midland Brewing Co",
        "brewery_type": "brewpub",
        "address_1": "5011 N Saginaw Road",
        "address_2": null,
        "address_3": null,
        "city": "Midland",
        "state_province": "Michigan",
        "postal_code": "48642",
        "country": "United States",
        "longitude": "-84.2910925",
        "latitude": "43.6408678",
        "phone": "9892597210",
        "website_url": "http://www.midlandbrewing.com",
        "state": "Michigan",
        "street": "5011 N Saginaw Road"
    },
    {
        "id": "b535a17f-5e36-4126-853d-0c13d4fac2ca",
        "name": "Midnight Brewery",
        "brewery_type": "micro",
        "address_1": "2410 Granite Ridge Rd Ste B",
        "address_2": null,
        "address_3": null,
        "city": "Rockville",
        "state_province": "Virginia",
        "postal_code": "23146-2234",
        "country": "United States",
        "longitude": null,
        "latitude": null,
        "phone": "8043569379",
        "website_url": "http://www.midnight-brewery.com",
        "state": "Virginia",
        "street": "2410 Granite Ridge Rd Ste B"
    },
    {
        "id": "9666ffc8-a890-450e-b3b0-16b5db29a5cc",
        "name": "Midnight Jack Brewing Company",
        "brewery_type": "micro",
        "address_1": "3801 Oceanic Dr Ste 101",
        "address_2": null,
        "address_3": null,
        "city": "Oceanside",
        "state_province": "California",
        "postal_code": "92056-5850",
        "country": "United States",
        "longitude": "-117.304737",
        "latitude": "33.204836",
        "phone": "7606379679",
        "website_url": "http://www.midnightjackbrewing.com",
        "state": "California",
        "street": "3801 Oceanic Dr Ste 101"
    },
    {
        "id": "2a0a04dd-84ff-4372-90b1-bcbc30de80d7",
        "name": "Midnight Oil Brewing",
        "brewery_type": "micro",
        "address_1": "674 Pencader Dr",
        "address_2": null,
        "address_3": null,
        "city": "Newark",
        "state_province": "Delaware",
        "postal_code": "19702",
        "country": "United States",
        "longitude": null,
        "latitude": null,
        "phone": "3022867641",
        "website_url": null,
        "state": "Delaware",
        "street": "674 Pencader Dr"
    },
    {
        "id": "8e2237f6-6759-40b6-828f-e6975f5d0ae2",
        "name": "Midnight Oil Brewing Company",
        "brewery_type": "micro",
        "address_1": "674 Pencader Dr",
        "address_2": null,
        "address_3": null,
        "city": "Newark",
        "state_province": "Delaware",
        "postal_code": "19702-3348",
        "country": "United States",
        "longitude": null,
        "latitude": null,
        "phone": "3022867641",
        "website_url": "http://www.midnightoilbrewing.com",
        "state": "Delaware",
        "street": "674 Pencader Dr"
    },
    {
        "id": "7972a61a-494f-430d-8d26-cc72c3ad56e3",
        "name": "Midnight Pig Beer",
        "brewery_type": "brewpub",
        "address_1": "12337 S Route 59 Unit 155",
        "address_2": null,
        "address_3": null,
        "city": "Plainfield",
        "state_province": "Illinois",
        "postal_code": "60585-4614",
        "country": "United States",
        "longitude": null,
        "latitude": null,
        "phone": "8154363900",
        "website_url": "http://www.nevinsdraftco.com",
        "state": "Illinois",
        "street": "12337 S Route 59 Unit 155"
    }
]