[
    {
        "id": "2eb793d3-b52c-4c6b-9944-578f12c4d30c",
        "name": "Tight Lines Pub",
        "brewery_type": "brewpub",
        "address_1": "709 Arendell St",
        "address_2": null,
        "address_3": null,
        "city": "Morehead City",
        "state_province": "North Carolina",
        "postal_code": "28557-4214",
        "country": "United States",
        "longitude": "-76.71168962",
        "latitude": "34.72107454",
        "phone": "2527730641",
        "website_url": "http://www.tightlinesbrewing.com",
        "state": "North Carolina",
        "street": "709 Arendell St"
    },
    {
        "id": "5098f6bc-9d22-4eb8-a68b-f8e26887f93c",
        "name": "Tighthead Brewing Co",
        "brewery_type": "micro",
        "address_1": "161 N Archer Ave",
        "address_2": null,
        "address_3": null,
        "city": "Mundelein",
        "state_province": "Illinois",
        "postal_code": "60060-2301",
        "country": "United States",
        "longitude": "-88.00117584",
        "latitude": "42.26626399",
        "phone": null,
        "website_url": null,
        "state": "Illinois",
        "street": "161 N Archer Ave"
    },
    {
        "id": "55c072af-0a5c-4abe-aa73-15351ea4eef7",
        "name": "Tilt Wurks Brewhouse & Casino",
        "brewery_type": "micro",
        "address_1": "420 Pacific Ave",
        "address_2": null,
        "address_3": null,
        "city": "Miles City",
        "state_province": "Montana",
        "postal_code": "59301-4000",
        "country": "United States",
        "longitude": "-105.8508049",
        "latitude": "46.40206641",
        "phone": "4068748458",
        "website_url": "http://www.tiltwurks.com",
        "state": "Montana",
        "street": "420 Pacific Ave"
    },
    {
        "id": "37cde8b1-1aaf-4181-aee9-e6481769d59c",
        "name": "Tilted Axis Brewing Company",
        "brewery_type": "brewpub",
        "address_1": "303 W Nepessing St",
        "address_2": null,
        "address_3": null,
        "city": "Lapeer",
        "state_province": "Michigan",
        "postal_code": "48446-2105",
        "country": "United States",
        "longitude": "-83.31247549",
        "latitude": "43.05377576",
        "phone": "8109694477",
        "website_url": "http://www.tiltedaxis.beer",
        "state": "Michigan",
        "street": "303 W Nepessing St"
    },
    {
        "id": "62e08b27-ce3d-49a3-b579-70819bb13baf",
        "name": "Tilted Barn Brewery",
        "brewery_type": "micro",
        "address_1": "1 Helmsley Pl",
        "address_2": null,
        "address_3": null,
        "city": "Exeter",
        "state_province": "Rhode Island",
        "postal_code": "02822-3740",
        "country": "United States",
        "longitude": "-71.523075",
        "latitude": "41.554186",
        "phone": "4018296088",
        "website_url": "http://www.tiltedbarnbrewery.com",
        "state": "Rhode Island",
        "street": "1 Helmsley Pl"
    },
    {
        "id": "b8dc35f3-2869-46fb-a797-a5f38a04136d",
        "name": "Tilted Barrel Brew Pub",
        "brewery_type": "contract",
        "address_1": "110 E 29th St",
        "address_2": null,
        "address_3": null,
        "city": "Loveland",
        "state_province": "Colorado",
        "postal_code": "80538",
        "country": "United States",
        "longitude": "-105.0773167",
        "latitude": "40.42158016",
        "phone": "9706198950",
        "website_url": "http://www.tiltedbarrelbrewpub.com",
        "state": "Colorado",
        "street": "110 E 29th St"
    },
    {
        "id": "39a9df45-0fb9-4e29-96b2-b5b2b2a5dd3f",
        "name": "Tilted Mash Brewery",
        "brewery_type": "micro",
        "address_1": "9175 Union Park Way",
        "address_2": null,
        "address_3": null,
        "city": "Elk Grove",
        "state_province": "California",
        "postal_code": "95624-2792",
        "country": "United States",
        "longitude": "-121.3611472",
        "latitude": "38.38804656",
        "phone": null,
        "website_url": "http://www.tiltedmash.com",
        "state": "California",
        "street": "9175 Union Park Way"
    },
    {
        "id": "e2829cb7-d5e8-4401-8fb8-6f7af1150193",
        "name": "Tim's Pumpkin Patch",
        "brewery_type": "micro",
        "address_1": "2901 Rose Hill Rd",
        "address_2": null,
        "address_3": null,
        "city": "Marietta",
        "state_province": "New York",
        "postal_code": "13110-3236",
        "country": "United States",
        "longitude": "-76.34398",
        "latitude": "42.911678",
        "phone": "3156739209",
        "website_url": "http://www.timspumpkinpatch.com",
        "state": "New York",
        "street": "2901 Rose Hill Rd"
    },
    {
        "id": "50020337-f432-4dc6-b007-546c5afe914b",
        "name": "Timber Creek Tap & Table",
        "brewery_type": "brewpub",
        "address_1": "11191 Highline Dr",
        "address_2": null,
        "address_3": null,
        "city": "Meadville",
        "state_province": "Pennsylvania",
        "postal_code": "16335-6589",
        "country": "United States",
        "longitude": null,
        "latitude": null,
        "phone": "8148071005",
        "website_url": "http://www.timbercreektapandtable.com",
        "state": "Pennsylvania",
        "street": "11191 Highline Dr"
    },
    {
        "id": "96b81bfe-8ab7-4278-a202-dcd1ce05ede1",
        "name": "Timber Monster Brewing Company",
        "brewery_type": "micro",
        "address_1": "410 Main Street",
        "address_2": null,
        "address_3": null,
        "city": "Sultan",
        "state_province": "Washington",
        "postal_code": "98294",
        "country": "United States",
        "longitude": "-121.8162158",
        "latitude": "47.86241076",
        "phone": "4257500814",
        "website_url": null,
        "state": "Washington",
        "street": "410 Main Street"
    },
    {
        "id": "72466771-4af4-4da5-a120-06081eda08d8",
        "name": "Timberyard Brewing Co.",
        "brewery_type": "planning",
        "address_1": null,
        "address_2": null,
        "address_3": null,
        "city": "East Brookfield",
        "state_province": "Massachusetts",
        "postal_code": "01515",
        "country": "United States",
        "longitude": null,
        "latitude": null,
        "phone": "4135526048",
        "website_url": "http://timberyardbrewing.com",
        "state": "Massachusetts",
        "street": null
    },
    {
        "id": "3bacbef1-dd83-4eba-9fc8-93641f69454e",
        "name": "Timbukbru",
        "brewery_type": "micro",
        "address_1": "215 6th St SW",
        "address_2": null,
        "address_3": null,
        "city": "Clarion",
        "state_province": "Iowa",
        "postal_code": "50525",
        "country": "United States",
        "longitude": "-93.740532",
        "latitude": "42.731535",
        "phone": "5155320015",
        "website_url": "http://www.timbukbru.com",
        "state": "Iowa",
        "street": "215 6th St SW"
    },
    {
        "id": "592fd7bf-bd5e-4c40-a951-0a4af1c06727",
        "name": "Timeless Pints Brewing Co",
        "brewery_type": "closed",
        "address_1": "3671 Industry Ave Ste C1",
        "address_2": null,
        "address_3": null,
        "city": "Lakewood",
        "state_province": "California",
        "postal_code": "90712-4155",
        "country": "United States",
        "longitude": "-118.1659197",
        "latitude": "33.8236814",
        "phone": "5624900099",
        "website_url": "http://www.timelesspints.com",
        "state": "California",
        "street": "3671 Industry Ave Ste C1"
    },
    {
        "id": "82e6bab6-2ba9-4942-bf6b-5d5791a0b52e",
        "name": "Timnath Beerwerks",
        "brewery_type": "planning",
        "address_1": null,
        "address_2": null,
        "address_3": null,
        "city": "Timnath",
        "state_province": "Colorado",
        "postal_code": "80547",
        "country": "United States",
        "longitude": null,
        "latitude": null,
        "phone": "9702224131",
        "website_url": null,
        "state": "Colorado",
        "street": null
    },
    {
        "id": "2712000e-1581-481c-9422-63120e8c4026",
        "name": "Timotheus Brothers Brewery",
        "brewery_type": "micro",
        "address_1": "2708 N Peoria Rd",
        "address_2": null,
        "address_3": null,
        "city": "Springfield",
        "state_province": "Illinois",
        "postal_code": "62702-1248",
        "country": "United States",
        "longitude": "-89.6309244",
        "latitude": "39.846853",
        "phone": "2179710027",
        "website_url": null,
        "state": "Illinois",
        "street": "2708 N Peoria Rd"
    },
    {
        "id": "da072acf-a430-4fa7-9b49-39bd2a391fce",
        "name": "Tin Bridge Brewing",
        "brewery_type": "micro",
        "address_1": "487 E Main St",
        "address_2": null,
        "address_3": null,
        "city": "Westfield",
        "state_province": "Massachusetts",
        "postal_code": "01085",
        "country": "United States",
        "longitude": "-72.71967336",
        "latitude": "42.11268502",
        "phone": "4136426418",
        "website_url": "http://www.tinbridgebrewing.com",
        "state": "Massachusetts",
        "street": "487 E Main St"
    },
    {
        "id": "6c80e58c-accb-4ea0-9d22-5f2805d2ee01",
        "name": "Tin Cannon Brewing Company",
        "brewery_type": "micro",
        "address_1": "7679 Limestone Dr Ste 130",
        "address_2": null,
        "address_3": null,
        "city": "Gainesville",
        "state_province": "Virginia",
        "postal_code": "20155-4041",
        "country": "United States",
        "longitude": null,
        "latitude": null,
        "phone": "5712480489",
        "website_url": "http://www.tincannonbrewing.com",
        "state": "Virginia",
        "street": "7679 Limestone Dr Ste 130"
    },
    {
        "id": "8b52fa56-8b17-4ed8-b670-0bd3c4b39c2d",
        "name": "Tin Dog Brewing",
        "brewery_type": "micro",
        "address_1": "309 S Cloverdale St Ste A2",
        "address_2": null,
        "address_3": null,
        "city": "Seattle",
        "state_province": "Washington",
        "postal_code": "98108-4500",
        "country": "United States",
        "longitude": "-122.32975510378435",
        "latitude": "47.52599352404168",
        "phone": "2064384257",
        "website_url": "http://www.tindogbrewing.com",
        "state": "Washington",
        "street": "309 S Cloverdale St Ste A2"
    },
    {
        "id": "2fd62d9c-43e9-44a1-88a5-6209f1da84f6",
        "name": "Tin Lizard Brewing Co",
        "brewery_type": "brewpub",
        "address_1": "1000 W Lancaster Ave",
        "address_2": null,
        "address_3": null,
        "city": "Bryn Mawr",
        "state_province": "Pennsylvania",
        "postal_code": "19010-2611",
        "country": "United States",
        "longitude": "-75.322789",
        "latitude": "40.023568",
        "phone": "6105251100",
        "website_url": "http://www.tinlizardbrewingco.com",
        "state": "Pennsylvania",
        "street": "1000 W Lancaster Ave"
    },
    {
        "id": "82a64a53-38c6-4919-9c96-3181b0ce5e99",
        "name": "Tin Man Brewing Company",
        "brewery_type": "micro",
        "address_1": "1430 W Franklin St",
        "address_2": null,
        "address_3": null,
        "city": "Evansville",
        "state_province": "Indiana",
        "postal_code": "47710-1030",
        "country": "United States",
        "longitude": "-87.58452457",
        "latitude": "37.9802897",
        "phone": "8126183227",
        "website_url": "http://www.tinmanbrewing.com",
        "state": "Indiana",
        "street": "1430 W Franklin St"
    },
    {
        "id": "02760ee7-3975-4d69-82ce-fff5d62c0024",
        "name": "Tin Man Brewing Kokomo",
        "brewery_type": "micro",
        "address_1": "500 N Buckeye St Ste A",
        "address_2": null,
        "address_3": null,
        "city": "Kokomo",
        "state_province": "Indiana",
        "postal_code": "46901-4544",
        "country": "United States",
        "longitude": null,
        "latitude": null,
        "phone": "5125176164",
        "website_url": null,
        "state": "Indiana",
        "street": "500 N Buckeye St Ste A"
    },
    {
        "id": "07244546-6ab3-4193-a093-2c5eee31e61f",
        "name": "Tin Mill Brewing Co",
        "brewery_type": "brewpub",
        "address_1": "114 Gutenberg St",
        "address_2": null,
        "address_3": null,
        "city": "Hermann",
        "state_province": "Missouri",
        "postal_code": "65041-1138",
        "country": "United States",
        "longitude": "-91.43303557",
        "latitude": "38.706022",
        "phone": "5734862275",
        "website_url": "http://www.tinmillbrewing.com",
        "state": "Missouri",
        "street": "114 Gutenberg St"
    },
    {
        "id": "f8d441be-c395-485d-bc40-97fb4182e1e4",
        "name": "Tin Roof Brewing Co",
        "brewery_type": "micro",
        "address_1": "1624 Wyoming St",
        "address_2": null,
        "address_3": null,
        "city": "Baton Rouge",
        "state_province": "Louisiana",
        "postal_code": "70802-8514",
        "country": "United States",
        "longitude": "-91.1884332",
        "latitude": "30.419556",
        "phone": "2253777022",
        "website_url": "http://www.tinroofbeer.com",
        "state": "Louisiana",
        "street": "1624 Wyoming St"
    },
    {
        "id": "35b63fae-0c3d-4e39-a21a-6643fc97a1bd",
        "name": "Tin Whiskers Brewing",
        "brewery_type": "micro",
        "address_1": "125 9th St E Unit 127",
        "address_2": null,
        "address_3": null,
        "city": "Saint Paul",
        "state_province": "Minnesota",
        "postal_code": "55101-2308",
        "country": "United States",
        "longitude": null,
        "latitude": null,
        "phone": null,
        "website_url": null,
        "state": "Minnesota",
        "street": "125 9th St E Unit 127"
    },
    {
        "id": "54ccc70d-db3f-4eae-aa75-842df0b1cd29",
        "name": "Tiny Tim's Pizza /West Mountain Brewery",
        "brewery_type": "brewpub",
        "address_1": "21 W Mountain St",
        "address_2": null,
        "address_3": null,
        "city": "Fayetteville",
        "state_province": "Arkansas",
        "postal_code": "72701-6086",
        "country": "United States",
        "longitude": "-94.1602601",
        "latitude": "36.0617393",
        "phone": "4794429090",
        "website_url": "http://www.facebook.com/pg/tinytimspizza",
        "state": "Arkansas",
        "street": "21 W Mountain St"
    },
    {
        "id": "9686860f-5970-4d38-8be8-83b15f36c286",
        "name": "Tioga-Sequoia Brewing Co",
        "brewery_type": "micro",
        "address_1": "746 Broadway St",
        "address_2": null,
        "address_3": null,
        "city": "Fresno",
        "state_province": "California",
        "postal_code": "93721-2808",
        "country": "United States",
        "longitude": "-119.7883079",
        "latitude": "36.73071679",
        "phone": "5592645521",
        "website_url": "http://www.tiogasequoia.com",
        "state": "California",
        "street": "746 Broadway St"
    },
    {
        "id": "45fd5e31-0d8e-4f20-be9b-673df9f03a52",
        "name": "Tired Hands Brewing Co",
        "brewery_type": "brewpub",
        "address_1": "16 Ardmore Ave",
        "address_2": null,
        "address_3": null,
        "city": "Ardmore",
        "state_province": "Pennsylvania",
        "postal_code": "19003-1302",
        "country": "United States",
        "longitude": "-75.2936914",
        "latitude": "40.0086029",
        "phone": "6108967621",
        "website_url": "http://www.tiredhands.com",
        "state": "Pennsylvania",
        "street": "16 Ardmore Ave"
    },
    {
        "id": "b847ebf5-148f-4e38-b05a-cd3771965cd0",
        "name": "Tired Hands Brewing Co",
        "brewery_type": "brewpub",
        "address_1": "35 S Cricket Ter",
        "address_2": null,
        "address_3": null,
        "city": "Ardmore",
        "state_province": "Pennsylvania",
        "postal_code": "19003-2203",
        "country": "United States",
        "longitude": "-75.29076729",
        "latitude": "40.00683337",
        "phone": "4844132983",
        "website_url": "http://www.tiredhands.com",
        "state": "Pennsylvania",
        "street": "35 S Cricket Ter"
    },
    {
        "id": "d60006b3-34eb-46e4-acd3-62a773d980ad",
        "name": "Titanic Brewing Co",
        "brewery_type": "brewpub",
        "address_1": "5813 Ponce de Leon Blvd",
        "address_2": null,
        "address_3": null,
        "city": "Miami",
        "state_province": "Florida",
        "postal_code": "33146-2422",
        "country": "United States",
        "longitude": "-80.271314",
        "latitude": "25.719812",
        "phone": "3056672537",
        "website_url": "http://www.titanicbrewery.com",
        "state": "Florida",
        "street": "5813 Ponce de Leon Blvd"
    },
    {
        "id": "ae5e5f5f-b96d-4251-880c-ae129319e48f",
        "name": "Titletown Brewing Co",
        "brewery_type": "brewpub",
        "address_1": "200 Dousman St",
        "address_2": null,
        "address_3": null,
        "city": "Green Bay",
        "state_province": "Wisconsin",
        "postal_code": "54303-2712",
        "country": "United States",
        "longitude": "-88.018517",
        "latitude": "44.51892",
        "phone": "9204372337",
        "website_url": "http://www.titletownbrewing.com",
        "state": "Wisconsin",
        "street": "200 Dousman St"
    },
    {
        "id": "854e59da-10fb-4e4d-bd4b-e2b8255bc308",
        "name": "Tivoli Brewing Company",
        "brewery_type": "micro",
        "address_1": "900 Auraria Pkwy Unit 240",
        "address_2": null,
        "address_3": null,
        "city": "Denver",
        "state_province": "Colorado",
        "postal_code": "80204-1897",
        "country": "United States",
        "longitude": null,
        "latitude": null,
        "phone": "3035826039",
        "website_url": null,
        "state": "Colorado",
        "street": "900 Auraria Pkwy Unit 240"
    },
    {
        "id": "3fe64caf-3ed4-4954-b585-e2902ad820b5",
        "name": "TKO Libations",
        "brewery_type": "micro",
        "address_1": "2520 King Arthur Blvd Ste 109",
        "address_2": null,
        "address_3": null,
        "city": "Lewisville",
        "state_province": "Texas",
        "postal_code": "75056-6082",
        "country": "United States",
        "longitude": null,
        "latitude": null,
        "phone": "4696302337",
        "website_url": "http://www.tkolibations.com",
        "state": "Texas",
        "street": "2520 King Arthur Blvd Ste 109"
    },
    {
        "id": "96c943e8-92bb-48bd-8cd0-bb818ea3145b",
        "name": "To Share Brewing Company",
        "brewery_type": "planning",
        "address_1": null,
        "address_2": null,
        "address_3": null,
        "city": "Manchester",
        "state_province": "New Hampshire",
        "postal_code": "03104",
        "country": "United States",
        "longitude": null,
        "latitude": null,
        "phone": "3012376579",
        "website_url": "http://www.tosharebrewing.com",
        "state": "New Hampshire",
        "street": null
    },
    {
        "id": "f8dc2368-d963-4d93-9a24-208a6d07c87f",
        "name": "Toast Ale",
        "brewery_type": "contract",
        "address_1": "601 W 26th St Ste 325-291",
        "address_2": null,
        "address_3": null,
        "city": "New York",
        "state_province": "New York",
        "postal_code": "10001-1101",
        "country": "United States",
        "longitude": null,
        "latitude": null,
        "phone": "9162023851",
        "website_url": "http://www.toastale.com/us",
        "state": "New York",
        "street": "601 W 26th St Ste 325-291"
    },
    {
        "id": "93662afa-d0a7-48c1-a7b8-a81ca37c5594",
        "name": "Toasted Barrel Brewery",
        "brewery_type": "closed",
        "address_1": null,
        "address_2": null,
        "address_3": null,
        "city": "salt lake city",
        "state_province": "Utah",
        "postal_code": "84103",
        "country": "United States",
        "longitude": "-111.903198",
        "latitude": "40.782833",
        "phone": "8016576942",
        "website_url": "http://www.toastedbarrelbrewery.com",
        "state": "Utah",
        "street": null
    },
    {
        "id": "70b7d406-90d7-460e-b473-9bfa759cb53f",
        "name": "Tobacco Road Brewery",
        "brewery_type": "brewpub",
        "address_1": "505 W Jones St",
        "address_2": null,
        "address_3": null,
        "city": "Raleigh",
        "state_province": "North Carolina",
        "postal_code": "27603-1428",
        "country": "United States",
        "longitude": "-78.64598965",
        "latitude": "35.78269753",
        "phone": "9193018793",
        "website_url": "http://www.tobaccoroadsportscafe.com",
        "state": "North Carolina",
        "street": "505 W Jones St"
    },
    {
        "id": "dbdef60f-fa3c-42a4-8536-5b4c85c946b9",
        "name": "Tobacco Wood Brewing Company",
        "brewery_type": "planning",
        "address_1": null,
        "address_2": null,
        "address_3": null,
        "city": "Oxford",
        "state_province": "North Carolina",
        "postal_code": "27565",
        "country": "United States",
        "longitude": null,
        "latitude": null,
        "phone": "9199391909",
        "website_url": null,
        "state": "North Carolina",
        "street": null
    },
    {
        "id": "eb6b9afe-8efc-4179-ac49-1c46c7ef29a0",
        "name": "Tocayo Brewing Company",
        "brewery_type": "contract",
        "address_1": "1 S Dearborn St Ste 1700",
        "address_2": null,
        "address_3": null,
        "city": "Chicago",
        "state_province": "Illinois",
        "postal_code": "60603-2308",
        "country": "United States",
        "longitude": null,
        "latitude": null,
        "phone": "3122592189",
        "website_url": null,
        "state": "Illinois",
        "street": "1 S Dearborn St Ste 1700"
    },
    {
        "id": "910f6318-1536-4e84-b0b8-bb5f1ce9f787",
        "name": "Toltec Brewing Co",
        "brewery_type": "brewpub",
        "address_1": "10250 Cottonwood Park NW # S",
        "address_2": null,
        "address_3": null,
        "city": "Albuquerque",
        "state_province": "New Mexico",
        "postal_code": "87114-7018",
        "country": "United States",
        "longitude": null,
        "latitude": null,
        "phone": "5057307982",
        "website_url": null,
        "state": "New Mexico",
        "street": "10250 Cottonwood Park NW # S"
    },
    {
        "id": "c947eb60-863c-4676-9961-6c52ba387fb9",
        "name": "Tom's Urban Kitchen and Brewery",
        "brewery_type": "planning",
        "address_1": null,
        "address_2": null,
        "address_3": null,
        "city": "Denver",
        "state_province": "Colorado",
        "postal_code": "80249-6310",
        "country": "United States",
        "longitude": null,
        "latitude": null,
        "phone": "3035826039",
        "website_url": null,
        "state": "Colorado",
        "street": null
    },
    {
        "id": "47df5771-9c01-422d-82f6-98a5d2e4e246",
        "name": "Tombstone Brewing Company",
        "brewery_type": "micro",
        "address_1": "107 E Toughnut",
        "address_2": null,
        "address_3": null,
        "city": "Tombstone",
        "state_province": "Arizona",
        "postal_code": "85638",
        "country": "United States",
        "longitude": "-110.0722818",
        "latitude": "31.71360268",
        "phone": "5202226781",
        "website_url": "http://www.tombstone.beer",
        "state": "Arizona",
        "street": "107 E Toughnut"
    },
    {
        "id": "60b5deda-ae21-44bc-834d-86c7df2a5f83",
        "name": "Tomfoolery Brewing",
        "brewery_type": "micro",
        "address_1": "334 N Washington St Unit 24B",
        "address_2": null,
        "address_3": null,
        "city": "Hammonton",
        "state_province": "New Jersey",
        "postal_code": "08037-1558",
        "country": "United States",
        "longitude": null,
        "latitude": null,
        "phone": "6095611762",
        "website_url": "http://www.tomfoolerybrewing.beer",
        "state": "New Jersey",
        "street": "334 N Washington St Unit 24B"
    },
    {
        "id": "7defa30d-bf4d-43e3-a824-6a9535cee2ea",
        "name": "Tommyknocker Brewery & Pub",
        "brewery_type": "micro",
        "address_1": "1401 Miner St",
        "address_2": null,
        "address_3": null,
        "city": "Idaho Springs",
        "state_province": "Colorado",
        "postal_code": "80452",
        "country": "United States",
        "longitude": "-105.5176775",
        "latitude": "39.7417505",
        "phone": "3035674419",
        "website_url": "http://www.tommyknocker.com",
        "state": "Colorado",
        "street": "1401 Miner St"
    },
    {
        "id": "ef25ed7b-5311-45d7-ad82-42e4f7714d2c",
        "name": "Tomoka Brewing Company",
        "brewery_type": "brewpub",
        "address_1": "4647 Clyde Morris Blvd Unit 504",
        "address_2": null,
        "address_3": null,
        "city": "Port Orange",
        "state_province": "Florida",
        "postal_code": "32129-3001",
        "country": "United States",
        "longitude": null,
        "latitude": null,
        "phone": "3862564979",
        "website_url": "http://www.tomokabrewingco.com",
        "state": "Florida",
        "street": "4647 Clyde Morris Blvd Unit 504"
    },
    {
        "id": "d388e05d-ba66-4a1e-bb23-67ed7c4890d1",
        "name": "Tonewood Brewing",
        "brewery_type": "micro",
        "address_1": "215 W Clinton Ave",
        "address_2": null,
        "address_3": null,
        "city": "Oaklyn",
        "state_province": "New Jersey",
        "postal_code": "08107-1500",
        "country": "United States",
        "longitude": "-75.08338058",
        "latitude": "39.90139895",
        "phone": "8568331500",
        "website_url": "http://www.tonewoodbrewing.com",
        "state": "New Jersey",
        "street": "215 W Clinton Ave"
    },
    {
        "id": "3c0588bd-7fd2-469c-98cb-778653502107",
        "name": "Tonopah Brewing Co",
        "brewery_type": "brewpub",
        "address_1": "315 S Main St",
        "address_2": null,
        "address_3": null,
        "city": "Tonopah",
        "state_province": "Nevada",
        "postal_code": "89049",
        "country": "United States",
        "longitude": "-117.2319823",
        "latitude": "38.07035024",
        "phone": "7754822000",
        "website_url": "http://www.tonopahbrewing.com",
        "state": "Nevada",
        "street": "315 S Main St"
    },
    {
        "id": "15b37ef1-84bf-4c80-ba2e-74123482d2a1",
        "name": "Toolbox Brewing Company",
        "brewery_type": "micro",
        "address_1": "1495 Poinsettia Ave Ste 148",
        "address_2": null,
        "address_3": null,
        "city": "Vista",
        "state_province": "California",
        "postal_code": "92081-8539",
        "country": "United States",
        "longitude": "-117.2239733",
        "latitude": "33.13599334",
        "phone": "7605981477",
        "website_url": "http://Toolboxbrewing.Com",
        "state": "California",
        "street": "1495 Poinsettia Ave Ste 148"
    },
    {
        "id": "84c1e0e9-5adc-423b-a1db-08bc1d946412",
        "name": "Tootsie's Brewery / Lone Oak Vineyard",
        "brewery_type": "brewpub",
        "address_1": "8400 Ann Arbor Rd",
        "address_2": null,
        "address_3": null,
        "city": "Grass Lake",
        "state_province": "Michigan",
        "postal_code": "49240-9586",
        "country": "United States",
        "longitude": null,
        "latitude": null,
        "phone": "5175228167",
        "website_url": "http://www.tootsiesbrewery.com",
        "state": "Michigan",
        "street": "8400 Ann Arbor Rd"
    },
    {
        "id": "cfee19cf-73ea-4a7e-9037-1105b4dbecd8",
        "name": "Top Frog Brewery",
        "brewery_type": "micro",
        "address_1": "221 Vista Dr",
        "address_2": null,
        "address_3": null,
        "city": "Newport",
        "state_province": "Washington",
        "postal_code": "99156-7014",
        "country": "United States",
        "longitude": "-117.16077576379267",
        "latitude": "48.313106841940595",
        "phone": "5096712884",
        "website_url": null,
        "state": "Washington",
        "street": "221 Vista Dr"
    },
    {
        "id": "7b2fe435-2c61-4045-a631-c87c309ca8c2",
        "name": "Uranus Brewery",
        "brewery_type": "planning",
        "address_1": null,
        "address_2": null,
        "address_3": null,
        "city": "Saint Robert",
        "state_province": "Missouri",
        "postal_code": "65584",
        "country": "United States",
        "longitude": null,
        "latitude": null,
        "phone": "5735282924",
        "website_url": "http://www.UranusMissouri.com",
        "state": "Missouri",
        "street": null
    },
    {
        "id": "e498ccee-c405-451c-b27d-1426970983dc",
        "name": "Top Of The Hill Restaurant and Brewery",
        "brewery_type": "brewpub",
        "address_1": "100 E Franklin St Ste F",
        "address_2": null,
        "address_3": null,
        "city": "Chapel Hill",
        "state_province": "North Carolina",
        "postal_code": "27514-3629",
        "country": "United States",
        "longitude": null,
        "latitude": null,
        "phone": "9199298676",
        "website_url": "http://www.thetopofthehill.com",
        "state": "North Carolina",
        "street": "100 E Franklin St Ste F"
    },
    {
        "id": "3288ac09-54e4-46bb-bb90-89a6276a206e",
        "name": "Top Rung Brewing Company",
        "brewery_type": "micro",
        "address_1": "8343 Hogum Bay Ln NE Ste E",
        "address_2": null,
        "address_3": null,
        "city": "Lacey",
        "state_province": "Washington",
        "postal_code": "98516-3135",
        "country": "United States",
        "longitude": "-122.76341099215438",
        "latitude": "47.07590480427308",
        "phone": "3609158766",
        "website_url": "http://www.toprungbrewing.com",
        "state": "Washington",
        "street": "8343 Hogum Bay Ln NE Ste E"
    },
    {
        "id": "781b62b5-1009-4bd0-97af-7287c2a69627",
        "name": "Topa Topa Brewing Co",
        "brewery_type": "micro",
        "address_1": "104 E Thompson Blvd",
        "address_2": null,
        "address_3": null,
        "city": "Ventura",
        "state_province": "California",
        "postal_code": "93001-2723",
        "country": "United States",
        "longitude": "-119.2994446",
        "latitude": "34.2781592",
        "phone": "8056289255",
        "website_url": "http://www.topatopabrewingco.com",
        "state": "California",
        "street": "104 E Thompson Blvd"
    },
    {
        "id": "8ef9610b-bda9-4703-8205-34bcbac4cedf",
        "name": "Toppling Goliath Brewing Co",
        "brewery_type": "micro",
        "address_1": "1600 Prosperity Rd",
        "address_2": null,
        "address_3": null,
        "city": "Decorah",
        "state_province": "Iowa",
        "postal_code": "52101-7892",
        "country": "United States",
        "longitude": "-91.7250841",
        "latitude": "43.2727293",
        "phone": "5633826198",
        "website_url": "http://www.tgbrews.com",
        "state": "Iowa",
        "street": "1600 Prosperity Rd"
    },
    {
        "id": "4497e1be-0cb7-4778-90ff-a910b56659e3",
        "name": "Topsy Turvy",
        "brewery_type": "planning",
        "address_1": null,
        "address_2": null,
        "address_3": null,
        "city": "Hampshire",
        "state_province": "Illinois",
        "postal_code": "60140-9449",
        "country": "United States",
        "longitude": null,
        "latitude": null,
        "phone": "8477787070",
        "website_url": null,
        "state": "Illinois",
        "street": null
    },
    {
        "id": "d13d0b82-f800-4d2c-b631-f614e314d910",
        "name": "Topsy's",
        "brewery_type": "brewpub",
        "address_1": "260 Kearny St",
        "address_2": null,
        "address_3": null,
        "city": "San Francisco",
        "state_province": "California",
        "postal_code": "94108-4538",
        "country": "United States",
        "longitude": "-122.4038779",
        "latitude": "37.79052614",
        "phone": "4157570290",
        "website_url": "http://www.topsyssf.com",
        "state": "California",
        "street": "260 Kearny St"
    },
    {
        "id": "0cd8d2ab-c637-4f3f-b135-5d510fae588d",
        "name": "Torc Brewing",
        "brewery_type": "micro",
        "address_1": "JD Industrial Park",
        "address_2": "Scart",
        "address_3": null,
        "city": "Killarney",
        "state_province": "Kerry",
        "postal_code": "V93 H761",
        "country": "Ireland",
        "longitude": "-9.5564852",
        "latitude": "52.1402528",
        "phone": "353876595858",
        "website_url": "http://www.torcbrewing.ie/",
        "state": "Kerry",
        "street": "JD Industrial Park"
    },
    {
        "id": "d9c48be3-cc34-4624-b4c9-f5dfc04bb240",
        "name": "Torched Hop Brewing Company",
        "brewery_type": "brewpub",
        "address_1": "249 Ponce de Leon Ave NE",
        "address_2": null,
        "address_3": null,
        "city": "Atlanta",
        "state_province": "Georgia",
        "postal_code": "30308-1937",
        "country": "United States",
        "longitude": "-84.37929776",
        "latitude": "33.77232605",
        "phone": "4048352040",
        "website_url": "http://www.Torchedhopbrewing.com",
        "state": "Georgia",
        "street": "249 Ponce de Leon Ave NE"
    },
    {
        "id": "93271344-d85f-41c0-89f1-f57daf704d4c",
        "name": "Torg Brewery",
        "brewery_type": "planning",
        "address_1": null,
        "address_2": null,
        "address_3": null,
        "city": "Minneapolis",
        "state_province": "Minnesota",
        "postal_code": "55432",
        "country": "United States",
        "longitude": null,
        "latitude": null,
        "phone": "7636390539",
        "website_url": "http://www.torgbrewery.com",
        "state": "Minnesota",
        "street": null
    },
    {
        "id": "be539c44-e3bf-4344-af13-7d3daf10a539",
        "name": "Torn Label Brewing Company",
        "brewery_type": "micro",
        "address_1": "1708 Campbell St",
        "address_2": null,
        "address_3": null,
        "city": "Kansas City",
        "state_province": "Missouri",
        "postal_code": "64108-1524",
        "country": "United States",
        "longitude": "-94.5731695",
        "latitude": "39.0926934",
        "phone": "8166565459",
        "website_url": "http://www.tornlabel.com",
        "state": "Missouri",
        "street": "1708 Campbell St"
    },
    {
        "id": "53beda27-334d-46d5-8cb5-7336cc42f7b7",
        "name": "Toro Creek Brewing Co",
        "brewery_type": "micro",
        "address_1": "1111 Riverside Ave, Ste 103",
        "address_2": null,
        "address_3": null,
        "city": "Paso Robles",
        "state_province": "California",
        "postal_code": "93446",
        "country": "United States",
        "longitude": "-120.6872603",
        "latitude": "35.6262455",
        "phone": "8055507007",
        "website_url": "http://www.torocreekbrewingcompany.com",
        "state": "California",
        "street": "1111 Riverside Ave, Ste 103"
    },
    {
        "id": "542910b2-3af4-4b62-b5d4-d8edf440cd1a",
        "name": "Torrent Brewing Co",
        "brewery_type": "micro",
        "address_1": "504 Burnett Ave",
        "address_2": null,
        "address_3": null,
        "city": "Ames",
        "state_province": "Iowa",
        "postal_code": "50010-6178",
        "country": "United States",
        "longitude": "-93.61526616",
        "latitude": "42.02605341",
        "phone": "5152333155",
        "website_url": "http://www.torrentbrewingco.com",
        "state": "Iowa",
        "street": "504 Burnett Ave"
    },
    {
        "id": "543f9be5-b99f-4537-a641-67ecc55ca1a8",
        "name": "Tortugo Brewing Company",
        "brewery_type": "planning",
        "address_1": null,
        "address_2": null,
        "address_3": null,
        "city": "Inglewood",
        "state_province": "California",
        "postal_code": "90302-3308",
        "country": "United States",
        "longitude": "-118.3550377",
        "latitude": "33.96185",
        "phone": null,
        "website_url": null,
        "state": "California",
        "street": null
    },
    {
        "id": "8ee26476-e33e-4940-95f9-75bb761d5324",
        "name": "Touchstone Brewing Company",
        "brewery_type": "planning",
        "address_1": null,
        "address_2": null,
        "address_3": null,
        "city": "Sacramento",
        "state_province": "California",
        "postal_code": "95811-0618",
        "country": "United States",
        "longitude": "-121.4943996",
        "latitude": "38.5815719",
        "phone": "4155701391",
        "website_url": null,
        "state": "California",
        "street": null
    },
    {
        "id": "8768b214-ee24-40b3-b4cb-1b03862eabb8",
        "name": "Tower Brewing Co",
        "brewery_type": "micro",
        "address_1": "1210 66th St Unit B",
        "address_2": null,
        "address_3": null,
        "city": "Sacramento",
        "state_province": "California",
        "postal_code": "95819-4327",
        "country": "United States",
        "longitude": "-121.4266488",
        "latitude": "38.55493463",
        "phone": "9162724472",
        "website_url": "http://towerbrewingcompany.com",
        "state": "California",
        "street": "1210 66th St Unit B"
    },
    {
        "id": "594a7d7b-1885-4697-863e-5d60203b8a8a",
        "name": "Towerhill Brewery",
        "brewery_type": "brewpub",
        "address_1": "237 W Butler Ave",
        "address_2": null,
        "address_3": null,
        "city": "Chalfont",
        "state_province": "Pennsylvania",
        "postal_code": "18914-3020",
        "country": "United States",
        "longitude": "-75.21378231",
        "latitude": "40.27984378",
        "phone": "2158228788",
        "website_url": "http://www.towerhillbrewery.com",
        "state": "Pennsylvania",
        "street": "237 W Butler Ave"
    },
    {
        "id": "16260ec1-907c-4e9b-bbac-ed70973e1ed2",
        "name": "Town Branch Distillery",
        "brewery_type": "micro",
        "address_1": "401 Cross St",
        "address_2": null,
        "address_3": null,
        "city": "Lexington",
        "state_province": "Kentucky",
        "postal_code": "40508",
        "country": "United States",
        "longitude": "-84.50889213",
        "latitude": "38.04997369",
        "phone": "8592552337",
        "website_url": null,
        "state": "Kentucky",
        "street": "401 Cross St"
    },
    {
        "id": "24a7dd60-ad86-43d3-84ae-1e51aaf6d7f9",
        "name": "Town In City Brewing Co, LLC",
        "brewery_type": "micro",
        "address_1": "1125 W Cavalcade St",
        "address_2": null,
        "address_3": null,
        "city": "Houston",
        "state_province": "Texas",
        "postal_code": "77009-2907",
        "country": "United States",
        "longitude": "-95.3870438",
        "latitude": "29.8036158",
        "phone": "8328347151",
        "website_url": "http://townincitybrewing.com",
        "state": "Texas",
        "street": "1125 W Cavalcade St"
    },
    {
        "id": "82f645a5-0677-4e18-af76-30c25e84ad88",
        "name": "Towne Park Brew Co",
        "brewery_type": "closed",
        "address_1": "19191 Lawrence Cyn",
        "address_2": null,
        "address_3": null,
        "city": "Silverado",
        "state_province": "California",
        "postal_code": "92676-9731",
        "country": "United States",
        "longitude": "-117.6243323",
        "latitude": "33.68926191",
        "phone": "9496473562",
        "website_url": "http://www.towneparkbrew.com",
        "state": "California",
        "street": "19191 Lawrence Cyn"
    },
    {
        "id": "8e300f8a-fce3-446f-bbb4-aac35ff1a08e",
        "name": "Townies Brewery",
        "brewery_type": "brewpub",
        "address_1": "2350 W Liberty Rd",
        "address_2": null,
        "address_3": null,
        "city": "Ann Arbor",
        "state_province": "Michigan",
        "postal_code": "48103",
        "country": "United States",
        "longitude": "-83.7891745",
        "latitude": "42.2730356",
        "phone": null,
        "website_url": null,
        "state": "Michigan",
        "street": "2350 W Liberty Rd"
    },
    {
        "id": "5929b669-4b2a-4369-bbbd-fff26a936c19",
        "name": "Township 7 Brewing Co. LLC",
        "brewery_type": "micro",
        "address_1": "303 State Route 11b",
        "address_2": null,
        "address_3": null,
        "city": "Dickinson Center",
        "state_province": "New York",
        "postal_code": "12930-2008",
        "country": "United States",
        "longitude": null,
        "latitude": null,
        "phone": "5186519532",
        "website_url": "http://www.township7brewing.com",
        "state": "New York",
        "street": "303 State Route 11b"
    },
    {
        "id": "094745e6-3b1e-4549-a2db-76bf222e4561",
        "name": "Tox Brewing Company",
        "brewery_type": "planning",
        "address_1": null,
        "address_2": null,
        "address_3": null,
        "city": "New London",
        "state_province": "Connecticut",
        "postal_code": "06320",
        "country": "United States",
        "longitude": null,
        "latitude": null,
        "phone": null,
        "website_url": "http://www.toxbrewing.com",
        "state": "Connecticut",
        "street": null
    },
    {
        "id": "f1f9309d-bf1e-4b7a-95b8-ea3505cad878",
        "name": "Toxic Brew Company",
        "brewery_type": "brewpub",
        "address_1": "431 E 5th St",
        "address_2": null,
        "address_3": null,
        "city": "Dayton",
        "state_province": "Ohio",
        "postal_code": "45402-2911",
        "country": "United States",
        "longitude": "-84.1843655",
        "latitude": "39.75724887",
        "phone": "9379853618",
        "website_url": "http://www.toxicbrewcompany.com",
        "state": "Ohio",
        "street": "431 E 5th St"
    },
    {
        "id": "9c82613b-d6ae-43bf-bd12-c00b05058fde",
        "name": "Toy Soldier",
        "brewery_type": "brewpub",
        "address_1": "52 Belden Pl",
        "address_2": null,
        "address_3": null,
        "city": "San Francisco",
        "state_province": "California",
        "postal_code": "94104",
        "country": "United States",
        "longitude": "-122.403671",
        "latitude": "37.79129781",
        "phone": "4159069048",
        "website_url": "http://www.toysoldiersf.com",
        "state": "California",
        "street": "52 Belden Pl"
    },
    {
        "id": "9c55c622-8dbc-40ff-bfda-02e71952c2fc",
        "name": "Trace Brewing",
        "brewery_type": "planning",
        "address_1": null,
        "address_2": null,
        "address_3": null,
        "city": "Nashville",
        "state_province": "Tennessee",
        "postal_code": "37221-3967",
        "country": "United States",
        "longitude": null,
        "latitude": null,
        "phone": null,
        "website_url": null,
        "state": "Tennessee",
        "street": null
    },
    {
        "id": "34596a5d-9c0a-4b73-943d-e50b5cf07dbf",
        "name": "Track 7 Brewing Co - Curtis Park",
        "brewery_type": "micro",
        "address_1": "3747 W Pacific Ave Ste F",
        "address_2": null,
        "address_3": null,
        "city": "Sacramento",
        "state_province": "California",
        "postal_code": "95820-1000",
        "country": "United States",
        "longitude": "-121.4819794",
        "latitude": "38.53890682",
        "phone": "9165204677",
        "website_url": "http://www.track7brewing.com",
        "state": "California",
        "street": "3747 W Pacific Ave Ste F"
    },
    {
        "id": "e2b7686b-885a-4114-b895-681557275183",
        "name": "Track 7 Brewing Co - Natomas",
        "brewery_type": "micro",
        "address_1": "826 Professor Ln Ste 100",
        "address_2": null,
        "address_3": null,
        "city": "Sacramento",
        "state_province": "California",
        "postal_code": "95834-7743",
        "country": "United States",
        "longitude": "-121.4908802",
        "latitude": "38.6543681",
        "phone": "9165204677",
        "website_url": null,
        "state": "California",
        "street": "826 Professor Ln Ste 100"
    },
    {
        "id": "373559ad-c964-477c-a443-f0531e3f78b0",
        "name": "Tractor Brewing Co",
        "brewery_type": "micro",
        "address_1": "1800 4th St NW",
        "address_2": null,
        "address_3": null,
        "city": "Albuquerque",
        "state_province": "New Mexico",
        "postal_code": "87102-1426",
        "country": "United States",
        "longitude": "-106.6478962",
        "latitude": "35.1022749",
        "phone": "5052436752",
        "website_url": "http://www.getplowed.com",
        "state": "New Mexico",
        "street": "1800 4th St NW"
    },
    {
        "id": "2f9d7258-dbf0-44b0-bb2f-9b0cd5ad590d",
        "name": "TractorLift Brewery",
        "brewery_type": "micro",
        "address_1": "708 Sumner Ave",
        "address_2": null,
        "address_3": null,
        "city": "Humboldt",
        "state_province": "Iowa",
        "postal_code": "50548-1763",
        "country": "United States",
        "longitude": "-94.21895665",
        "latitude": "42.72094547",
        "phone": "5158909484",
        "website_url": null,
        "state": "Iowa",
        "street": "708 Sumner Ave"
    },
    {
        "id": "53f445a3-9f37-4357-a421-899ee1a1b99a",
        "name": "Trade Brewing",
        "brewery_type": "micro",
        "address_1": "731 1st St",
        "address_2": null,
        "address_3": null,
        "city": "Napa",
        "state_province": "California",
        "postal_code": "94559-2624",
        "country": "United States",
        "longitude": "-122.2821838",
        "latitude": "38.30073396",
        "phone": "7074928223",
        "website_url": "http://www.tradebrewing.com",
        "state": "California",
        "street": "731 1st St"
    },
    {
        "id": "d98dcb64-5f67-4815-84c0-5bb77228fd57",
        "name": "Trader Joes - West Coast Office",
        "brewery_type": "contract",
        "address_1": "800 S. Shamrock Ave",
        "address_2": null,
        "address_3": null,
        "city": "Monrovia",
        "state_province": "California",
        "postal_code": "91016",
        "country": "United States",
        "longitude": null,
        "latitude": null,
        "phone": "6265993700",
        "website_url": null,
        "state": "California",
        "street": "800 S. Shamrock Ave"
    },
    {
        "id": "4e2d1963-f8b7-4680-b972-97de485bbbf9",
        "name": "Traders Brewing Company",
        "brewery_type": "micro",
        "address_1": "8587  ZIONSVILLE ROAD",
        "address_2": null,
        "address_3": null,
        "city": "INDIANAPOLIS",
        "state_province": "Indiana",
        "postal_code": "46268",
        "country": "United States",
        "longitude": null,
        "latitude": null,
        "phone": "3172807505",
        "website_url": "http://www.tradersbrewingcompany.com",
        "state": "Indiana",
        "street": "8587  ZIONSVILLE ROAD"
    },
    {
        "id": "f441dad2-da0b-43b0-86e6-5fc1cc720c2d",
        "name": "Tradesman Brewing Company",
        "brewery_type": "micro",
        "address_1": "1639 Tatum St",
        "address_2": null,
        "address_3": null,
        "city": "Charleston",
        "state_province": "South Carolina",
        "postal_code": "29412-2646",
        "country": "United States",
        "longitude": "-79.97321382",
        "latitude": "32.76013923",
        "phone": "8434101315",
        "website_url": "http://www.tradesmanbrewing.com",
        "state": "South Carolina",
        "street": "1639 Tatum St"
    },
    {
        "id": "c05a5aeb-acfe-454b-8596-b04edddf1bc5",
        "name": "Tradition Brewing Company",
        "brewery_type": "micro",
        "address_1": "700 Thimble Shoals Blvd Ste 103",
        "address_2": null,
        "address_3": null,
        "city": "Newport News",
        "state_province": "Virginia",
        "postal_code": "23606-4532",
        "country": "United States",
        "longitude": "-76.4770317",
        "latitude": "37.0845471",
        "phone": "7575929393",
        "website_url": "http://www.traditionbrewing.com",
        "state": "Virginia",
        "street": "700 Thimble Shoals Blvd Ste 103"
    },
    {
        "id": "9a256c21-3a8b-480b-9cb5-fc52084fedca",
        "name": "Traffic Jam and Snug",
        "brewery_type": "brewpub",
        "address_1": "4268 2nd Ave",
        "address_2": null,
        "address_3": null,
        "city": "Detroit",
        "state_province": "Michigan",
        "postal_code": "48201-1706",
        "country": "United States",
        "longitude": "-83.086546",
        "latitude": "42.384371",
        "phone": "3138319470",
        "website_url": "http://www.trafficjamdetroit.com",
        "state": "Michigan",
        "street": "4268 2nd Ave"
    },
    {
        "id": "0f1ed8ab-a282-40c9-8a58-1dfc03e7ce6f",
        "name": "Trail Crest Brewing Company",
        "brewery_type": "brewpub",
        "address_1": "1800 S Milton Rd Ste 11",
        "address_2": null,
        "address_3": null,
        "city": "Flagstaff",
        "state_province": "Arizona",
        "postal_code": "86001",
        "country": "United States",
        "longitude": null,
        "latitude": null,
        "phone": "9284405085",
        "website_url": "http://www.trailcrestbrewing.com",
        "state": "Arizona",
        "street": "1800 S Milton Rd Ste 11"
    },
    {
        "id": "abcd1ceb-8283-4d5f-aeb9-bda3778067c7",
        "name": "Trail Dog Brewing Co.",
        "brewery_type": "planning",
        "address_1": null,
        "address_2": null,
        "address_3": null,
        "city": "Novato",
        "state_province": "California",
        "postal_code": "94945-3318",
        "country": "United States",
        "longitude": "-122.5681191",
        "latitude": "38.1061979",
        "phone": "4157580411",
        "website_url": "http://traildogbrewing.com",
        "state": "California",
        "street": null
    },
    {
        "id": "4ed098f5-5ff6-40b9-b238-538961222e90",
        "name": "Trail Point Brewing Co.",
        "brewery_type": "micro",
        "address_1": "6035 Lake Michigan Dr",
        "address_2": null,
        "address_3": null,
        "city": "Allendale",
        "state_province": "Michigan",
        "postal_code": "49401-9101",
        "country": "United States",
        "longitude": "-85.93541536",
        "latitude": "42.97207782",
        "phone": "6168952739",
        "website_url": "http://www.trailpointbrewing.com",
        "state": "Michigan",
        "street": "6035 Lake Michigan Dr"
    },
    {
        "id": "64e8e735-2d18-48d8-8dbd-f6729513da71",
        "name": "Trailhead Brewing Co",
        "brewery_type": "closed",
        "address_1": "921 S Riverside Dr",
        "address_2": null,
        "address_3": null,
        "city": "Saint Charles",
        "state_province": "Missouri",
        "postal_code": "63301-3489",
        "country": "United States",
        "longitude": "-90.48424843",
        "latitude": "38.77419057",
        "phone": "6369462739",
        "website_url": "http://www.trailheadbrewing.com",
        "state": "Missouri",
        "street": "921 S Riverside Dr"
    },
    {
        "id": "c9f36d18-efb4-419c-8acf-b4598bbf2326",
        "name": "Transient Artisan Ales",
        "brewery_type": "micro",
        "address_1": "4229 Lake St",
        "address_2": null,
        "address_3": null,
        "city": "Bridgman",
        "state_province": "Michigan",
        "postal_code": "49106-9109",
        "country": "United States",
        "longitude": "-86.55570937",
        "latitude": "41.94299804",
        "phone": null,
        "website_url": null,
        "state": "Michigan",
        "street": "4229 Lake St"
    },
    {
        "id": "477bfcda-4e96-4f41-a17b-3b1d0407eae0",
        "name": "Transmission Brewing Company",
        "brewery_type": "planning",
        "address_1": null,
        "address_2": null,
        "address_3": null,
        "city": "Oxnard",
        "state_province": "California",
        "postal_code": "93030-8231",
        "country": "United States",
        "longitude": "-119.1803818",
        "latitude": "34.1976308",
        "phone": "8054076133",
        "website_url": "http://jonkercarey@gmail.com",
        "state": "California",
        "street": null
    },
    {
        "id": "145e08e2-df7d-4dfb-a67d-d4f342e9aa6d",
        "name": "Transmitter Brewing",
        "brewery_type": "micro",
        "address_1": "5302 11th St",
        "address_2": null,
        "address_3": null,
        "city": "Long Island City",
        "state_province": "New York",
        "postal_code": "11101-5917",
        "country": "United States",
        "longitude": "-73.9511062",
        "latitude": "40.7431826",
        "phone": "6463788529",
        "website_url": "http://www.transmitterbrew.com",
        "state": "New York",
        "street": "5302 11th St"
    },
    {
        "id": "1fd4733e-3c00-46a6-a358-36877f23cc09",
        "name": "Transparent Brewing Company",
        "brewery_type": "micro",
        "address_1": "14501 White Ave",
        "address_2": null,
        "address_3": null,
        "city": "Grandview",
        "state_province": "Missouri",
        "postal_code": "64030",
        "country": "United States",
        "longitude": "-94.525651",
        "latitude": "38.893126",
        "phone": "8164998888",
        "website_url": "http://www.transparentbrewingcompany.com",
        "state": "Missouri",
        "street": "14501 White Ave"
    },
    {
        "id": "dcc8e5fc-a531-4bed-be1f-c5ae640053e0",
        "name": "Transplants Brewing Company",
        "brewery_type": "micro",
        "address_1": "40242 La Quinta Ln Ste 101",
        "address_2": null,
        "address_3": null,
        "city": "Palmdale",
        "state_province": "California",
        "postal_code": "93551-3630",
        "country": "United States",
        "longitude": "-118.1397352",
        "latitude": "34.61452922",
        "phone": "6612667911",
        "website_url": "http://www.transplantsbrewing.com",
        "state": "California",
        "street": "40242 La Quinta Ln Ste 101"
    },
    {
        "id": "1a25fc20-de4d-4e06-aed5-0013bc2446ee",
        "name": "Transport Brewery",
        "brewery_type": "planning",
        "address_1": null,
        "address_2": null,
        "address_3": null,
        "city": "Shawnee",
        "state_province": "Kansas",
        "postal_code": "66203-2749",
        "country": "United States",
        "longitude": null,
        "latitude": null,
        "phone": null,
        "website_url": "http://www.transportbrewery.com",
        "state": "Kansas",
        "street": null
    },
    {
        "id": "0bbdd47a-69a9-4e92-b688-b1afa2031390",
        "name": "Trap Door Brewing",
        "brewery_type": "micro",
        "address_1": "2315 Main St",
        "address_2": null,
        "address_3": null,
        "city": "Vancouver",
        "state_province": "Washington",
        "postal_code": "98660-2641",
        "country": "United States",
        "longitude": "-122.6713099",
        "latitude": "45.63904644",
        "phone": "5037582569",
        "website_url": "http://www.trapdoorbrewing.com",
        "state": "Washington",
        "street": "2315 Main St"
    },
    {
        "id": "e41000c2-f355-4cad-ab5c-bd1b96185861",
        "name": "Trap Rock Brewing Co.",
        "brewery_type": "planning",
        "address_1": null,
        "address_2": null,
        "address_3": null,
        "city": "Saint Croix Falls",
        "state_province": "Wisconsin",
        "postal_code": "54024",
        "country": "United States",
        "longitude": null,
        "latitude": null,
        "phone": null,
        "website_url": "http://traprockbrewing.com",
        "state": "Wisconsin",
        "street": null
    },
    {
        "id": "b266cce2-641c-4069-ab75-972b98b14310",
        "name": "Trap Rock Restaurant And Brewery",
        "brewery_type": "brewpub",
        "address_1": "279 Springfield Ave",
        "address_2": null,
        "address_3": null,
        "city": "Berkeley Heights",
        "state_province": "New Jersey",
        "postal_code": "07922-1214",
        "country": "United States",
        "longitude": "-74.43481217",
        "latitude": "40.6890382",
        "phone": "9086651755",
        "website_url": "http://www.traprockrestaurant.net",
        "state": "New Jersey",
        "street": "279 Springfield Ave"
    },
    {
        "id": "693bd0ce-0c4b-4f22-ab99-9103827096d0",
        "name": "Trapezium Brewing Company",
        "brewery_type": "brewpub",
        "address_1": "423 3rd St",
        "address_2": null,
        "address_3": null,
        "city": "Petersburg",
        "state_province": "Virginia",
        "postal_code": "23803-",
        "country": "United States",
        "longitude": "-77.4014401",
        "latitude": "37.23348663",
        "phone": "8046775728",
        "website_url": "http://www.trapeziumbrewing.com",
        "state": "Virginia",
        "street": "423 3rd St"
    },
    {
        "id": "2043d4a7-0356-4c97-bc40-739598829e90",
        "name": "Traust Brewing Co.",
        "brewery_type": "planning",
        "address_1": null,
        "address_2": null,
        "address_3": null,
        "city": "Charlotte",
        "state_province": "North Carolina",
        "postal_code": "28205",
        "country": "United States",
        "longitude": null,
        "latitude": null,
        "phone": "9805053111",
        "website_url": "http://www.traustbrewing.com",
        "state": "North Carolina",
        "street": null
    },
    {
        "id": "3225e829-cb95-45ac-b95b-c4abe0307b0c",
        "name": "Treaty City Brewing Co.",
        "brewery_type": "micro",
        "address_1": "24 & 25 Nicholas St",
        "address_2": "Medieval Quarter",
        "address_3": null,
        "city": "Limerick",
        "state_province": "Limerick",
        "postal_code": "V94 EH57",
        "country": "Ireland",
        "longitude": "-8.6264874",
        "latitude": "52.6696543",
        "phone": "353871405560",
        "website_url": "http://treatycitybrewery.ie/",
        "state": "Limerick",
        "street": "24 & 25 Nicholas St"
    },
    {
        "id": "413f12ba-347c-4343-8da7-63261f878669",
        "name": "Tree Farm Brewing Company, LLC",
        "brewery_type": "contract",
        "address_1": "3020 Papa Bear Dr",
        "address_2": null,
        "address_3": null,
        "city": "College Station",
        "state_province": "Texas",
        "postal_code": "77845-1402",
        "country": "United States",
        "longitude": null,
        "latitude": null,
        "phone": "9798200535",
        "website_url": "http://www.treefarmbrewing.com",
        "state": "Texas",
        "street": "3020 Papa Bear Dr"
    },
    {
        "id": "1c0e323d-45ab-4d0c-9f27-8e8a62df3703",
        "name": "Tree House Brewery",
        "brewery_type": "regional",
        "address_1": "129 Sturbridge Rd",
        "address_2": null,
        "address_3": null,
        "city": "Charlton",
        "state_province": "Massachusetts",
        "postal_code": "01507-5330",
        "country": "United States",
        "longitude": "-72.0125532",
        "latitude": "42.1366948",
        "phone": "4139491891",
        "website_url": "http://www.treehousebrew.com",
        "state": "Massachusetts",
        "street": "129 Sturbridge Rd"
    },
    {
        "id": "ac5b056f-49e7-4785-b58a-4ce34e6934c6",
        "name": "Trek Brewing",
        "brewery_type": "micro",
        "address_1": "1486 Granville Rd",
        "address_2": null,
        "address_3": null,
        "city": "Newark",
        "state_province": "Ohio",
        "postal_code": "43055-1538",
        "country": "United States",
        "longitude": "-82.45564409",
        "latitude": "40.05722817",
        "phone": null,
        "website_url": "http://www.trekbeer.com",
        "state": "Ohio",
        "street": "1486 Granville Rd"
    },
    {
        "id": "100fc1b1-c30f-4aeb-80bd-ab2914e7483a",
        "name": "Tri City Brewing Co",
        "brewery_type": "micro",
        "address_1": "4170 Shrestha Dr",
        "address_2": null,
        "address_3": null,
        "city": "Bay City",
        "state_province": "Michigan",
        "postal_code": "48706-2184",
        "country": "United States",
        "longitude": null,
        "latitude": null,
        "phone": "9896861340",
        "website_url": "http://www.tricitybrewing.com",
        "state": "Michigan",
        "street": "4170 Shrestha Dr"
    },
    {
        "id": "2544997a-17f7-4e5e-8d65-13c10c05da4b",
        "name": "Tribes Beer Company",
        "brewery_type": "brewpub",
        "address_1": "11220 Lincoln Hwy",
        "address_2": null,
        "address_3": null,
        "city": "Mokena",
        "state_province": "Illinois",
        "postal_code": "60448-8208",
        "country": "United States",
        "longitude": "-87.8886903",
        "latitude": "41.5033149",
        "phone": "8154640248",
        "website_url": "http://www.tribesalehouse.com",
        "state": "Illinois",
        "street": "11220 Lincoln Hwy"
    },
    {
        "id": "042461eb-cc89-4c95-bc61-8a6a95bbf989",
        "name": "Tributary Brewing Company",
        "brewery_type": "micro",
        "address_1": "10 Shapleigh Rd",
        "address_2": null,
        "address_3": null,
        "city": "Kittery",
        "state_province": "Maine",
        "postal_code": "03904-1480",
        "country": "United States",
        "longitude": "-70.736801",
        "latitude": "43.090863",
        "phone": null,
        "website_url": "http://www.tributarybrewingcompany.com",
        "state": "Maine",
        "street": "10 Shapleigh Rd"
    },
    {
        "id": "895ddfb0-8827-49d4-914e-c289559e854d",
        "name": "Tribute Brewing Co",
        "brewery_type": "micro",
        "address_1": "1106 N Bluebird Rd",
        "address_2": null,
        "address_3": null,
        "city": "Eagle River",
        "state_province": "Wisconsin",
        "postal_code": "54521-7557",
        "country": "United States",
        "longitude": "-89.2579185",
        "latitude": "45.92935062",
        "phone": "7154802337",
        "website_url": "http://www.tributebrewing.com",
        "state": "Wisconsin",
        "street": "1106 N Bluebird Rd"
    },
    {
        "id": "542bf46a-1c9c-4e70-a8ad-4df6ad0fe5c6",
        "name": "Triceratops Brewing",
        "brewery_type": "proprietor",
        "address_1": "8036 River Dr SE Ste 203",
        "address_2": null,
        "address_3": null,
        "city": "Tumwater",
        "state_province": "Washington",
        "postal_code": "98501",
        "country": "United States",
        "longitude": "-122.88455742709381",
        "latitude": "46.9706987659601",
        "phone": "3604805626",
        "website_url": "http://www.triceratopsbrewing.com",
        "state": "Washington",
        "street": "8036 River Dr SE Ste 203"
    },
    {
        "id": "e2e84e69-b8cd-486a-9a65-6a9d0ec3243b",
        "name": "Trickster's Brewing Company",
        "brewery_type": "micro",
        "address_1": "3850 N Schreiber Way",
        "address_2": null,
        "address_3": null,
        "city": "Coeur D Alene",
        "state_province": "Idaho",
        "postal_code": "83815-8362",
        "country": "United States",
        "longitude": "-116.80346",
        "latitude": "47.712429",
        "phone": "9707647128",
        "website_url": "http://www.trickstersbrewing.com",
        "state": "Idaho",
        "street": "3850 N Schreiber Way"
    },
    {
        "id": "c03a12eb-9a25-4841-8f41-e78d0053fa3d",
        "name": "Trillium Brewing",
        "brewery_type": "regional",
        "address_1": "110 Shawmut Rd",
        "address_2": null,
        "address_3": null,
        "city": "Canton",
        "state_province": "Massachusetts",
        "postal_code": "02021-1412",
        "country": "United States",
        "longitude": "-71.1527702",
        "latitude": "42.1847202",
        "phone": "6174538745",
        "website_url": "http://www.trilliumbrewing.com",
        "state": "Massachusetts",
        "street": "110 Shawmut Rd"
    },
    {
        "id": "ffaf9ab2-0357-4109-a086-0cf83291c006",
        "name": "Trim Tab Brewing",
        "brewery_type": "micro",
        "address_1": "2721 5th Ave S",
        "address_2": null,
        "address_3": null,
        "city": "Birmingham",
        "state_province": "Alabama",
        "postal_code": "35233-3401",
        "country": "United States",
        "longitude": "-86.79140006",
        "latitude": "33.51284923",
        "phone": "2057030536",
        "website_url": "http://www.trimtabbrewing.com",
        "state": "Alabama",
        "street": "2721 5th Ave S"
    },
    {
        "id": "792bd285-3d5f-4594-b5a0-4a212cd36219",
        "name": "Trinity Brewhouse",
        "brewery_type": "brewpub",
        "address_1": "186 Fountain St",
        "address_2": null,
        "address_3": null,
        "city": "Providence",
        "state_province": "Rhode Island",
        "postal_code": "02903-1813",
        "country": "United States",
        "longitude": "-71.4168238",
        "latitude": "41.8223638",
        "phone": "4014532337",
        "website_url": "http://www.trinitybrewhouse.com",
        "state": "Rhode Island",
        "street": "186 Fountain St"
    },
    {
        "id": "6230d54c-2de5-41c3-b5b3-60dc70d6b2ac",
        "name": "Trinity Brewing",
        "brewery_type": "brewpub",
        "address_1": "1466 Garden of The Gods Rd Ste 184",
        "address_2": null,
        "address_3": null,
        "city": "Colorado Springs",
        "state_province": "Colorado",
        "postal_code": "80907-9464",
        "country": "United States",
        "longitude": null,
        "latitude": null,
        "phone": "7196340029",
        "website_url": "http://www.trinitybrew.com",
        "state": "Colorado",
        "street": "1466 Garden of The Gods Rd Ste 184"
    },
    {
        "id": "1065e4e8-e366-4b90-8461-f7bbb8ea6653",
        "name": "Tripelroot",
        "brewery_type": "brewpub",
        "address_1": "146 E Main Ave",
        "address_2": null,
        "address_3": null,
        "city": "Zeeland",
        "state_province": "Michigan",
        "postal_code": "49464-1736",
        "country": "United States",
        "longitude": "-86.01463482",
        "latitude": "42.81211765",
        "phone": "6169530050",
        "website_url": "http://www.tripelroot.com",
        "state": "Michigan",
        "street": "146 E Main Ave"
    },
    {
        "id": "277d6217-6c92-4f58-a227-7fb0a79ab3a4",
        "name": "Tripelroot Production Facility",
        "brewery_type": "micro",
        "address_1": "2262 112th Ave",
        "address_2": null,
        "address_3": null,
        "city": "Holland",
        "state_province": "Michigan",
        "postal_code": "49424-9638",
        "country": "United States",
        "longitude": "-86.0580859",
        "latitude": "42.802587",
        "phone": null,
        "website_url": null,
        "state": "Michigan",
        "street": "2262 112th Ave"
    },
    {
        "id": "46b43b36-9668-4b37-9a23-5f4784ed47b8",
        "name": "TripEnd Brewing",
        "brewery_type": "micro",
        "address_1": "3072 Prutsman Rd",
        "address_2": null,
        "address_3": null,
        "city": "Troupsburg",
        "state_province": "New York",
        "postal_code": "14885-9613",
        "country": "United States",
        "longitude": "-77.55268946",
        "latitude": "42.09121034",
        "phone": "6073467472",
        "website_url": "http://www.tripendbrewing.com",
        "state": "New York",
        "street": "3072 Prutsman Rd"
    },
    {
        "id": "d5a71367-f7f6-47fa-8bf0-d6f25db113d0",
        "name": "Triphammer Bierwerks",
        "brewery_type": "micro",
        "address_1": "111 Parce Ave Ste 3A-1",
        "address_2": null,
        "address_3": null,
        "city": "Fairport",
        "state_province": "New York",
        "postal_code": "14450-1467",
        "country": "United States",
        "longitude": null,
        "latitude": null,
        "phone": "5853888281",
        "website_url": "http://www.triphammerbierwerks.com",
        "state": "New York",
        "street": "111 Parce Ave Ste 3A-1"
    },
    {
        "id": "808d7280-d349-4db2-8082-ac9673697483",
        "name": "Triple 7 Restaurant & Brewery at Main St Station",
        "brewery_type": "brewpub",
        "address_1": "200 N Main St Main Street Station Casino",
        "address_2": null,
        "address_3": null,
        "city": "Las Vegas",
        "state_province": "Nevada",
        "postal_code": "89101-2910",
        "country": "United States",
        "longitude": null,
        "latitude": null,
        "phone": "7023871896",
        "website_url": "http://www.mainstreetcasino.com",
        "state": "Nevada",
        "street": "200 N Main St Main Street Station Casino"
    },
    {
        "id": "7c4c41ee-e482-4f94-9815-1f46759444d9",
        "name": "Triple C Brewing",
        "brewery_type": "micro",
        "address_1": "2900 Griffith St",
        "address_2": null,
        "address_3": null,
        "city": "Charlotte",
        "state_province": "North Carolina",
        "postal_code": "28203-5430",
        "country": "United States",
        "longitude": "-80.8695658",
        "latitude": "35.20109925",
        "phone": "7043723212",
        "website_url": "http://www.triplecbrewing.com",
        "state": "North Carolina",
        "street": "2900 Griffith St"
    },
    {
        "id": "97b87b2c-c954-4a64-93b5-186dadd0c568",
        "name": "Triple Crossing Brewing Company (Downtown)",
        "brewery_type": "micro",
        "address_1": "113 S. Foushee St.",
        "address_2": null,
        "address_3": null,
        "city": "Richmond",
        "state_province": "Virginia",
        "postal_code": "23220-5616",
        "country": "United States",
        "longitude": "-77.4455177",
        "latitude": "37.5415927",
        "phone": "8043991780",
        "website_url": "http://www.triplecrossingbeer.com",
        "state": "Virginia",
        "street": "113 S. Foushee St."
    },
    {
        "id": "9975e52b-e507-4751-bfbc-4850f431ed94",
        "name": "Triple Crossing Brewing Company (Fullton)",
        "brewery_type": "brewpub",
        "address_1": "5203 Hatcher St",
        "address_2": null,
        "address_3": null,
        "city": "Richmond",
        "state_province": "Virginia",
        "postal_code": "23231-3199",
        "country": "United States",
        "longitude": "-77.40752567",
        "latitude": "37.51296194",
        "phone": "8044951955",
        "website_url": "http://www.triplecrossingbeer.com",
        "state": "Virginia",
        "street": "5203 Hatcher St"
    },
    {
        "id": "e57d55f3-ee8c-45b0-a092-c77def6cd561",
        "name": "Triple Dog Brewing Company",
        "brewery_type": "micro",
        "address_1": "675 1st St W",
        "address_2": null,
        "address_3": null,
        "city": "Havre",
        "state_province": "Montana",
        "postal_code": "59501-3415",
        "country": "United States",
        "longitude": "-109.694577",
        "latitude": "48.55500303",
        "phone": "4068798103",
        "website_url": null,
        "state": "Montana",
        "street": "675 1st St W"
    },
    {
        "id": "76b0ca40-20bf-4a32-a0de-e89de141a96b",
        "name": "Triple J Chophouse and Brew Co",
        "brewery_type": "brewpub",
        "address_1": "1807 Buddy Holly Ave",
        "address_2": null,
        "address_3": null,
        "city": "Lubbock",
        "state_province": "Texas",
        "postal_code": "79401-5136",
        "country": "United States",
        "longitude": "-101.8440375",
        "latitude": "33.5785911",
        "phone": "8067716555",
        "website_url": "http://www.triplejchophouseandbrewco.com",
        "state": "Texas",
        "street": "1807 Buddy Holly Ave"
    },
    {
        "id": "7b3d0bb0-cb50-48e9-bf3b-8fb420660c96",
        "name": "Triple R Brewing",
        "brewery_type": "micro",
        "address_1": "916 NE 64th Street",
        "address_2": null,
        "address_3": null,
        "city": "Seattle",
        "state_province": "Washington",
        "postal_code": "98115",
        "country": "United States",
        "longitude": "-122.3178868",
        "latitude": "47.6752147",
        "phone": "2065793370",
        "website_url": "http://triplerbrewery.com",
        "state": "Washington",
        "street": "916 NE 64th Street"
    },
    {
        "id": "05fd4015-bf99-43dc-ab16-500e161eb23a",
        "name": "Triple Rock Brewery and Alehouse",
        "brewery_type": "brewpub",
        "address_1": "1920 Shattuck Ave",
        "address_2": null,
        "address_3": null,
        "city": "Berkeley",
        "state_province": "California",
        "postal_code": "94704-1022",
        "country": "United States",
        "longitude": "-122.268746",
        "latitude": "37.873419",
        "phone": "5108432739",
        "website_url": "http://www.triplerock.com",
        "state": "California",
        "street": "1920 Shattuck Ave"
    },
    {
        "id": "92ce913c-8326-4bd6-ad3e-74f42946b436",
        "name": "Triple Voodoo Brewing Co",
        "brewery_type": "micro",
        "address_1": "2245 3rd St",
        "address_2": null,
        "address_3": null,
        "city": "San Francisco",
        "state_province": "California",
        "postal_code": "94107-3125",
        "country": "United States",
        "longitude": "-122.3884378",
        "latitude": "37.7611618",
        "phone": "4155988811",
        "website_url": "http://www.triplevoodoo.com",
        "state": "California",
        "street": "2245 3rd St"
    },
    {
        "id": "3d88d2a6-d57c-432b-9d10-745a257a1495",
        "name": "Triplehorn Brewing Co",
        "brewery_type": "micro",
        "address_1": "19510 144th Ave NE Ste E6",
        "address_2": null,
        "address_3": null,
        "city": "Woodinville",
        "state_province": "Washington",
        "postal_code": "98072-8429",
        "country": "United States",
        "longitude": "-122.14551345959866",
        "latitude": "47.76936809184745",
        "phone": "4252427979",
        "website_url": "http://www.triplehornbrewing.com",
        "state": "Washington",
        "street": "19510 144th Ave NE Ste E6"
    },
    {
        "id": "8b595726-8d21-4a14-84a0-1dd76aecf55a",
        "name": "Triptych Brewing",
        "brewery_type": "micro",
        "address_1": "1703 Woodfield Dr",
        "address_2": null,
        "address_3": null,
        "city": "Savoy",
        "state_province": "Illinois",
        "postal_code": "61874-9504",
        "country": "United States",
        "longitude": "-88.24927593",
        "latitude": "40.0768564",
        "phone": "2176071176",
        "website_url": "http://www.triptychbrewing.com",
        "state": "Illinois",
        "street": "1703 Woodfield Dr"
    },
    {
        "id": "ad729d81-7f38-4f14-ad4b-fc75d9c740d6",
        "name": "Triskelion Brewing Company",
        "brewery_type": "micro",
        "address_1": "340 7th Avenue East",
        "address_2": null,
        "address_3": null,
        "city": "Hendersonville",
        "state_province": "North Carolina",
        "postal_code": "28792",
        "country": "United States",
        "longitude": "-82.45789699",
        "latitude": "35.32060017",
        "phone": "8283887051",
        "website_url": "http://www.triskelionbrewing.com",
        "state": "North Carolina",
        "street": "340 7th Avenue East"
    },
    {
        "id": "e225df86-c175-4cd4-a5c0-42dbea2e0cbe",
        "name": "Triton Brewing Company",
        "brewery_type": "micro",
        "address_1": "5764 Wheeler Rd",
        "address_2": null,
        "address_3": null,
        "city": "Indianapolis",
        "state_province": "Indiana",
        "postal_code": "46216-1038",
        "country": "United States",
        "longitude": null,
        "latitude": null,
        "phone": "3177352706",
        "website_url": "http://www.tritonbrewing.com",
        "state": "Indiana",
        "street": "5764 Wheeler Rd"
    },
    {
        "id": "e76fb79e-4dcc-4731-90d5-3d87f1d94cb7",
        "name": "Triumph Brewing Co of New Hope",
        "brewery_type": "brewpub",
        "address_1": "400 Union Square Dr",
        "address_2": null,
        "address_3": null,
        "city": "New Hope",
        "state_province": "Pennsylvania",
        "postal_code": "18938-1367",
        "country": "United States",
        "longitude": null,
        "latitude": null,
        "phone": "2158628300",
        "website_url": "http://www.triumphbrew.com",
        "state": "Pennsylvania",
        "street": "400 Union Square Dr"
    },
    {
        "id": "9aaecb31-ffd2-490e-b6b8-c9037beaf5cf",
        "name": "Triumph Brewing Co of Princeton",
        "brewery_type": "brewpub",
        "address_1": "138 Nassau St Ste A",
        "address_2": null,
        "address_3": null,
        "city": "Princeton",
        "state_province": "New Jersey",
        "postal_code": "08542-7011",
        "country": "United States",
        "longitude": null,
        "latitude": null,
        "phone": "6099247855",
        "website_url": "http://www.triumphbrew.com",
        "state": "New Jersey",
        "street": "138 Nassau St Ste A"
    },
    {
        "id": "b65eb539-cf66-424a-8e8b-bce335a3295b",
        "name": "Triune Brewing Company",
        "brewery_type": "planning",
        "address_1": null,
        "address_2": null,
        "address_3": null,
        "city": "Leavenworth",
        "state_province": "Washington",
        "postal_code": "98826-1413",
        "country": "United States",
        "longitude": null,
        "latitude": null,
        "phone": "5095483300",
        "website_url": null,
        "state": "Washington",
        "street": null
    },
    {
        "id": "bf19789e-0711-4e0e-80e7-98a0084c1388",
        "name": "Troegs Brewing Co",
        "brewery_type": "regional",
        "address_1": "200 E Hershey Park Dr",
        "address_2": null,
        "address_3": null,
        "city": "Hershey",
        "state_province": "Pennsylvania",
        "postal_code": "17033-2719",
        "country": "United States",
        "longitude": null,
        "latitude": null,
        "phone": "7175341297",
        "website_url": "http://www.troegs.com",
        "state": "Pennsylvania",
        "street": "200 E Hershey Park Dr"
    },
    {
        "id": "0c579f50-de3e-4b39-b404-cb2dec4227df",
        "name": "Trolley Barn Brewery",
        "brewery_type": "planning",
        "address_1": null,
        "address_2": null,
        "address_3": null,
        "city": "Quakertown",
        "state_province": "Pennsylvania",
        "postal_code": "18951",
        "country": "United States",
        "longitude": null,
        "latitude": null,
        "phone": "2154998959",
        "website_url": "http://www.trolleybarnpublicmarket.com",
        "state": "Pennsylvania",
        "street": null
    },
    {
        "id": "a09a3e43-9898-41d6-a426-4ee68780f8a9",
        "name": "Trollingwood Taproom & Brewery",
        "brewery_type": "micro",
        "address_1": "707 Dickinson Ave",
        "address_2": null,
        "address_3": null,
        "city": "Greenville",
        "state_province": "North Carolina",
        "postal_code": "27834-3147",
        "country": "United States",
        "longitude": "-77.37544525",
        "latitude": "35.60994375",
        "phone": "2522106295",
        "website_url": "http://www.trollingwoodbrewery.com",
        "state": "North Carolina",
        "street": "707 Dickinson Ave"
    },
    {
        "id": "e44d1827-714b-4860-9a8a-63fca6eb0680",
        "name": "Troon Brewing",
        "brewery_type": "micro",
        "address_1": "130 Hopewell Rocky Hill Rd # 5",
        "address_2": null,
        "address_3": null,
        "city": "Hopewell",
        "state_province": "New Jersey",
        "postal_code": "08525-3111",
        "country": "United States",
        "longitude": "-74.75022889",
        "latitude": "40.3922451",
        "phone": null,
        "website_url": "http://www.troonbrewing.com",
        "state": "New Jersey",
        "street": "130 Hopewell Rocky Hill Rd # 5"
    },
    {
        "id": "03e0afb0-b86a-4b47-a9cd-7a302ac2cb75",
        "name": "Trophy Brewing Company",
        "brewery_type": "micro",
        "address_1": "656 Maywood Ave",
        "address_2": null,
        "address_3": null,
        "city": "Raleigh",
        "state_province": "North Carolina",
        "postal_code": "27603-2340",
        "country": "United States",
        "longitude": "-78.65744714",
        "latitude": "35.76136262",
        "phone": "9198034849",
        "website_url": "http://www.trophybrewing.com",
        "state": "North Carolina",
        "street": "656 Maywood Ave"
    },
    {
        "id": "92ebf606-d8f9-4c93-a9b0-afc704575d75",
        "name": "Trouble Brewing",
        "brewery_type": "micro",
        "address_1": "Unit A",
        "address_2": "Oldmill Industrial Estate",
        "address_3": null,
        "city": "Kill",
        "state_province": "Kildare",
        "postal_code": "W91 DR58",
        "country": "Ireland",
        "longitude": "-6.5406264",
        "latitude": "53.2523451",
        "phone": "353879086658",
        "website_url": "https://troublebrewing.ie/",
        "state": "Kildare",
        "street": "Unit A"
    },
    {
        "id": "7a2fe357-8cbf-45c4-9195-9b261846da32",
        "name": "troubled waters brewing co.",
        "brewery_type": "contract",
        "address_1": "670 Main Street",
        "address_2": null,
        "address_3": null,
        "city": "Safety Harbor",
        "state_province": "Florida",
        "postal_code": "34695",
        "country": "United States",
        "longitude": "-82.69391186",
        "latitude": "27.99073329",
        "phone": "6303357890",
        "website_url": "http://www.troubledwatersbeer.com",
        "state": "Florida",
        "street": "670 Main Street"
    },
    {
        "id": "f8768842-899b-4df1-841e-d377b7f9c337",
        "name": "Trout River Brewing Co",
        "brewery_type": "micro",
        "address_1": "100 River Street RR 5",
        "address_2": null,
        "address_3": null,
        "city": "Springfield",
        "state_province": "Vermont",
        "postal_code": "05156",
        "country": "United States",
        "longitude": null,
        "latitude": null,
        "phone": null,
        "website_url": "http://www.troutriverbrewing.com",
        "state": "Vermont",
        "street": "100 River Street RR 5"
    },
    {
        "id": "193ddcd0-43ef-49de-a8cb-5f595fb7d663",
        "name": "Trubble Brewing",
        "brewery_type": "micro",
        "address_1": "2725 Broadway",
        "address_2": null,
        "address_3": null,
        "city": "Fort Wayne",
        "state_province": "Indiana",
        "postal_code": "46807-1111",
        "country": "United States",
        "longitude": null,
        "latitude": null,
        "phone": "2602676082",
        "website_url": "http://www.trubblebrewing.com",
        "state": "Indiana",
        "street": "2725 Broadway"
    },
    {
        "id": "7b231fe0-34a4-4e5d-84a9-c04cc5d9d8a8",
        "name": "True Anomaly Brewing",
        "brewery_type": "micro",
        "address_1": "2012 Dallas St",
        "address_2": null,
        "address_3": null,
        "city": "Houston",
        "state_province": "Texas",
        "postal_code": "77003",
        "country": "United States",
        "longitude": null,
        "latitude": null,
        "phone": "3467045701",
        "website_url": "http://www.trueanomalybrewing.com",
        "state": "Texas",
        "street": "2012 Dallas St"
    },
    {
        "id": "3212e300-8e52-4f6a-a845-e68ca7492c6b",
        "name": "True North Ale Company",
        "brewery_type": "micro",
        "address_1": "116 County Rd",
        "address_2": null,
        "address_3": null,
        "city": "Ipswich",
        "state_province": "Massachusetts",
        "postal_code": "01938-2501",
        "country": "United States",
        "longitude": "-70.837236",
        "latitude": "42.669841",
        "phone": "9783126473",
        "website_url": "http://www.TrueNorthAles.com",
        "state": "Massachusetts",
        "street": "116 County Rd"
    },
    {
        "id": "f8c87072-d4bd-49c5-8f24-736f9b85280f",
        "name": "True Respite Brewing Company",
        "brewery_type": "micro",
        "address_1": "7301 Calhoun Pl Ste 600",
        "address_2": null,
        "address_3": null,
        "city": "Derwood",
        "state_province": "Maryland",
        "postal_code": "20855-2740",
        "country": "United States",
        "longitude": "-77.152035",
        "latitude": "39.108112",
        "phone": "3012848447",
        "website_url": "http://www.truerespite.com",
        "state": "Maryland",
        "street": "7301 Calhoun Pl Ste 600"
    },
    {
        "id": "d76e7016-097d-481d-a510-effd1d4fcd6d",
        "name": "True Symmetry Brewing Company",
        "brewery_type": "micro",
        "address_1": "315 Marina Ctr",
        "address_2": null,
        "address_3": null,
        "city": "Suisun City",
        "state_province": "California",
        "postal_code": "94585-2518",
        "country": "United States",
        "longitude": "-122.0345391",
        "latitude": "38.24359051",
        "phone": "7072026000",
        "website_url": "http://Www.truesymmetry.beer",
        "state": "California",
        "street": "315 Marina Ctr"
    },
    {
        "id": "97ae87b9-74f3-40c8-8773-967c92450fa5",
        "name": "True Vine Brewing Company",
        "brewery_type": "micro",
        "address_1": "219 S Englewood Ave",
        "address_2": null,
        "address_3": null,
        "city": "Tyler",
        "state_province": "Texas",
        "postal_code": "75702-6926",
        "country": "United States",
        "longitude": "-95.31600025",
        "latitude": "32.34866425",
        "phone": "9036000124",
        "website_url": "http://www.truevinebrewing.com",
        "state": "Texas",
        "street": "219 S Englewood Ave"
    },
    {
        "id": "4e46363e-54f7-454f-91e7-2aa59c95361d",
        "name": "True West Brewing Company",
        "brewery_type": "brewpub",
        "address_1": "525 Massachusetts Ave Ste 107",
        "address_2": null,
        "address_3": null,
        "city": "Acton",
        "state_province": "Massachusetts",
        "postal_code": "01720-2962",
        "country": "United States",
        "longitude": null,
        "latitude": null,
        "phone": "9782061600",
        "website_url": "http://www.brewtruewest.com",
        "state": "Massachusetts",
        "street": "525 Massachusetts Ave Ste 107"
    },
    {
        "id": "239ded16-d444-429b-b6d7-fd30631c05d1",
        "name": "Trumer Brewery",
        "brewery_type": "regional",
        "address_1": "1404 4th St",
        "address_2": null,
        "address_3": null,
        "city": "Berkeley",
        "state_province": "California",
        "postal_code": "94710-1323",
        "country": "United States",
        "longitude": "-122.3030265",
        "latitude": "37.87686526",
        "phone": "5105261160",
        "website_url": "http://www.trumer-international.com",
        "state": "California",
        "street": "1404 4th St"
    },
    {
        "id": "fdc05c0a-59db-4ffd-b289-10996f4d9e2f",
        "name": "Trusty Brewing Co.",
        "brewery_type": "brewpub",
        "address_1": "114 E Evergreen Blvd",
        "address_2": null,
        "address_3": null,
        "city": "Vancouver",
        "state_province": "Washington",
        "postal_code": "98660-3219",
        "country": "United States",
        "longitude": "-122.6707614",
        "latitude": "45.6289331",
        "phone": "3602580413",
        "website_url": "http://www.trustybrewing.com",
        "state": "Washington",
        "street": "114 E Evergreen Blvd"
    },
    {
        "id": "e512a4c1-76aa-485e-b12a-331ff2859f2a",
        "name": "Truth Or Consequences Brewing Company",
        "brewery_type": "micro",
        "address_1": "410 N Broadway St",
        "address_2": null,
        "address_3": null,
        "city": "Truth or Consequences",
        "state_province": "New Mexico",
        "postal_code": "87901-2836",
        "country": "United States",
        "longitude": null,
        "latitude": null,
        "phone": "5752970289",
        "website_url": "http://www.torc.beer",
        "state": "New Mexico",
        "street": "410 N Broadway St"
    },
    {
        "id": "d5b1d385-bb34-4a69-a37c-7c6c41894029",
        "name": "TRVE Brewing Co",
        "brewery_type": "micro",
        "address_1": "2600 W. 2nd Ave Unit 8",
        "address_2": null,
        "address_3": null,
        "city": "Denver",
        "state_province": "Colorado",
        "postal_code": "80219",
        "country": "United States",
        "longitude": null,
        "latitude": null,
        "phone": "3033511021",
        "website_url": "http://trvebrewing.com",
        "state": "Colorado",
        "street": "2600 W. 2nd Ave Unit 8"
    },
    {
        "id": "0bd2b60b-f75e-4a26-a93e-e7b1277a004d",
        "name": "TRVE Brewing Co. - The Acid Temple",
        "brewery_type": "micro",
        "address_1": "2600 W. 2nd Ave Unit 8",
        "address_2": null,
        "address_3": null,
        "city": "Denver",
        "state_province": "Colorado",
        "postal_code": "80219",
        "country": "United States",
        "longitude": null,
        "latitude": null,
        "phone": "3033511021",
        "website_url": null,
        "state": "Colorado",
        "street": "2600 W. 2nd Ave Unit 8"
    },
    {
        "id": "020aa383-378b-43d0-b91a-f8b4e5641be1",
        "name": "TTs Old Iron Brewery",
        "brewery_type": "micro",
        "address_1": "154 S Madison St",
        "address_2": null,
        "address_3": null,
        "city": "Spokane",
        "state_province": "Washington",
        "postal_code": "99201-4542",
        "country": "United States",
        "longitude": "-117.4281651",
        "latitude": "47.655248",
        "phone": null,
        "website_url": "http://www.ttsoldironbrewery.com",
        "state": "Washington",
        "street": "154 S Madison St"
    },
    {
        "id": "36e4c1c9-8ffe-4096-9153-765a99550f2b",
        "name": "Tuckahoe Brewing Co",
        "brewery_type": "micro",
        "address_1": "3092 English Creek Ave",
        "address_2": null,
        "address_3": null,
        "city": "Egg Harbor Township",
        "state_province": "New Jersey",
        "postal_code": "08234-5245",
        "country": "United States",
        "longitude": "-74.61365675",
        "latitude": "39.42606663",
        "phone": "6096452739",
        "website_url": "http://www.tuckahoebrewing.com",
        "state": "New Jersey",
        "street": "3092 English Creek Ave"
    },
    {
        "id": "bee37e69-0e10-4076-849a-fd6ee2d5f35f",
        "name": "Tucked Away Brewing",
        "brewery_type": "planning",
        "address_1": null,
        "address_2": null,
        "address_3": null,
        "city": "Manassas",
        "state_province": "Virginia",
        "postal_code": "22010",
        "country": "United States",
        "longitude": null,
        "latitude": null,
        "phone": "9373712176",
        "website_url": null,
        "state": "Virginia",
        "street": null
    },
    {
        "id": "443536da-82d9-447f-811f-0d3e069e9086",
        "name": "Tucker Brewing Company",
        "brewery_type": "micro",
        "address_1": "2003 S Bibb Dr",
        "address_2": null,
        "address_3": null,
        "city": "Tucker",
        "state_province": "Georgia",
        "postal_code": "30084-6240",
        "country": "United States",
        "longitude": "-84.20758809",
        "latitude": "33.84269209",
        "phone": "8337522400",
        "website_url": "http://www.tuckerbrewing.com",
        "state": "Georgia",
        "street": "2003 S Bibb Dr"
    },
    {
        "id": "568fcb4a-f5cd-4554-84b1-8ce90052e21d",
        "name": "Tuckerman Brewing Co",
        "brewery_type": "micro",
        "address_1": "66 Hobbs St",
        "address_2": null,
        "address_3": null,
        "city": "Conway",
        "state_province": "New Hampshire",
        "postal_code": "03818-1058",
        "country": "United States",
        "longitude": "-71.12983196",
        "latitude": "43.97582858",
        "phone": "6034475400",
        "website_url": "http://www.tuckermanbrewing.com",
        "state": "New Hampshire",
        "street": "66 Hobbs St"
    },
    {
        "id": "c90a15c5-1a4d-495a-94f5-62fe78425b81",
        "name": "Tujax Tavern",
        "brewery_type": "brewpub",
        "address_1": "103 S Grove St",
        "address_2": null,
        "address_3": null,
        "city": "Delton",
        "state_province": "Michigan",
        "postal_code": "49046-9470",
        "country": "United States",
        "longitude": "-85.407991",
        "latitude": "42.496258",
        "phone": "2696238310",
        "website_url": null,
        "state": "Michigan",
        "street": "103 S Grove St"
    },
    {
        "id": "7b08b3ee-5d16-47fa-ac17-7d7dee9c0ba0",
        "name": "Tumbledown Brewing LLC",
        "brewery_type": "micro",
        "address_1": "805 Farmington Falls Rd Ste 7",
        "address_2": null,
        "address_3": null,
        "city": "Farmington",
        "state_province": "Maine",
        "postal_code": "04938-6454",
        "country": "United States",
        "longitude": null,
        "latitude": null,
        "phone": "2079440697",
        "website_url": "http://www.tumbledownbrewing.com",
        "state": "Maine",
        "street": "805 Farmington Falls Rd Ste 7"
    },
    {
        "id": "ad99d8ce-7e57-4544-89e7-894eaaf58457",
        "name": "Tumbleroot Brewery And Distillery",
        "brewery_type": "micro",
        "address_1": "32 Bisbee Court Unit 3-4",
        "address_2": null,
        "address_3": null,
        "city": "Santa Fe",
        "state_province": "New Mexico",
        "postal_code": "87508",
        "country": "United States",
        "longitude": null,
        "latitude": null,
        "phone": "5052217894",
        "website_url": "http://www.tumblerootbreweryanddistillery.com",
        "state": "New Mexico",
        "street": "32 Bisbee Court Unit 3-4"
    },
    {
        "id": "6aae0645-3f00-46f7-89d2-9ebd4aad9cd2",
        "name": "Tumbleweed Brewing and Wine Company",
        "brewery_type": "brewpub",
        "address_1": "124 S Main St",
        "address_2": null,
        "address_3": null,
        "city": "Yuma",
        "state_province": "Colorado",
        "postal_code": "80759",
        "country": "United States",
        "longitude": "-102.7238865",
        "latitude": "40.12462759",
        "phone": "9706302818",
        "website_url": "http://www.tumbleweedbrewing.com",
        "state": "Colorado",
        "street": "124 S Main St"
    },
    {
        "id": "7decf5ce-3597-4b0a-84c9-da60ad030a2e",
        "name": "Tun Tavern Brewery and Restaurant",
        "brewery_type": "brewpub",
        "address_1": "2 Convention Blvd Ste 3",
        "address_2": null,
        "address_3": null,
        "city": "Atlantic City",
        "state_province": "New Jersey",
        "postal_code": "08401-4137",
        "country": "United States",
        "longitude": null,
        "latitude": null,
        "phone": "6093477800",
        "website_url": "http://www.tuntavern.com",
        "state": "New Jersey",
        "street": "2 Convention Blvd Ste 3"
    },
    {
        "id": "498f8ea8-f909-4378-b437-7be8f5d01993",
        "name": "Tuned Up Brewing Company",
        "brewery_type": "micro",
        "address_1": "135 N Main St",
        "address_2": null,
        "address_3": null,
        "city": "Spring City",
        "state_province": "Pennsylvania",
        "postal_code": "19475-1874",
        "country": "United States",
        "longitude": "-75.54752163",
        "latitude": "40.17990279",
        "phone": "6103063182",
        "website_url": null,
        "state": "Pennsylvania",
        "street": "135 N Main St"
    },
    {
        "id": "b0ff46ea-e5fe-4086-9773-8632ecf1ff28",
        "name": "Tunnel Vision Brewery",
        "brewery_type": "brewpub",
        "address_1": "5699 S Lake Shore Dr",
        "address_2": null,
        "address_3": null,
        "city": "Harbor Springs",
        "state_province": "Michigan",
        "postal_code": "49740-9784",
        "country": "United States",
        "longitude": "-85.065042",
        "latitude": "45.471828",
        "phone": "2315263276",
        "website_url": "http://www.pondhill.com",
        "state": "Michigan",
        "street": "5699 S Lake Shore Dr"
    },
    {
        "id": "ed15a267-a12c-4343-a94f-46ee2488c42a",
        "name": "Tuppers Hop Pocket Ale",
        "brewery_type": "contract",
        "address_1": "6404 Redwing Rd",
        "address_2": null,
        "address_3": null,
        "city": "Bethesda",
        "state_province": "Maryland",
        "postal_code": "20817-5920",
        "country": "United States",
        "longitude": null,
        "latitude": null,
        "phone": "3012292027",
        "website_url": "http://www.tuppersbeers.com",
        "state": "Maryland",
        "street": "6404 Redwing Rd"
    },
    {
        "id": "898d4d98-92c7-4e57-9b3f-310a60bc45c9",
        "name": "Tupps Brewery",
        "brewery_type": "micro",
        "address_1": "721 Anderson St",
        "address_2": null,
        "address_3": null,
        "city": "McKinney",
        "state_province": "Texas",
        "postal_code": "75069-7149",
        "country": "United States",
        "longitude": "-96.61169549",
        "latitude": "33.18370422",
        "phone": "2147045039",
        "website_url": "http://www.tuppsbrewery.com",
        "state": "Texas",
        "street": "721 Anderson St"
    },
    {
        "id": "b6631112-1916-4334-a5cf-f2937c70a976",
        "name": "Turgua Brewing Co",
        "brewery_type": "micro",
        "address_1": "27 Firefly Hollow Dr",
        "address_2": null,
        "address_3": null,
        "city": "Fairview",
        "state_province": "North Carolina",
        "postal_code": "28730-1648",
        "country": "United States",
        "longitude": null,
        "latitude": null,
        "phone": "8282220984",
        "website_url": "http://www.turguabrewing.com",
        "state": "North Carolina",
        "street": "27 Firefly Hollow Dr"
    },
    {
        "id": "41b29d2c-64d2-4b0e-948c-66f6a93fc226",
        "name": "Turkey Forrest Brewing",
        "brewery_type": "micro",
        "address_1": "1848 Airline Dr. Suite C",
        "address_2": null,
        "address_3": null,
        "city": "Houston",
        "state_province": "Texas",
        "postal_code": "77009",
        "country": "United States",
        "longitude": null,
        "latitude": null,
        "phone": null,
        "website_url": null,
        "state": "Texas",
        "street": "1848 Airline Dr. Suite C"
    },
    {
        "id": "af9086ee-bd51-4290-a609-8d3e35806c40",
        "name": "Turkey Hill Brewing Co Pub",
        "brewery_type": "brewpub",
        "address_1": "991 Central Rd",
        "address_2": null,
        "address_3": null,
        "city": "Bloomsburg",
        "state_province": "Pennsylvania",
        "postal_code": "17815-8990",
        "country": "United States",
        "longitude": null,
        "latitude": null,
        "phone": "5703878422",
        "website_url": "http://www.turkeyhillbrewing.com",
        "state": "Pennsylvania",
        "street": "991 Central Rd"
    },
    {
        "id": "ffe5f5cd-242c-4da3-96ed-d8468a342284",
        "name": "Turn 2 Brewing Company Inc.",
        "brewery_type": "planning",
        "address_1": null,
        "address_2": null,
        "address_3": null,
        "city": "Sebring",
        "state_province": "Florida",
        "postal_code": "33872-9253",
        "country": "United States",
        "longitude": null,
        "latitude": null,
        "phone": null,
        "website_url": "http://www.turn2brew.com",
        "state": "Florida",
        "street": null
    },
    {
        "id": "940232f8-d664-42b4-aa8c-2b663d877252",
        "name": "Turnagain Brewing",
        "brewery_type": "micro",
        "address_1": "7920 King St",
        "address_2": null,
        "address_3": null,
        "city": "Anchorage",
        "state_province": "Alaska",
        "postal_code": "99518-3058",
        "country": "United States",
        "longitude": "-149.878675",
        "latitude": "61.14944",
        "phone": "9076462337",
        "website_url": "https://www.turnagainbrewing.com",
        "state": "Alaska",
        "street": "7920 King St"
    },
    {
        "id": "b7130d67-9eb1-48e8-9c28-0fc26e4b2bd5",
        "name": "Turning Point Beer, LLC",
        "brewery_type": "micro",
        "address_1": "1307 Brown Trl",
        "address_2": null,
        "address_3": null,
        "city": "Bedford",
        "state_province": "Texas",
        "postal_code": "76022-6401",
        "country": "United States",
        "longitude": null,
        "latitude": null,
        "phone": "8179251131",
        "website_url": "http://Www.turningpointbeer.com",
        "state": "Texas",
        "street": "1307 Brown Trl"
    },
    {
        "id": "f8891e9b-c233-4c2c-aa2f-fb0a59d06dce",
        "name": "Turtle Anarchy Brewing Co",
        "brewery_type": "micro",
        "address_1": "5901 California Ave Ste 105",
        "address_2": null,
        "address_3": null,
        "city": "Nashville",
        "state_province": "Tennessee",
        "postal_code": "37209-1370",
        "country": "United States",
        "longitude": "-86.85861737",
        "latitude": "36.16458388",
        "phone": null,
        "website_url": "http://www.turtleanarchy.com",
        "state": "Tennessee",
        "street": "5901 California Ave Ste 105"
    },
    {
        "id": "e4230c83-bfbc-4e17-a3da-7966a859d4af",
        "name": "Turtle Mountain Brewing Co",
        "brewery_type": "brewpub",
        "address_1": "905 36th Pl SE Ste C",
        "address_2": null,
        "address_3": null,
        "city": "Rio Rancho",
        "state_province": "New Mexico",
        "postal_code": "87124-4850",
        "country": "United States",
        "longitude": null,
        "latitude": null,
        "phone": "5059949497",
        "website_url": "http://www.turtlemountainbrewing.com",
        "state": "New Mexico",
        "street": "905 36th Pl SE Ste C"
    },
    {
        "id": "7c79df16-b284-4388-99f8-7960b6d66504",
        "name": "Turtle Stack Brewery",
        "brewery_type": "micro",
        "address_1": "125 2nd St S",
        "address_2": null,
        "address_3": null,
        "city": "La Crosse",
        "state_province": "Wisconsin",
        "postal_code": "54601-3206",
        "country": "United States",
        "longitude": "-91.2539366",
        "latitude": "43.81301528",
        "phone": "6085192284",
        "website_url": "http://www.turtlestackbrewery.com",
        "state": "Wisconsin",
        "street": "125 2nd St S"
    },
    {
        "id": "d80aff0a-64a7-4a7f-b609-4386dc7a1d59",
        "name": "Turtle Swamp Brewing",
        "brewery_type": "micro",
        "address_1": "3377 Washington St",
        "address_2": null,
        "address_3": null,
        "city": "Jamaica Plain",
        "state_province": "Massachusetts",
        "postal_code": "02130-2617",
        "country": "United States",
        "longitude": "-71.1123668",
        "latitude": "42.3014592",
        "phone": "6175220038",
        "website_url": "http://www.turtleswampbrewing.com",
        "state": "Massachusetts",
        "street": "3377 Washington St"
    },
    {
        "id": "f1f61792-e88e-4d36-8892-fa9ddc7499f8",
        "name": "Tusculum Farm Enterprises, LLC",
        "brewery_type": "planning",
        "address_1": null,
        "address_2": null,
        "address_3": null,
        "city": "Laytonsville",
        "state_province": "Maryland",
        "postal_code": "20882-2117",
        "country": "United States",
        "longitude": null,
        "latitude": null,
        "phone": "8337332216",
        "website_url": "http://tusculumfarm.com",
        "state": "Maryland",
        "street": null
    },
    {
        "id": "5891a22a-ac15-4646-a0bb-4b9127899213",
        "name": "Tusculum Holdings, LLC",
        "brewery_type": "planning",
        "address_1": null,
        "address_2": null,
        "address_3": null,
        "city": "Boerne",
        "state_province": "Texas",
        "postal_code": "78006-2334",
        "country": "United States",
        "longitude": null,
        "latitude": null,
        "phone": "3612286227",
        "website_url": "http://www.tusculumbrewing.com",
        "state": "Texas",
        "street": null
    },
    {
        "id": "5a17161e-23d6-4b05-bf60-70b4fbdbbadf",
        "name": "Tustin Brewing Co",
        "brewery_type": "brewpub",
        "address_1": "13011 Newport Ave Ste 100",
        "address_2": null,
        "address_3": null,
        "city": "Tustin",
        "state_province": "California",
        "postal_code": "92780-3517",
        "country": "United States",
        "longitude": "-117.8107616",
        "latitude": "33.75003812",
        "phone": "7146652337",
        "website_url": "http://www.tustinbrewery.com",
        "state": "California",
        "street": "13011 Newport Ave Ste 100"
    },
    {
        "id": "e1bdce52-7dc7-4377-a5c2-4506452da993",
        "name": "Tuthilltown Spirits",
        "brewery_type": "planning",
        "address_1": null,
        "address_2": null,
        "address_3": null,
        "city": "Gardiner",
        "state_province": "New York",
        "postal_code": "12525-5528",
        "country": "United States",
        "longitude": null,
        "latitude": null,
        "phone": "8452551527",
        "website_url": null,
        "state": "New York",
        "street": null
    },
    {
        "id": "6c0d332d-0cb5-4b00-aa81-d04650eefe9a",
        "name": "TUYA SuperBrewing Co.",
        "brewery_type": "planning",
        "address_1": null,
        "address_2": null,
        "address_3": null,
        "city": "Santa Cruz",
        "state_province": "California",
        "postal_code": "95062-1411",
        "country": "United States",
        "longitude": "-122.0297182",
        "latitude": "36.974201",
        "phone": "8444878892",
        "website_url": "http://www.tuyasuperbrew.com",
        "state": "California",
        "street": null
    },
    {
        "id": "ce6068ab-2993-4129-a451-c304506f817a",
        "name": "TW Pitchers Brewing Co",
        "brewery_type": "contract",
        "address_1": "1329 17th Ave",
        "address_2": null,
        "address_3": null,
        "city": "San Francisco",
        "state_province": "California",
        "postal_code": "94122-1912",
        "country": "United States",
        "longitude": "-122.4750486",
        "latitude": "37.76307771",
        "phone": "4159992009",
        "website_url": "http://www.twpitchers.com",
        "state": "California",
        "street": "1329 17th Ave"
    },
    {
        "id": "6fa0be54-2886-4a87-98cf-189e9432310c",
        "name": "Twain's Brewpub & Billiards",
        "brewery_type": "brewpub",
        "address_1": "211 E Trinity Pl",
        "address_2": null,
        "address_3": null,
        "city": "Decatur",
        "state_province": "Georgia",
        "postal_code": "30030-3414",
        "country": "United States",
        "longitude": "-84.294616",
        "latitude": "33.77228",
        "phone": "4043730063",
        "website_url": "http://www.twains.net",
        "state": "Georgia",
        "street": "211 E Trinity Pl"
    },
    {
        "id": "4203409e-7d4b-4ca0-8adc-c7f24ecceacc",
        "name": "Tweaking Frog Brewing Company",
        "brewery_type": "micro",
        "address_1": "211 Main St Ste A",
        "address_2": null,
        "address_3": null,
        "city": "Farmingdale",
        "state_province": "New York",
        "postal_code": "11735-2675",
        "country": "United States",
        "longitude": null,
        "latitude": null,
        "phone": "6318975509",
        "website_url": "http://www.tweakingfrogbrewing.com",
        "state": "New York",
        "street": "211 Main St Ste A"
    },
    {
        "id": "0b083637-2a0d-46e0-b0be-f86aa755a92e",
        "name": "Twelve String Brewing Co",
        "brewery_type": "closed",
        "address_1": "11616 E Montgomery Dr Ste 26",
        "address_2": null,
        "address_3": null,
        "city": "Spokane",
        "state_province": "Washington",
        "postal_code": "99206-6608",
        "country": "United States",
        "longitude": "-117.24896931727271",
        "latitude": "47.67753394140628",
        "phone": "5092413697",
        "website_url": "http://www.twelvestringbrewingco.com",
        "state": "Washington",
        "street": "11616 E Montgomery Dr Ste 26"
    },
    {
        "id": "4a8da7bd-80fb-4b2f-9447-eee7bd87781f",
        "name": "Twenty Below Brewing @ Twenty Tap",
        "brewery_type": "brewpub",
        "address_1": "5406 N College Ave",
        "address_2": null,
        "address_3": null,
        "city": "Indianapolis",
        "state_province": "Indiana",
        "postal_code": "46220-3126",
        "country": "United States",
        "longitude": "-86.1449174",
        "latitude": "39.8095687",
        "phone": "3176028840",
        "website_url": "http://www.twentytap.com",
        "state": "Indiana",
        "street": "5406 N College Ave"
    },
    {
        "id": "84f3121a-293b-4a1e-89c8-c7fa0ca735d5",
        "name": "Twenty-Six Acres Brewing Company",
        "brewery_type": "micro",
        "address_1": "7285 Westwinds Blvd NW",
        "address_2": null,
        "address_3": null,
        "city": "Concord",
        "state_province": "North Carolina",
        "postal_code": "28027-3310",
        "country": "United States",
        "longitude": "-80.72192703",
        "latitude": "35.38617748",
        "phone": "9802772337",
        "website_url": "http://www.26acres.com",
        "state": "North Carolina",
        "street": "7285 Westwinds Blvd NW"
    },
    {
        "id": "e53fb44b-d194-49f0-9549-c8355297616d",
        "name": "TwentyNine Brewpub",
        "brewery_type": "brewpub",
        "address_1": "1775 Marion-Waldo Rd",
        "address_2": null,
        "address_3": null,
        "city": "Marion",
        "state_province": "Ohio",
        "postal_code": "43302",
        "country": "United States",
        "longitude": "-83.1163533",
        "latitude": "40.55509204",
        "phone": "7407514586",
        "website_url": null,
        "state": "Ohio",
        "street": "1775 Marion-Waldo Rd"
    },
    {
        "id": "6382851d-cf32-4ba2-b725-6d8732fa4fcc",
        "name": "Twin Creeks Brewing Company",
        "brewery_type": "micro",
        "address_1": "111 S Pollard St",
        "address_2": null,
        "address_3": null,
        "city": "Vinton",
        "state_province": "Virginia",
        "postal_code": "24179-2414",
        "country": "United States",
        "longitude": "-79.8974689",
        "latitude": "37.28075143",
        "phone": "5404000882",
        "website_url": "http://www.twincreeksbrewing.com",
        "state": "Virginia",
        "street": "111 S Pollard St"
    },
    {
        "id": "9e9f44ff-cb3e-4e58-b8b0-ce820379abc1",
        "name": "Twin Elephant Brewing Company",
        "brewery_type": "micro",
        "address_1": "13 Watchung Ave Ste 103",
        "address_2": null,
        "address_3": null,
        "city": "Chatham",
        "state_province": "New Jersey",
        "postal_code": "07928-2759",
        "country": "United States",
        "longitude": null,
        "latitude": null,
        "phone": "9735079862",
        "website_url": "http://www.twinelephant.com",
        "state": "New Jersey",
        "street": "13 Watchung Ave Ste 103"
    },
    {
        "id": "50f520a2-4a7e-4c39-90b2-e440e7d38c49",
        "name": "Twin Lakes Brewing Co",
        "brewery_type": "micro",
        "address_1": "405 Marsh Ln Ste 7",
        "address_2": null,
        "address_3": null,
        "city": "Wilmington",
        "state_province": "Delaware",
        "postal_code": "19804-2445",
        "country": "United States",
        "longitude": null,
        "latitude": null,
        "phone": "3029952337",
        "website_url": "http://www.twinlakesbrewingcompany.com",
        "state": "Delaware",
        "street": "405 Marsh Ln Ste 7"
    },
    {
        "id": "44113b77-122d-4680-85e7-cc0662cc6da0",
        "name": "Twin Leaf Brewery",
        "brewery_type": "micro",
        "address_1": "144 Coxe Ave",
        "address_2": null,
        "address_3": null,
        "city": "Asheville",
        "state_province": "North Carolina",
        "postal_code": "28801-4026",
        "country": "United States",
        "longitude": "-82.55454185",
        "latitude": "35.58942485",
        "phone": "8283332221",
        "website_url": "http://www.twinleafbrewery.com",
        "state": "North Carolina",
        "street": "144 Coxe Ave"
    },
    {
        "id": "3d49e8be-de9a-4688-8483-9ffdf3037bf3",
        "name": "Twin Oast Brewing",
        "brewery_type": "brewpub",
        "address_1": "3630 NE Catawba Rd",
        "address_2": null,
        "address_3": null,
        "city": "Catawba Island",
        "state_province": "Ohio",
        "postal_code": "43452",
        "country": "United States",
        "longitude": "-82.832581",
        "latitude": "41.578044",
        "phone": "4195736126",
        "website_url": "http://www.twinoast.com",
        "state": "Ohio",
        "street": "3630 NE Catawba Rd"
    },
    {
        "id": "a2738df3-5b54-4a76-80ee-1e799bc9f9cb",
        "name": "Twin Peaks Brewery",
        "brewery_type": "micro",
        "address_1": "1500 Market Place Blvd",
        "address_2": null,
        "address_3": null,
        "city": "Irving",
        "state_province": "Texas",
        "postal_code": "75063",
        "country": "United States",
        "longitude": "-96.96767266",
        "latitude": "32.91862635",
        "phone": "4699642921",
        "website_url": "http://twinpeaksrestaurants.com/brewery",
        "state": "Texas",
        "street": "1500 Market Place Blvd"
    },
    {
        "id": "6a8fdfd9-8419-4e4a-828e-0dea8bcf5bcb",
        "name": "TWIN SISTERS",
        "brewery_type": "planning",
        "address_1": null,
        "address_2": null,
        "address_3": null,
        "city": "San Antonio",
        "state_province": "Texas",
        "postal_code": "78210",
        "country": "United States",
        "longitude": null,
        "latitude": null,
        "phone": "2108186515",
        "website_url": null,
        "state": "Texas",
        "street": null
    },
    {
        "id": "4917afcb-f644-48c9-81f2-a57c232e6052",
        "name": "Twin Sisters Brewing Company",
        "brewery_type": "brewpub",
        "address_1": "500 Carolina St",
        "address_2": null,
        "address_3": null,
        "city": "Bellingham",
        "state_province": "Washington",
        "postal_code": "98225-4106",
        "country": "United States",
        "longitude": "-122.468971",
        "latitude": "48.760265",
        "phone": "3609226700",
        "website_url": "https://www.twinsistersbrewing.com",
        "state": "Washington",
        "street": "500 Carolina St"
    },
    {
        "id": "cf19b93c-f80d-4c5b-80b5-70cf6cdb0e3f",
        "name": "Twinpanzee Brewing Company",
        "brewery_type": "micro",
        "address_1": "101 Executive Dr Ste D",
        "address_2": null,
        "address_3": null,
        "city": "Sterling",
        "state_province": "Virginia",
        "postal_code": "20166-9557",
        "country": "United States",
        "longitude": null,
        "latitude": null,
        "phone": "7037919363",
        "website_url": "http://www.twinpanzee.com",
        "state": "Virginia",
        "street": "101 Executive Dr Ste D"
    },
    {
        "id": "78da44c9-24f2-47f1-8dfb-e9e38b213fe5",
        "name": "Twisted Ales Craft Brewing Co.",
        "brewery_type": "micro",
        "address_1": "212 W 6th St",
        "address_2": null,
        "address_3": null,
        "city": "Richmond",
        "state_province": "Virginia",
        "postal_code": "23224-2349",
        "country": "United States",
        "longitude": "-77.4420409",
        "latitude": "37.5259842",
        "phone": "8042309439",
        "website_url": "http://www.twistedales.com",
        "state": "Virginia",
        "street": "212 W 6th St"
    }
]