[
    {
        "id": "d54e5f65-dc4f-4db3-8b21-0cbde3d83680",
        "name": "Twisted Barley Brewing Company",
        "brewery_type": "micro",
        "address_1": "520 19th St W",
        "address_2": null,
        "address_3": null,
        "city": "Jasper",
        "state_province": "Alabama",
        "postal_code": "35501-5351",
        "country": "United States",
        "longitude": "-87.28338",
        "latitude": "33.832359",
        "phone": "2052653253",
        "website_url": null,
        "state": "Alabama",
        "street": "520 19th St W"
    },
    {
        "id": "29d82828-d18f-4ad7-9e7c-88bd7a652a7b",
        "name": "Twisted Bine Beer Co.",
        "brewery_type": "planning",
        "address_1": null,
        "address_2": null,
        "address_3": null,
        "city": "Mount Joy",
        "state_province": "Pennsylvania",
        "postal_code": "17552-1424",
        "country": "United States",
        "longitude": null,
        "latitude": null,
        "phone": "7179178577",
        "website_url": null,
        "state": "Pennsylvania",
        "street": null
    },
    {
        "id": "a063bcc2-6017-4131-b6b5-e34ddedf077a",
        "name": "Twisted Cypress Brewing Company",
        "brewery_type": "closed",
        "address_1": "1897 Sam Rittenberg Blvd",
        "address_2": null,
        "address_3": null,
        "city": "Charleston",
        "state_province": "South Carolina",
        "postal_code": "29407-4870",
        "country": "United States",
        "longitude": "-80.0219063",
        "latitude": "32.79905412",
        "phone": "8436081899",
        "website_url": "http://www.twistedcypressbrewingco.com",
        "state": "South Carolina",
        "street": "1897 Sam Rittenberg Blvd"
    },
    {
        "id": "f16ee8bc-0ac3-4403-b7a8-4c4bc0582938",
        "name": "Twisted Hippo",
        "brewery_type": "contract",
        "address_1": "2925 W Montrose Ave",
        "address_2": null,
        "address_3": null,
        "city": "Chicago",
        "state_province": "Illinois",
        "postal_code": "60618-1403",
        "country": "United States",
        "longitude": "-87.7019463",
        "latitude": "41.961125",
        "phone": "7088447768",
        "website_url": "http://Www.twistedhippo.com",
        "state": "Illinois",
        "street": "2925 W Montrose Ave"
    },
    {
        "id": "35d329e7-2608-44c0-b328-c3d54dd764cf",
        "name": "Twisted Pine Brewing Co",
        "brewery_type": "brewpub",
        "address_1": "3201 Walnut St Ste A",
        "address_2": null,
        "address_3": null,
        "city": "Boulder",
        "state_province": "Colorado",
        "postal_code": "80301-2645",
        "country": "United States",
        "longitude": null,
        "latitude": null,
        "phone": "3037869270",
        "website_url": "http://www.twistedpinebrewing.com",
        "state": "Colorado",
        "street": "3201 Walnut St Ste A"
    },
    {
        "id": "6151ad7d-80a5-457a-9b2d-138e3a6ae77a",
        "name": "Twisted Rail Brewing Company",
        "brewery_type": "micro",
        "address_1": "169 Lakeshore Dr",
        "address_2": null,
        "address_3": null,
        "city": "Canandaigua",
        "state_province": "New York",
        "postal_code": "14424-2309",
        "country": "United States",
        "longitude": "-77.262436",
        "latitude": "42.87507",
        "phone": "5853960683",
        "website_url": "http://www.twistedrailbrewing.com",
        "state": "New York",
        "street": "169 Lakeshore Dr"
    },
    {
        "id": "218d3127-127b-4e78-a192-db5617c2f6fa",
        "name": "Twisted Roots Brewing",
        "brewery_type": "micro",
        "address_1": "3690 Forest Park Ave",
        "address_2": null,
        "address_3": null,
        "city": "Saint Louis",
        "state_province": "Missouri",
        "postal_code": "63108",
        "country": "United States",
        "longitude": "-90.238117",
        "latitude": "38.637188",
        "phone": "3144496363",
        "website_url": "http://www.twistedrootsbrewing.com",
        "state": "Missouri",
        "street": "3690 Forest Park Ave"
    },
    {
        "id": "f4954559-b115-469a-824e-afa6e37cd9a3",
        "name": "Twisted Spike Brewing Company",
        "brewery_type": "micro",
        "address_1": "1 NW 10th St",
        "address_2": null,
        "address_3": null,
        "city": "Oklahoma City",
        "state_province": "Oklahoma",
        "postal_code": "73103-4901",
        "country": "United States",
        "longitude": "-97.6785729",
        "latitude": "35.4787783",
        "phone": "4052979961",
        "website_url": "http://twistedspike.com",
        "state": "Oklahoma",
        "street": "1 NW 10th St"
    },
    {
        "id": "e6f28e79-056e-4995-9e6e-9747c06ae023",
        "name": "Twisted Spur Brewing",
        "brewery_type": "brewpub",
        "address_1": "705 Gervais St Ste A",
        "address_2": null,
        "address_3": null,
        "city": "Columbia",
        "state_province": "South Carolina",
        "postal_code": "29201-6012",
        "country": "United States",
        "longitude": null,
        "latitude": null,
        "phone": "8037640203",
        "website_url": null,
        "state": "South Carolina",
        "street": "705 Gervais St Ste A"
    },
    {
        "id": "7570bfc2-7a5e-444e-bbb4-995703ea572b",
        "name": "Twisted Trunk Brewing Company",
        "brewery_type": "micro",
        "address_1": "2000 Pga Blvd Ste 5506",
        "address_2": null,
        "address_3": null,
        "city": "North Palm Beach",
        "state_province": "Florida",
        "postal_code": "33408-2726",
        "country": "United States",
        "longitude": null,
        "latitude": null,
        "phone": "5616712337",
        "website_url": "http://www.twistedtrunkbrewing.com",
        "state": "Florida",
        "street": "2000 Pga Blvd Ste 5506"
    },
    {
        "id": "cee9d52e-b11f-489e-ace5-d67641dbd713",
        "name": "Twisted Vine Brewery",
        "brewery_type": "micro",
        "address_1": "3320 Westown Pkwy",
        "address_2": null,
        "address_3": null,
        "city": "West Des Moines",
        "state_province": "Iowa",
        "postal_code": "50266-1111",
        "country": "United States",
        "longitude": "-93.7489517",
        "latitude": "41.5936597",
        "phone": "5157202940",
        "website_url": "http://www.twistedvinebrewery.com",
        "state": "Iowa",
        "street": "3320 Westown Pkwy"
    },
    {
        "id": "90131c8a-a9c4-4c9f-86ea-08d631535a56",
        "name": "Twisted X Brewing Co",
        "brewery_type": "micro",
        "address_1": "23455 West RR 150",
        "address_2": null,
        "address_3": null,
        "city": "Dripping Springs",
        "state_province": "Texas",
        "postal_code": "78620",
        "country": "United States",
        "longitude": null,
        "latitude": null,
        "phone": "5128295323",
        "website_url": "http://www.twistedxbrewing.com",
        "state": "Texas",
        "street": "23455 West RR 150"
    },
    {
        "id": "56959793-d728-4902-809a-5d075c5b2836",
        "name": "Two Bald Guys Beverage Co",
        "brewery_type": "contract",
        "address_1": "18090 Hazelnut Dr",
        "address_2": null,
        "address_3": null,
        "city": "Reno",
        "state_province": "Nevada",
        "postal_code": "89508-6898",
        "country": "United States",
        "longitude": null,
        "latitude": null,
        "phone": null,
        "website_url": "http://www.drinktwobaldguys.com",
        "state": "Nevada",
        "street": "18090 Hazelnut Dr"
    },
    {
        "id": "183f1e6c-ef70-449f-a77b-de8913b19e2b",
        "name": "Two Bandits Brewing Company",
        "brewery_type": "brewpub",
        "address_1": "106 E High St",
        "address_2": null,
        "address_3": null,
        "city": "Hicksville",
        "state_province": "Ohio",
        "postal_code": "43526",
        "country": "United States",
        "longitude": "-84.76170108",
        "latitude": "41.29361163",
        "phone": "4195421087",
        "website_url": null,
        "state": "Ohio",
        "street": "106 E High St"
    },
    {
        "id": "1bc963a8-bc05-4e51-ad51-79bf80e8e426",
        "name": "Two Beagles Brewpub",
        "brewery_type": "brewpub",
        "address_1": "910 2nd Ave N",
        "address_2": null,
        "address_3": null,
        "city": "Onalaska",
        "state_province": "Wisconsin",
        "postal_code": "54650-2277",
        "country": "United States",
        "longitude": null,
        "latitude": null,
        "phone": "6085191921",
        "website_url": "http://www.twobeaglesbrewpub.com",
        "state": "Wisconsin",
        "street": "910 2nd Ave N"
    },
    {
        "id": "b658090d-6800-432d-9825-2988f375bc13",
        "name": "Two Blokes Brewing Co.",
        "brewery_type": "micro",
        "address_1": "547 Long Point Rd Ste 101",
        "address_2": null,
        "address_3": null,
        "city": "Mount Pleasant",
        "state_province": "South Carolina",
        "postal_code": "29464-8337",
        "country": "United States",
        "longitude": null,
        "latitude": null,
        "phone": "8436544564",
        "website_url": "http://www.twoblokesbrewing.com",
        "state": "South Carolina",
        "street": "547 Long Point Rd Ste 101"
    },
    {
        "id": "5c8ee4a7-a254-4325-9715-1110c71753d3",
        "name": "Two Brothers Brewing Co",
        "brewery_type": "regional",
        "address_1": "30W315 Calumet Ave W",
        "address_2": null,
        "address_3": null,
        "city": "Warrenville",
        "state_province": "Illinois",
        "postal_code": "60555-1565",
        "country": "United States",
        "longitude": null,
        "latitude": null,
        "phone": "6303934800",
        "website_url": "http://www.TwoBrothersBrewing.com",
        "state": "Illinois",
        "street": "30W315 Calumet Ave W"
    },
    {
        "id": "287e8cd1-bfb6-4c9c-b38f-bcde56ccb472",
        "name": "Two Brothers Scottsdale Tap House and Brewery",
        "brewery_type": "brewpub",
        "address_1": "4321 N Scottsdale Rd",
        "address_2": null,
        "address_3": null,
        "city": "Scottsdale",
        "state_province": "Arizona",
        "postal_code": "85251-3329",
        "country": "United States",
        "longitude": "-111.9254955",
        "latitude": "33.658427",
        "phone": "4803783001",
        "website_url": null,
        "state": "Arizona",
        "street": "4321 N Scottsdale Rd"
    },
    {
        "id": "353afc36-cb18-4de5-a77f-1a065ab1d6d1",
        "name": "Two Coast Brewing Co.",
        "brewery_type": "micro",
        "address_1": "14928 S Figueroa St",
        "address_2": null,
        "address_3": null,
        "city": "Gardena",
        "state_province": "California",
        "postal_code": "90248",
        "country": "United States",
        "longitude": "-118.2819715",
        "latitude": "33.89680488",
        "phone": "3107300055",
        "website_url": "http://www.twocoastbrewing.com",
        "state": "California",
        "street": "14928 S Figueroa St"
    },
    {
        "id": "e151bd5e-806b-44d0-aa9e-c321f7a566b9",
        "name": "Two Docs Brewing Co.",
        "brewery_type": "planning",
        "address_1": null,
        "address_2": null,
        "address_3": null,
        "city": "Lubbock",
        "state_province": "Texas",
        "postal_code": "79401",
        "country": "United States",
        "longitude": null,
        "latitude": null,
        "phone": null,
        "website_url": "http://twodocsbrewing.com",
        "state": "Texas",
        "street": null
    },
    {
        "id": "5cccb3f6-eb09-4a57-9709-d6ea09547e9c",
        "name": "Two Dude Brew",
        "brewery_type": "planning",
        "address_1": null,
        "address_2": null,
        "address_3": null,
        "city": "Clearlake",
        "state_province": "California",
        "postal_code": "95422-8159",
        "country": "United States",
        "longitude": "-122.6263728",
        "latitude": "38.9582307",
        "phone": "7075337600",
        "website_url": null,
        "state": "California",
        "street": null
    },
    {
        "id": "1b2e6967-a506-4e9e-9a34-470ae9101074",
        "name": "Two Fathers Beer Co",
        "brewery_type": "contract",
        "address_1": "2016 Belvidere Rd",
        "address_2": null,
        "address_3": null,
        "city": "Virginia Beach",
        "state_province": "Virginia",
        "postal_code": "23454-2233",
        "country": "United States",
        "longitude": "-76.0389065",
        "latitude": "36.86874825",
        "phone": "7573092518",
        "website_url": "http://www.twofathersbeer.com",
        "state": "Virginia",
        "street": "2016 Belvidere Rd"
    },
    {
        "id": "fa21605f-18f8-48da-9302-97dcf2d3ac64",
        "name": "Two Frogs Brewing Company",
        "brewery_type": "micro",
        "address_1": "151 E Tarpon Ave",
        "address_2": null,
        "address_3": null,
        "city": "Tarpon Springs",
        "state_province": "Florida",
        "postal_code": "34689-3451",
        "country": "United States",
        "longitude": "-82.75503088",
        "latitude": "28.14632482",
        "phone": "7279406077",
        "website_url": null,
        "state": "Florida",
        "street": "151 E Tarpon Ave"
    },
    {
        "id": "b30278b8-ab10-4bc3-b983-2203008e7b12",
        "name": "Two Goats Brewing",
        "brewery_type": "brewpub",
        "address_1": "5027 State Route 414",
        "address_2": null,
        "address_3": null,
        "city": "Burdett",
        "state_province": "New York",
        "postal_code": "14818-9816",
        "country": "United States",
        "longitude": null,
        "latitude": null,
        "phone": "607546",
        "website_url": "http://www.twogoatsbrewing.com",
        "state": "New York",
        "street": "5027 State Route 414"
    },
    {
        "id": "36b75972-6f6a-4e3e-b1ac-0b137f9c6410",
        "name": "Two Gramps Brewing",
        "brewery_type": "brewpub",
        "address_1": "266 Water St",
        "address_2": null,
        "address_3": null,
        "city": "Gardiner",
        "state_province": "Maine",
        "postal_code": "04345",
        "country": "United States",
        "longitude": "-69.77292634",
        "latitude": "44.22957832",
        "phone": "2075920776",
        "website_url": "http://www.twogrampsbrewing.com",
        "state": "Maine",
        "street": "266 Water St"
    },
    {
        "id": "02c2b09f-d059-4888-9164-e7d963c709e5",
        "name": "Two Henrys Brewing Company",
        "brewery_type": "micro",
        "address_1": "5210 Thonotosassa Rd",
        "address_2": null,
        "address_3": null,
        "city": "Plant City",
        "state_province": "Florida",
        "postal_code": "33565-5700",
        "country": "United States",
        "longitude": "-82.1366836",
        "latitude": "28.0158875",
        "phone": "8137529100",
        "website_url": null,
        "state": "Florida",
        "street": "5210 Thonotosassa Rd"
    },
    {
        "id": "f5723c43-2256-4abb-9d9e-66d388050870",
        "name": "Two Kilts Brewing",
        "brewery_type": "micro",
        "address_1": "14841 SW Tualatin Sherwood Rd Ste 501",
        "address_2": null,
        "address_3": null,
        "city": "Sherwood",
        "state_province": "Oregon",
        "postal_code": "97140-7127",
        "country": "United States",
        "longitude": "-122.8308802",
        "latitude": "45.36773305",
        "phone": "5036251700",
        "website_url": "http://www.twokiltsbrewing.com",
        "state": "Oregon",
        "street": "14841 SW Tualatin Sherwood Rd Ste 501"
    },
    {
        "id": "8b8dec5f-62d9-4970-8425-446c9f72026f",
        "name": "Two Knights Brewing",
        "brewery_type": "planning",
        "address_1": null,
        "address_2": null,
        "address_3": null,
        "city": "Austin",
        "state_province": "Texas",
        "postal_code": "78701-3720",
        "country": "United States",
        "longitude": null,
        "latitude": null,
        "phone": "5124176561",
        "website_url": null,
        "state": "Texas",
        "street": null
    },
    {
        "id": "5edd07f2-5db8-4527-b234-227b23129c43",
        "name": "Two Monks Brewing Company",
        "brewery_type": "micro",
        "address_1": "352 Massillon Rd",
        "address_2": null,
        "address_3": null,
        "city": "Akron",
        "state_province": "Ohio",
        "postal_code": "44312-2021",
        "country": "United States",
        "longitude": "-81.46292368",
        "latitude": "41.05205025",
        "phone": "2347382337",
        "website_url": "http://www.2monksbru.com",
        "state": "Ohio",
        "street": "352 Massillon Rd"
    },
    {
        "id": "a893c395-8dab-41a1-9b57-eee9e396ecb9",
        "name": "Two Plumbers Brewery and Arcade",
        "brewery_type": "micro",
        "address_1": "2236 1st Capitol Dr",
        "address_2": null,
        "address_3": null,
        "city": "Saint Charles",
        "state_province": "Missouri",
        "postal_code": "63301",
        "country": "United States",
        "longitude": "-90.511795",
        "latitude": "38.791625",
        "phone": "6362248626",
        "website_url": "http://www.twoplumbers.com",
        "state": "Missouri",
        "street": "2236 1st Capitol Dr"
    },
    {
        "id": "1f1af7ee-3a2a-4c3e-ae68-584d60381d80",
        "name": "Two Rascals Brewing Co",
        "brewery_type": "micro",
        "address_1": "147 N 1st St",
        "address_2": null,
        "address_3": null,
        "city": "Montrose",
        "state_province": "Colorado",
        "postal_code": "81401-3601",
        "country": "United States",
        "longitude": "-107.8800003",
        "latitude": "38.4788199",
        "phone": "9702498689",
        "website_url": "http://www.tworascalsbrewing.com",
        "state": "Colorado",
        "street": "147 N 1st St"
    },
    {
        "id": "1d4b058c-f5ac-4884-9ab5-d0d0d5cbf11c",
        "name": "Two Rivers Brewing Co",
        "brewery_type": "brewpub",
        "address_1": "542 Northampton St",
        "address_2": null,
        "address_3": null,
        "city": "Easton",
        "state_province": "Pennsylvania",
        "postal_code": "18042-3517",
        "country": "United States",
        "longitude": "-75.214292",
        "latitude": "40.69072655",
        "phone": "6108291131",
        "website_url": "http://www.tworiversbrewing.com",
        "state": "Pennsylvania",
        "street": "542 Northampton St"
    },
    {
        "id": "0c45746b-fe2f-4171-b1e7-181027857e22",
        "name": "Two Roads Brewing Co",
        "brewery_type": "regional",
        "address_1": "1700 Stratford Ave",
        "address_2": null,
        "address_3": null,
        "city": "Stratford",
        "state_province": "Connecticut",
        "postal_code": "06615-6419",
        "country": "United States",
        "longitude": "-73.151247",
        "latitude": "41.184374",
        "phone": "2033352010",
        "website_url": "http://www.tworoadsbrewing.com",
        "state": "Connecticut",
        "street": "1700 Stratford Ave"
    },
    {
        "id": "3c6ba9ee-3f7e-475f-a3d5-76d9924068ad",
        "name": "Two Rows Restaurant and Brewery - Allen",
        "brewery_type": "contract",
        "address_1": "711 Central Expy S",
        "address_2": null,
        "address_3": null,
        "city": "Allen",
        "state_province": "Texas",
        "postal_code": "75013-8012",
        "country": "United States",
        "longitude": "-96.67987289",
        "latitude": "33.0921542",
        "phone": "9723968670",
        "website_url": "http://www.tworows.com/",
        "state": "Texas",
        "street": "711 Central Expy S"
    },
    {
        "id": "ec650c63-7266-4177-abe7-9eabdc5a6c73",
        "name": "Two Tides Brewing Company",
        "brewery_type": "micro",
        "address_1": "12 West 41st St",
        "address_2": null,
        "address_3": null,
        "city": "Savannah",
        "state_province": "Georgia",
        "postal_code": "31401",
        "country": "United States",
        "longitude": "-81.10216092",
        "latitude": "32.054127",
        "phone": "9126670706",
        "website_url": "http://www.twotidesbrewing.com",
        "state": "Georgia",
        "street": "12 West 41st St"
    },
    {
        "id": "ad179174-6550-4b63-8055-301c822af22b",
        "name": "Two Ton Brewing",
        "brewery_type": "micro",
        "address_1": "730 Federal Ave",
        "address_2": null,
        "address_3": null,
        "city": "Kenilworth",
        "state_province": "New Jersey",
        "postal_code": "07033",
        "country": "United States",
        "longitude": "-74.28663992",
        "latitude": "40.67871822",
        "phone": null,
        "website_url": "http://www.twotonbrewing.com",
        "state": "New Jersey",
        "street": "730 Federal Ave"
    },
    {
        "id": "7712331d-cff9-48e9-a76a-da423aadc841",
        "name": "Two Wheel Brewing Company",
        "brewery_type": "micro",
        "address_1": "535 S Loop 4",
        "address_2": null,
        "address_3": null,
        "city": "Buda",
        "state_province": "Texas",
        "postal_code": "78610-9388",
        "country": "United States",
        "longitude": null,
        "latitude": null,
        "phone": "5123613401",
        "website_url": "http://www.twowheelbrewing.com",
        "state": "Texas",
        "street": "535 S Loop 4"
    },
    {
        "id": "64d344a6-fdd2-4e92-9838-2c360f783fd5",
        "name": "Two-Shy Brewing",
        "brewery_type": "micro",
        "address_1": "1308 NW Park St Ste 100",
        "address_2": null,
        "address_3": null,
        "city": "Roseburg",
        "state_province": "Oregon",
        "postal_code": "97470-2058",
        "country": "United States",
        "longitude": "-123.3553263",
        "latitude": "43.22538387",
        "phone": "5412362055",
        "website_url": "http://www.twoshybrewing.com",
        "state": "Oregon",
        "street": "1308 NW Park St Ste 100"
    },
    {
        "id": "91673432-855c-469a-a703-18f8451b6365",
        "name": "Two22 Brew",
        "brewery_type": "micro",
        "address_1": "4550 S Reservoir Rd",
        "address_2": null,
        "address_3": null,
        "city": "Centennial",
        "state_province": "Colorado",
        "postal_code": "80015-2878",
        "country": "United States",
        "longitude": "-104.7601698",
        "latitude": "39.63429093",
        "phone": "7203289038",
        "website_url": "http://www.two22brew.com",
        "state": "Colorado",
        "street": "4550 S Reservoir Rd"
    },
    {
        "id": "179899fd-256c-42c1-8fc5-7b68c340320b",
        "name": "TwoDEEP Brewing",
        "brewery_type": "brewpub",
        "address_1": "714 N Capitol Ave",
        "address_2": null,
        "address_3": null,
        "city": "Indianapolis",
        "state_province": "Indiana",
        "postal_code": "46204-1114",
        "country": "United States",
        "longitude": "-86.161428",
        "latitude": "39.777426",
        "phone": "3176531884",
        "website_url": "http://www.twodeepbrewing.com",
        "state": "Indiana",
        "street": "714 N Capitol Ave"
    },
    {
        "id": "de49adbf-37b7-4f7f-8ae1-58210e67f073",
        "name": "TwoGuys Brewing",
        "brewery_type": "brewpub",
        "address_1": "2356 Porter St SW",
        "address_2": null,
        "address_3": null,
        "city": "Wyoming",
        "state_province": "Michigan",
        "postal_code": "49519",
        "country": "United States",
        "longitude": "-85.72355013",
        "latitude": "42.92114925",
        "phone": "6165529690",
        "website_url": "http://www.twoguysbrewing.beer",
        "state": "Michigan",
        "street": "2356 Porter St SW"
    },
    {
        "id": "33178929-9e93-4e46-ab90-72c5a91a128f",
        "name": "Tyranena Brewing Co",
        "brewery_type": "micro",
        "address_1": "1025 Owen St",
        "address_2": null,
        "address_3": null,
        "city": "Lake Mills",
        "state_province": "Wisconsin",
        "postal_code": "53551-0736",
        "country": "United States",
        "longitude": "-88.8965312",
        "latitude": "43.0861774",
        "phone": "9206488699",
        "website_url": "http://www.tyranena.com",
        "state": "Wisconsin",
        "street": "1025 Owen St"
    },
    {
        "id": "f997d03c-9301-4ce2-b71c-ac67dca594bd",
        "name": "U4ic Brewing, Inc.",
        "brewery_type": "micro",
        "address_1": "23436 Union Trl Ste 1",
        "address_2": null,
        "address_3": null,
        "city": "Belle Plaine",
        "state_province": "Minnesota",
        "postal_code": "56011-9008",
        "country": "United States",
        "longitude": "-93.8017001",
        "latitude": "44.6232246",
        "phone": "9528733303",
        "website_url": "http://www.u4icbrewing.com",
        "state": "Minnesota",
        "street": "23436 Union Trl Ste 1"
    },
    {
        "id": "2f4e3d86-1b06-4a0e-9335-acfb6abfed37",
        "name": "Uberbrew",
        "brewery_type": "brewpub",
        "address_1": "2305 Montana Ave",
        "address_2": null,
        "address_3": null,
        "city": "Billings",
        "state_province": "Montana",
        "postal_code": "59101-2421",
        "country": "United States",
        "longitude": "-108.4990456",
        "latitude": "45.78417106",
        "phone": "4065346960",
        "website_url": "http://uberbrewmt.com",
        "state": "Montana",
        "street": "2305 Montana Ave"
    },
    {
        "id": "a14412d4-f656-45df-a0ea-453201dc5f31",
        "name": "UBrew Nanobrewery",
        "brewery_type": "micro",
        "address_1": "3054 Cass Rd Unit F",
        "address_2": null,
        "address_3": null,
        "city": "Traverse City",
        "state_province": "Michigan",
        "postal_code": "49684-8800",
        "country": "United States",
        "longitude": null,
        "latitude": null,
        "phone": "2319432016",
        "website_url": "http://www.ubrewtc.com",
        "state": "Michigan",
        "street": "3054 Cass Rd Unit F"
    },
    {
        "id": "611f8c45-a929-433d-b1a1-a590f85c456f",
        "name": "Uinta Brewing Co",
        "brewery_type": "regional",
        "address_1": "1722 S Fremont Dr",
        "address_2": null,
        "address_3": null,
        "city": "Salt Lake City",
        "state_province": "Utah",
        "postal_code": "84104-4215",
        "country": "United States",
        "longitude": "-111.954182",
        "latitude": "40.732607",
        "phone": "8014670909",
        "website_url": "http://www.uintabrewing.com",
        "state": "Utah",
        "street": "1722 S Fremont Dr"
    },
    {
        "id": "591996cc-7431-45a1-b7f4-3b1f9c506cd5",
        "name": "Ukiah Brewing Co",
        "brewery_type": "brewpub",
        "address_1": "102 S State St",
        "address_2": null,
        "address_3": null,
        "city": "Ukiah",
        "state_province": "California",
        "postal_code": "95482-4903",
        "country": "United States",
        "longitude": "-123.2076383",
        "latitude": "39.14945851",
        "phone": "7074685898",
        "website_url": "http://www.ukiahbrewingco.com",
        "state": "California",
        "street": "102 S State St"
    },
    {
        "id": "f3e74162-e002-43ad-acc8-2e55d563cd4a",
        "name": "Ulele Spring Brewery",
        "brewery_type": "brewpub",
        "address_1": "1810 N Highland Ave",
        "address_2": null,
        "address_3": null,
        "city": "Tampa",
        "state_province": "Florida",
        "postal_code": "33602-2605",
        "country": "United States",
        "longitude": "-82.46281904",
        "latitude": "27.9599097",
        "phone": null,
        "website_url": null,
        "state": "Florida",
        "street": "1810 N Highland Ave"
    },
    {
        "id": "637f25db-22ec-4376-ac90-c723340287c1",
        "name": "UnBarred Brewery",
        "brewery_type": "taproom",
        "address_1": "Elder Place",
        "address_2": null,
        "address_3": null,
        "city": "Brighton",
        "state_province": "East Sussex",
        "postal_code": "BN1 4GF",
        "country": "England",
        "longitude": "-0.138599",
        "latitude": "50.832867",
        "phone": "1273894563",
        "website_url": "https://www.unbarredbrewery.com/",
        "state": "East Sussex",
        "street": "Elder Place"
    },
    {
        "id": "c339e1ba-09e5-4f0e-933a-b18fff765eba",
        "name": "Uncle Bear's Brewery",
        "brewery_type": "brewpub",
        "address_1": "4921 E Ray Rd Ste 103",
        "address_2": null,
        "address_3": null,
        "city": "Phoenix",
        "state_province": "Arizona",
        "postal_code": "85044-6495",
        "country": "United States",
        "longitude": null,
        "latitude": null,
        "phone": "4802770765",
        "website_url": "http://www.unclebearsaz.com",
        "state": "Arizona",
        "street": "4921 E Ray Rd Ste 103"
    },
    {
        "id": "d9a65f61-f901-40fe-85d1-620af49e72fb",
        "name": "Uncle Billy's Brewery",
        "brewery_type": "micro",
        "address_1": "1530 Barton Springs Rd",
        "address_2": null,
        "address_3": null,
        "city": "Austin",
        "state_province": "Texas",
        "postal_code": "78704-1013",
        "country": "United States",
        "longitude": "-97.76126939",
        "latitude": "30.262109",
        "phone": "5124760100",
        "website_url": "http://www.unclebillys.com",
        "state": "Texas",
        "street": "1530 Barton Springs Rd"
    },
    {
        "id": "a980eb42-934a-4bca-8044-43fc23b43eb9",
        "name": "Uncle Buck's Brewery And Steakhouse",
        "brewery_type": "brewpub",
        "address_1": "2501 Bass Pro Dr",
        "address_2": null,
        "address_3": null,
        "city": "Grapevine",
        "state_province": "Texas",
        "postal_code": "76051-2009",
        "country": "United States",
        "longitude": null,
        "latitude": null,
        "phone": "9726915100",
        "website_url": "http://restaurants.basspro.com/UncleBucksSteakhouse/",
        "state": "Texas",
        "street": "2501 Bass Pro Dr"
    },
    {
        "id": "684dfd0e-c132-413a-bb46-9daf08ed35e7",
        "name": "Uncle Ernies Bayfront Grill & Brew House",
        "brewery_type": "contract",
        "address_1": "1151 Bayview Ave",
        "address_2": null,
        "address_3": null,
        "city": "Panama City",
        "state_province": "Florida",
        "postal_code": "32401-1452",
        "country": "United States",
        "longitude": "-85.702765",
        "latitude": "30.1698125",
        "phone": "8507638427",
        "website_url": "http://uncleerniesbayfrontgrill.com/welcome/",
        "state": "Florida",
        "street": "1151 Bayview Ave"
    },
    {
        "id": "45e1a706-1fb7-4a98-8007-817f9ffce1c8",
        "name": "Uncommon Brewers",
        "brewery_type": "closed",
        "address_1": "303 Potrero St Ste 40H",
        "address_2": null,
        "address_3": null,
        "city": "Santa Cruz",
        "state_province": "California",
        "postal_code": "95060-2778",
        "country": "United States",
        "longitude": "-122.0310356",
        "latitude": "36.98208037",
        "phone": "8316216270",
        "website_url": "http://www.uncommonbrewers.com",
        "state": "California",
        "street": "303 Potrero St Ste 40H"
    },
    {
        "id": "8d0e0a59-2799-4825-a275-bb109dc0fc10",
        "name": "Uncrafted Territory Brewing Company",
        "brewery_type": "planning",
        "address_1": null,
        "address_2": null,
        "address_3": null,
        "city": "Beaver Dam",
        "state_province": "Kentucky",
        "postal_code": "42320-1915",
        "country": "United States",
        "longitude": null,
        "latitude": null,
        "phone": "2707753131",
        "website_url": null,
        "state": "Kentucky",
        "street": null
    },
    {
        "id": "bb57eee2-6d46-4318-a503-e3b003f9a5b6",
        "name": "Under Pressure Brewing Company",
        "brewery_type": "planning",
        "address_1": null,
        "address_2": null,
        "address_3": null,
        "city": "Plymouth",
        "state_province": "Minnesota",
        "postal_code": "55442-3211",
        "country": "United States",
        "longitude": null,
        "latitude": null,
        "phone": "6128509779",
        "website_url": "http://www.underpressurebrewing.com",
        "state": "Minnesota",
        "street": null
    },
    {
        "id": "b212b659-6819-42c5-b5f2-93e735486d10",
        "name": "Under The Radar Brewery",
        "brewery_type": "micro",
        "address_1": "1506 Truxillo St",
        "address_2": null,
        "address_3": null,
        "city": "Houston",
        "state_province": "Texas",
        "postal_code": "77004-3960",
        "country": "United States",
        "longitude": "-95.3759411",
        "latitude": "29.7342113",
        "phone": "7133202766",
        "website_url": "http://www.undertheradarbrewery.com",
        "state": "Texas",
        "street": "1506 Truxillo St"
    },
    {
        "id": "2a549416-59b9-4ed0-9b76-4a649f29ee80",
        "name": "Under the Rose Brewing Company",
        "brewery_type": "micro",
        "address_1": "559 E 4th St",
        "address_2": null,
        "address_3": null,
        "city": "Reno",
        "state_province": "Nevada",
        "postal_code": "89512-3317",
        "country": "United States",
        "longitude": "-119.8063947",
        "latitude": "39.5315258",
        "phone": "7756576619",
        "website_url": null,
        "state": "Nevada",
        "street": "559 E 4th St"
    },
    {
        "id": "2dbbcfbc-636d-4cd8-9a57-7ae324adb66c",
        "name": "Under the Rose Brewing Company MidTown Location",
        "brewery_type": "brewpub",
        "address_1": "1041 S Virginia St",
        "address_2": null,
        "address_3": null,
        "city": "Reno",
        "state_province": "Nevada",
        "postal_code": "89502",
        "country": "United States",
        "longitude": "-119.8072604",
        "latitude": "39.51387478",
        "phone": null,
        "website_url": null,
        "state": "Nevada",
        "street": "1041 S Virginia St"
    },
    {
        "id": "6cb41bae-ffe9-4d38-b89c-b272be7070aa",
        "name": "Underbite Brewing",
        "brewery_type": "planning",
        "address_1": null,
        "address_2": null,
        "address_3": null,
        "city": "Knoxville",
        "state_province": "Tennessee",
        "postal_code": "37909-1079",
        "country": "United States",
        "longitude": null,
        "latitude": null,
        "phone": null,
        "website_url": null,
        "state": "Tennessee",
        "street": null
    },
    {
        "id": "c7e27537-ec4b-4e6c-9e3e-6d93ce2f3127",
        "name": "Underground Brewing",
        "brewery_type": "nano",
        "address_1": null,
        "address_2": null,
        "address_3": null,
        "city": "Woodinville",
        "state_province": "Washington",
        "postal_code": "98072",
        "country": "United States",
        "longitude": null,
        "latitude": null,
        "phone": null,
        "website_url": "http://www.underground-brewing.com",
        "state": "Washington",
        "street": null
    },
    {
        "id": "43cbe517-bf1b-4a4d-b20b-b13ec74fff4d",
        "name": "Underground Brewing Co.",
        "brewery_type": "brewpub",
        "address_1": "3940 Broad St # 7415",
        "address_2": null,
        "address_3": null,
        "city": "San Luis Obispo",
        "state_province": "California",
        "postal_code": "93401-7017",
        "country": "United States",
        "longitude": "-120.6420324",
        "latitude": "35.2493387",
        "phone": null,
        "website_url": null,
        "state": "California",
        "street": "3940 Broad St # 7415"
    },
    {
        "id": "4292bd71-a7f6-4cb8-88af-f1f1b60f2272",
        "name": "Une Annee Brewery",
        "brewery_type": "micro",
        "address_1": "9082 W Golf Rd",
        "address_2": null,
        "address_3": null,
        "city": "Niles",
        "state_province": "Illinois",
        "postal_code": "60714-5805",
        "country": "United States",
        "longitude": null,
        "latitude": null,
        "phone": "8476350655",
        "website_url": "http://uneannee.com",
        "state": "Illinois",
        "street": "9082 W Golf Rd"
    },
    {
        "id": "a645a825-1f6a-4b58-884b-cc3b88276a73",
        "name": "Unified Beerworks",
        "brewery_type": "planning",
        "address_1": null,
        "address_2": null,
        "address_3": null,
        "city": "Ballston Lake",
        "state_province": "New York",
        "postal_code": "12019-1734",
        "country": "United States",
        "longitude": null,
        "latitude": null,
        "phone": "5184284185",
        "website_url": "http://unified-beerworks.com",
        "state": "New York",
        "street": null
    },
    {
        "id": "83e8ad76-de1e-4d1d-9b78-05acc55b343c",
        "name": "Unify Brewing Company",
        "brewery_type": "planning",
        "address_1": null,
        "address_2": null,
        "address_3": null,
        "city": "Glenwood Springs",
        "state_province": "Colorado",
        "postal_code": "81601-3215",
        "country": "United States",
        "longitude": null,
        "latitude": null,
        "phone": "8164566374",
        "website_url": "http://www.UnifyBrewing.com",
        "state": "Colorado",
        "street": null
    },
    {
        "id": "03f236ab-d400-4a43-b4b9-e91adf9dc13f",
        "name": "Union 32 Crafthouse",
        "brewery_type": "micro",
        "address_1": "2864 Highway 55 Ste 200",
        "address_2": null,
        "address_3": null,
        "city": "Eagan",
        "state_province": "Minnesota",
        "postal_code": "55121-1455",
        "country": "United States",
        "longitude": null,
        "latitude": null,
        "phone": "9528079777",
        "website_url": "http://www.union32crafthouse.com",
        "state": "Minnesota",
        "street": "2864 Highway 55 Ste 200"
    },
    {
        "id": "378ffe8e-5cb8-4749-b5d6-797064394436",
        "name": "Union Barrel Works",
        "brewery_type": "brewpub",
        "address_1": "6 N Reamstown Rd",
        "address_2": null,
        "address_3": null,
        "city": "Stevens",
        "state_province": "Pennsylvania",
        "postal_code": "17578",
        "country": "United States",
        "longitude": null,
        "latitude": null,
        "phone": "7173357837",
        "website_url": null,
        "state": "Pennsylvania",
        "street": "6 N Reamstown Rd"
    },
    {
        "id": "e8bb776f-eaeb-4132-ac76-54d9c5f4c8ec",
        "name": "Union Bear Brewing Co.",
        "brewery_type": "brewpub",
        "address_1": "5880 State Highway 121 Ste 101",
        "address_2": null,
        "address_3": null,
        "city": "Plano",
        "state_province": "Texas",
        "postal_code": "75024",
        "country": "United States",
        "longitude": "-96.8494045",
        "latitude": "33.083072",
        "phone": "2142972337",
        "website_url": "http://www.unionbear.com",
        "state": "Texas",
        "street": "5880 State Highway 121 Ste 101"
    },
    {
        "id": "6f07acc5-3db8-4380-b30f-98d256184c56",
        "name": "Union Brewing",
        "brewery_type": "micro",
        "address_1": "622 S Rangeline Rd Ste Q",
        "address_2": null,
        "address_3": null,
        "city": "Carmel",
        "state_province": "Indiana",
        "postal_code": "46032-2152",
        "country": "United States",
        "longitude": null,
        "latitude": null,
        "phone": "3175644466",
        "website_url": "http://www.unionbrewingco.com",
        "state": "Indiana",
        "street": "622 S Rangeline Rd Ste Q"
    },
    {
        "id": "09d390e3-f8db-47d3-a37f-039f67950c76",
        "name": "Union Craft Brewing",
        "brewery_type": "micro",
        "address_1": "1700 Union Ave Ste D",
        "address_2": null,
        "address_3": null,
        "city": "Baltimore",
        "state_province": "Maryland",
        "postal_code": "21211-1499",
        "country": "United States",
        "longitude": null,
        "latitude": null,
        "phone": "4106169282",
        "website_url": "http://www.unioncraftbrewing.com",
        "state": "Maryland",
        "street": "1700 Union Ave Ste D"
    },
    {
        "id": "b1ef75c0-ad17-4e34-aaf1-761af30aee08",
        "name": "Union House Brewing LLC",
        "brewery_type": "planning",
        "address_1": null,
        "address_2": null,
        "address_3": null,
        "city": "Plum City",
        "state_province": "Wisconsin",
        "postal_code": "54761-0055",
        "country": "United States",
        "longitude": null,
        "latitude": null,
        "phone": null,
        "website_url": null,
        "state": "Wisconsin",
        "street": null
    },
    {
        "id": "85fca49d-7715-4238-b3ab-4252a5299795",
        "name": "Union Pizza & Brewing Co",
        "brewery_type": "brewpub",
        "address_1": "114 S Union Ave",
        "address_2": null,
        "address_3": null,
        "city": "Fergus Falls",
        "state_province": "Minnesota",
        "postal_code": "56537-",
        "country": "United States",
        "longitude": "-96.07792093",
        "latitude": "46.28264407",
        "phone": "2189988888",
        "website_url": "http://www.unionpizzaandbrewing.com",
        "state": "Minnesota",
        "street": "114 S Union Ave"
    },
    {
        "id": "6fba2263-8f73-4ed4-805f-d25d63f18cde",
        "name": "Union Station Brewery",
        "brewery_type": "brewpub",
        "address_1": "36 Exchange Ter Ste 2",
        "address_2": null,
        "address_3": null,
        "city": "Providence",
        "state_province": "Rhode Island",
        "postal_code": "02903-1798",
        "country": "United States",
        "longitude": "-71.414009",
        "latitude": "41.825558",
        "phone": "4012742739",
        "website_url": "https://www.unionstationpvd.com",
        "state": "Rhode Island",
        "street": "36 Exchange Ter Ste 2"
    },
    {
        "id": "0101bc6d-8868-4673-9ed5-f15c5e545b96",
        "name": "Union Works Brewery LLC",
        "brewery_type": "planning",
        "address_1": null,
        "address_2": null,
        "address_3": null,
        "city": "Humboldt",
        "state_province": "Kansas",
        "postal_code": "66748-1050",
        "country": "United States",
        "longitude": null,
        "latitude": null,
        "phone": null,
        "website_url": null,
        "state": "Kansas",
        "street": null
    },
    {
        "id": "6812f970-918c-4d57-be26-4b33baff46f0",
        "name": "Uniontown Brewing Co.",
        "brewery_type": "brewpub",
        "address_1": "105 W Main St",
        "address_2": null,
        "address_3": null,
        "city": "Ashland",
        "state_province": "Ohio",
        "postal_code": "44805-2221",
        "country": "United States",
        "longitude": "-82.31638932",
        "latitude": "40.8686238",
        "phone": "4199088542",
        "website_url": "http://www.uniontownbrewing.com",
        "state": "Ohio",
        "street": "105 W Main St"
    },
    {
        "id": "1a2e0257-a0c5-4ea9-b786-5d5585674596",
        "name": "Unknown Brewing Company",
        "brewery_type": "micro",
        "address_1": "1327 S Mint St",
        "address_2": null,
        "address_3": null,
        "city": "Charlotte",
        "state_province": "North Carolina",
        "postal_code": "28203-4121",
        "country": "United States",
        "longitude": "-80.8575419",
        "latitude": "35.2205129",
        "phone": "9802372628",
        "website_url": "http://www.unknownbrewing.com",
        "state": "North Carolina",
        "street": "1327 S Mint St"
    },
    {
        "id": "eddf1dc7-c32f-490f-8180-afe44f36438a",
        "name": "Unlawful Assembly Brewing Company",
        "brewery_type": "brewpub",
        "address_1": "7800 Windrose Ave",
        "address_2": null,
        "address_3": null,
        "city": "Plano",
        "state_province": "Texas",
        "postal_code": "75024-0114",
        "country": "United States",
        "longitude": "-96.8267889",
        "latitude": "33.078317",
        "phone": "9728967668",
        "website_url": "http://www.unlawfulassembly.com",
        "state": "Texas",
        "street": "7800 Windrose Ave"
    },
    {
        "id": "89f7f1eb-3dbd-40d1-b530-aad3166b8ef0",
        "name": "Unleashed Brewing Company",
        "brewery_type": "planning",
        "address_1": null,
        "address_2": null,
        "address_3": null,
        "city": "Stonington",
        "state_province": "Connecticut",
        "postal_code": "06378-1628",
        "country": "United States",
        "longitude": null,
        "latitude": null,
        "phone": null,
        "website_url": "http://www.unleashedbrewing.com",
        "state": "Connecticut",
        "street": null
    },
    {
        "id": "6eab32b5-1f19-44bf-9901-285deb3581f8",
        "name": "Unmapped Brewing Co.",
        "brewery_type": "micro",
        "address_1": "14625 Excelsior Blvd",
        "address_2": null,
        "address_3": null,
        "city": "Minnetonka",
        "state_province": "Minnesota",
        "postal_code": "55345-6605",
        "country": "United States",
        "longitude": "-93.46551151",
        "latitude": "44.90425928",
        "phone": "9525009622",
        "website_url": "http://www.unmappedbrewing.com",
        "state": "Minnesota",
        "street": "14625 Excelsior Blvd"
    },
    {
        "id": "00ea9c67-130c-4fa0-9b92-8cfb2b6ca81f",
        "name": "Unnamed Beer Company, LLC",
        "brewery_type": "planning",
        "address_1": null,
        "address_2": null,
        "address_3": null,
        "city": "Boulder",
        "state_province": "Colorado",
        "postal_code": "80301",
        "country": "United States",
        "longitude": null,
        "latitude": null,
        "phone": null,
        "website_url": "http://www.unnamedbeer.com",
        "state": "Colorado",
        "street": null
    },
    {
        "id": "a2a27dba-f20a-4d98-a29c-005a2dfbe724",
        "name": "Unruly Brewing Company",
        "brewery_type": "micro",
        "address_1": "360 W Western Ave",
        "address_2": null,
        "address_3": null,
        "city": "Muskegon",
        "state_province": "Michigan",
        "postal_code": "49440-1273",
        "country": "United States",
        "longitude": "-86.25381541",
        "latitude": "43.23504367",
        "phone": "2312881068",
        "website_url": "http://www.unrulybrewing.com",
        "state": "Michigan",
        "street": "360 W Western Ave"
    },
    {
        "id": "6cfe7bce-ee7d-4fa4-ab54-1584566f9ac2",
        "name": "Unsung Brewing Company",
        "brewery_type": "closed",
        "address_1": "1332 Bell Ave Ste 2D",
        "address_2": null,
        "address_3": null,
        "city": "Tustin",
        "state_province": "California",
        "postal_code": "92780-6439",
        "country": "United States",
        "longitude": "-117.8385795",
        "latitude": "33.71474692",
        "phone": null,
        "website_url": null,
        "state": "California",
        "street": "1332 Bell Ave Ste 2D"
    },
    {
        "id": "4000ba2a-c486-431c-a9ca-c4b170696aea",
        "name": "Unsung Brewing Company- Taproom",
        "brewery_type": "micro",
        "address_1": "500 S Anaheim Blvd Ste B",
        "address_2": null,
        "address_3": null,
        "city": "Anaheim",
        "state_province": "California",
        "postal_code": "92805-4725",
        "country": "United States",
        "longitude": "-117.9121478",
        "latitude": "33.83113335",
        "phone": null,
        "website_url": null,
        "state": "California",
        "street": "500 S Anaheim Blvd Ste B"
    },
    {
        "id": "b9abbfd2-4a52-4d64-80ac-e236e2ce40da",
        "name": "Untapped Territory, LLC",
        "brewery_type": "contract",
        "address_1": "326 E Main St Ste 1735",
        "address_2": null,
        "address_3": null,
        "city": "Lincolnton",
        "state_province": "North Carolina",
        "postal_code": "28092-3335",
        "country": "United States",
        "longitude": null,
        "latitude": null,
        "phone": "7042586466",
        "website_url": null,
        "state": "North Carolina",
        "street": "326 E Main St Ste 1735"
    },
    {
        "id": "0aa072bb-50cc-49b2-bda0-a4d8fd2ce34f",
        "name": "Untold Brewing",
        "brewery_type": "micro",
        "address_1": "6 Old Country Way",
        "address_2": null,
        "address_3": null,
        "city": "Scituate",
        "state_province": "Massachusetts",
        "postal_code": "02066-3773",
        "country": "United States",
        "longitude": "-70.74750286",
        "latitude": "42.18080776",
        "phone": "7813780559",
        "website_url": "http://www.untoldbrewing.com",
        "state": "Massachusetts",
        "street": "6 Old Country Way"
    },
    {
        "id": "4064247b-325f-4f0a-8269-d7c061bf1c53",
        "name": "UpCountry Brewing",
        "brewery_type": "brewpub",
        "address_1": "1042 Haywood Rd",
        "address_2": null,
        "address_3": null,
        "city": "Asheville",
        "state_province": "North Carolina",
        "postal_code": "28806-2639",
        "country": "United States",
        "longitude": null,
        "latitude": null,
        "phone": "8285752400",
        "website_url": "http://upcountrybrewing.com/",
        "state": "North Carolina",
        "street": "1042 Haywood Rd"
    },
    {
        "id": "fb26164e-82c1-4bf7-80a7-a60da692482e",
        "name": "Upland Brewing Co",
        "brewery_type": "micro",
        "address_1": "4060 W Profile Pkwy",
        "address_2": null,
        "address_3": null,
        "city": "Bloomington",
        "state_province": "Indiana",
        "postal_code": "47404-2554",
        "country": "United States",
        "longitude": null,
        "latitude": null,
        "phone": "8123362337",
        "website_url": null,
        "state": "Indiana",
        "street": "4060 W Profile Pkwy"
    },
    {
        "id": "9a6ed651-787f-47de-9f0a-1a4fc3fb5d15",
        "name": "Upland Brewing Co - Bloomington Brewpub",
        "brewery_type": "regional",
        "address_1": "350 W 11th St",
        "address_2": null,
        "address_3": null,
        "city": "Bloomington",
        "state_province": "Indiana",
        "postal_code": "47404-3720",
        "country": "United States",
        "longitude": "-86.53747927",
        "latitude": "39.173423",
        "phone": "8123362337",
        "website_url": "http://www.uplandbeer.com",
        "state": "Indiana",
        "street": "350 W 11th St"
    },
    {
        "id": "fe976b5b-744d-4ba8-b9b8-af2c2e249b8b",
        "name": "Upper Hand Brewery",
        "brewery_type": "micro",
        "address_1": "3525 Airport Rd",
        "address_2": null,
        "address_3": null,
        "city": "Escanaba",
        "state_province": "Michigan",
        "postal_code": "49829-1096",
        "country": "United States",
        "longitude": "-87.097528",
        "latitude": "45.7164279",
        "phone": "2693822338",
        "website_url": "http://www.upperhandbrewery.com",
        "state": "Michigan",
        "street": "3525 Airport Rd"
    },
    {
        "id": "3c6dd3b5-0f9e-44f0-b21c-e664a66538e3",
        "name": "Upright Brewing Co",
        "brewery_type": "micro",
        "address_1": "240 N Broadway Ste 2",
        "address_2": null,
        "address_3": null,
        "city": "Portland",
        "state_province": "Oregon",
        "postal_code": "97227-1880",
        "country": "United States",
        "longitude": "-122.6703323",
        "latitude": "45.5346842",
        "phone": null,
        "website_url": "http://www.uprightbrewing.com",
        "state": "Oregon",
        "street": "240 N Broadway Ste 2"
    },
    {
        "id": "8c96cee4-a3ef-411a-aacf-962370865f80",
        "name": "Uproar Brewing",
        "brewery_type": "brewpub",
        "address_1": "439 S 1st St",
        "address_2": null,
        "address_3": null,
        "city": "San Jose",
        "state_province": "California",
        "postal_code": "95113-2816",
        "country": "United States",
        "longitude": "-121.8856373",
        "latitude": "37.32939189",
        "phone": "4086732266",
        "website_url": "http://www.uproarbrewing.com",
        "state": "California",
        "street": "439 S 1st St"
    },
    {
        "id": "4e18f3a1-a457-412a-a724-e48c5cf72dc2",
        "name": "Upside Brewing",
        "brewery_type": "brewpub",
        "address_1": "5692 N Main St",
        "address_2": null,
        "address_3": null,
        "city": "Sylvania",
        "state_province": "Ohio",
        "postal_code": "43560-1928",
        "country": "United States",
        "longitude": null,
        "latitude": null,
        "phone": "4198826061",
        "website_url": "http://www.facebook.com/UpsideBrewing",
        "state": "Ohio",
        "street": "5692 N Main St"
    },
    {
        "id": "d6349994-f0fb-4b87-a49d-b1647f711e26",
        "name": "Upslope Brewing Company",
        "brewery_type": "planning",
        "address_1": null,
        "address_2": null,
        "address_3": null,
        "city": "Boulder",
        "state_province": "Colorado",
        "postal_code": "80301",
        "country": "United States",
        "longitude": null,
        "latitude": null,
        "phone": "3033961898",
        "website_url": null,
        "state": "Colorado",
        "street": null
    },
    {
        "id": "05b3f6bc-e7cf-40bb-8bdb-1dfc1a619c5f",
        "name": "Upslope Brewing Company - Flatiron Park",
        "brewery_type": "micro",
        "address_1": "1898 S Flatiron Ct Ste 110",
        "address_2": null,
        "address_3": null,
        "city": "Boulder",
        "state_province": "Colorado",
        "postal_code": "80301-2860",
        "country": "United States",
        "longitude": "-105.2183136",
        "latitude": "40.0203098",
        "phone": null,
        "website_url": "http://www.upslopebrewing.com",
        "state": "Colorado",
        "street": "1898 S Flatiron Ct Ste 110"
    },
    {
        "id": "ece6204a-29eb-47e1-868d-55c2a78bc06c",
        "name": "Upslope Brewing Company - Lee Hill",
        "brewery_type": "regional",
        "address_1": "1501 Lee Hill Rd Unit 20",
        "address_2": null,
        "address_3": null,
        "city": "Boulder",
        "state_province": "Colorado",
        "postal_code": "80304-5602",
        "country": "United States",
        "longitude": null,
        "latitude": null,
        "phone": "3033961898",
        "website_url": "http://www.upslopebrewing.com",
        "state": "Colorado",
        "street": "1501 Lee Hill Rd Unit 20"
    },
    {
        "id": "4a555dfb-ea6b-4ee5-bc6a-fae6b0dd8395",
        "name": "Upstate Brewing Co",
        "brewery_type": "micro",
        "address_1": "3028 Lake Rd",
        "address_2": null,
        "address_3": null,
        "city": "Elmira",
        "state_province": "New York",
        "postal_code": "14903-1409",
        "country": "United States",
        "longitude": null,
        "latitude": null,
        "phone": "6175198381",
        "website_url": "http://www.upstatebrewing.com",
        "state": "New York",
        "street": "3028 Lake Rd"
    },
    {
        "id": "aafdae25-0224-4d28-a276-9031cc550066",
        "name": "Upstate Craft Beer Company",
        "brewery_type": "brewpub",
        "address_1": "400 Augusta St Ste 120",
        "address_2": null,
        "address_3": null,
        "city": "Greenville",
        "state_province": "South Carolina",
        "postal_code": "29601-3552",
        "country": "United States",
        "longitude": null,
        "latitude": null,
        "phone": "8646094590",
        "website_url": "http://www.upstatecraftbeer.com",
        "state": "South Carolina",
        "street": "400 Augusta St Ste 120"
    },
    {
        "id": "076ee5fa-1801-4360-9727-3a3620c1013d",
        "name": "Upstream Brewing Co (#1)",
        "brewery_type": "brewpub",
        "address_1": "514 S 11th St",
        "address_2": null,
        "address_3": null,
        "city": "Omaha",
        "state_province": "Nebraska",
        "postal_code": "68102-2808",
        "country": "United States",
        "longitude": "-95.9308408",
        "latitude": "41.2547107",
        "phone": "4023440200",
        "website_url": "http://www.upstreambrewing.com",
        "state": "Nebraska",
        "street": "514 S 11th St"
    },
    {
        "id": "422294e8-cbf4-4e06-8983-603bf57b5a55",
        "name": "Uptown Brewing Co",
        "brewery_type": "micro",
        "address_1": "418 Evans St",
        "address_2": null,
        "address_3": null,
        "city": "Greenville",
        "state_province": "North Carolina",
        "postal_code": "27858-1834",
        "country": "United States",
        "longitude": null,
        "latitude": null,
        "phone": "2526712633",
        "website_url": "http://www.uptownbrewingcompany.com",
        "state": "North Carolina",
        "street": "418 Evans St"
    },
    {
        "id": "b754ef5f-2b82-4523-b2e8-42df9d6a9b63",
        "name": "Uptown Market Brewing",
        "brewery_type": "micro",
        "address_1": "6620 SW Scholls Ferry Rd",
        "address_2": null,
        "address_3": null,
        "city": "Portland",
        "state_province": "Oregon",
        "postal_code": "97223-7166",
        "country": "United States",
        "longitude": "-122.7423002",
        "latitude": "45.4958797",
        "phone": "5033364783",
        "website_url": "http://www.uptownmarketpdx.com",
        "state": "Oregon",
        "street": "6620 SW Scholls Ferry Rd"
    },
    {
        "id": "e10497e6-85a6-4ed8-a643-80696a566375",
        "name": "Upward Brewing Co.",
        "brewery_type": "planning",
        "address_1": null,
        "address_2": null,
        "address_3": null,
        "city": "Livingston Manor",
        "state_province": "New York",
        "postal_code": "12758-",
        "country": "United States",
        "longitude": null,
        "latitude": null,
        "phone": "8457980471",
        "website_url": "http://www.upwardbrewing.com",
        "state": "New York",
        "street": null
    },
    {
        "id": "c5f18c89-13af-4176-8e2d-9c58ffa7c4b2",
        "name": "Urban Artifact",
        "brewery_type": "micro",
        "address_1": "1660 Blue Rock St",
        "address_2": null,
        "address_3": null,
        "city": "Cincinnati",
        "state_province": "Ohio",
        "postal_code": "45223-2554",
        "country": "United States",
        "longitude": "-84.54196282",
        "latitude": "39.1607827",
        "phone": null,
        "website_url": "http://www.artifactbeer.com",
        "state": "Ohio",
        "street": "1660 Blue Rock St"
    },
    {
        "id": "f336bf99-b21e-41ae-8c4a-717e66d35b93",
        "name": "Urban Chestnut Brewing Co",
        "brewery_type": "regional",
        "address_1": "4465 Manchester Ave",
        "address_2": null,
        "address_3": null,
        "city": "Saint Louis",
        "state_province": "Missouri",
        "postal_code": "63110-2113",
        "country": "United States",
        "longitude": "-90.261143",
        "latitude": "38.626662",
        "phone": "3142220143",
        "website_url": "http://www.urbanchestnut.com",
        "state": "Missouri",
        "street": "4465 Manchester Ave"
    },
    {
        "id": "779fbf58-ba7b-4f78-858c-db3a19aa6a04",
        "name": "Urban Comfort Restaurant and Brewery",
        "brewery_type": "brewpub",
        "address_1": "2601 Central Ave",
        "address_2": null,
        "address_3": null,
        "city": "Saint Petersburg",
        "state_province": "Florida",
        "postal_code": "33713-8722",
        "country": "United States",
        "longitude": "-82.668678",
        "latitude": "27.771098",
        "phone": "7272018157",
        "website_url": "http://www.urbancomfortstpete.com",
        "state": "Florida",
        "street": "2601 Central Ave"
    },
    {
        "id": "41359b46-ffc7-49db-ac25-7da9551462c0",
        "name": "Urban Family Brewing",
        "brewery_type": "micro",
        "address_1": "4441 26th Ave W",
        "address_2": null,
        "address_3": null,
        "city": "Seattle",
        "state_province": "Washington",
        "postal_code": "98199-1218",
        "country": "United States",
        "longitude": "-122.3902975",
        "latitude": "47.6605861",
        "phone": "2069468533",
        "website_url": "http://www.urbanfamilybrewing.com",
        "state": "Washington",
        "street": "4441 26th Ave W"
    },
    {
        "id": "4b3ddf69-f7b2-4292-8966-2fca894c87b1",
        "name": "Urban Growler Brewing Co",
        "brewery_type": "brewpub",
        "address_1": "2325 Endicott St",
        "address_2": null,
        "address_3": null,
        "city": "Saint Paul",
        "state_province": "Minnesota",
        "postal_code": "55114-1223",
        "country": "United States",
        "longitude": "-93.19284766",
        "latitude": "44.9701392",
        "phone": "6513405793",
        "website_url": "http://www.urbangrowlerbrewing.com",
        "state": "Minnesota",
        "street": "2325 Endicott St"
    },
    {
        "id": "28b9934a-0dcf-40eb-9a9c-815e9f3eb62b",
        "name": "Urban Harvest Brewing Company",
        "brewery_type": "micro",
        "address_1": "1024 S 5th St",
        "address_2": null,
        "address_3": null,
        "city": "Milwaukee",
        "state_province": "Wisconsin",
        "postal_code": "53204-1733",
        "country": "United States",
        "longitude": "-87.91672749",
        "latitude": "43.02080941",
        "phone": "4142494074",
        "website_url": "http://www.urbanharvestbrewing.com",
        "state": "Wisconsin",
        "street": "1024 S 5th St"
    },
    {
        "id": "9000f7f7-dc89-442b-9e22-9a9cbf9ddd0d",
        "name": "Urban Lodge Brewery",
        "brewery_type": "brewpub",
        "address_1": "415 N Benton Dr",
        "address_2": null,
        "address_3": null,
        "city": "Sauk Rapids",
        "state_province": "Minnesota",
        "postal_code": "56379-1534",
        "country": "United States",
        "longitude": "-94.1628025",
        "latitude": "45.58571953",
        "phone": "3202815454",
        "website_url": "http://urbanlodgebrewery.com",
        "state": "Minnesota",
        "street": "415 N Benton Dr"
    },
    {
        "id": "716c0a61-1880-4229-a2bf-41f061eb6d69",
        "name": "Urban Renewal Brewery",
        "brewery_type": "planning",
        "address_1": null,
        "address_2": null,
        "address_3": null,
        "city": "Chicago",
        "state_province": "Illinois",
        "postal_code": "60640",
        "country": "United States",
        "longitude": null,
        "latitude": null,
        "phone": "7744874619",
        "website_url": "http://www.urbanrenewbrew.com",
        "state": "Illinois",
        "street": null
    },
    {
        "id": "bb7f7dc2-64dc-4d59-a13a-8162440a3f5a",
        "name": "Urban Research Brewery",
        "brewery_type": "brewpub",
        "address_1": "4501 Manchester Ave",
        "address_2": null,
        "address_3": null,
        "city": "Saint Louis",
        "state_province": "Missouri",
        "postal_code": "63110-2113",
        "country": "United States",
        "longitude": "-90.274034",
        "latitude": "38.627933",
        "phone": "3144740935",
        "website_url": "http://www.urbpizzaandbeer.com",
        "state": "Missouri",
        "street": "4501 Manchester Ave"
    },
    {
        "id": "8a5276f4-1004-462f-8d1e-3adf53125343",
        "name": "Urban Roots Brewing",
        "brewery_type": "brewpub",
        "address_1": "1322 V St",
        "address_2": null,
        "address_3": null,
        "city": "Sacramento",
        "state_province": "California",
        "postal_code": "95818-1418",
        "country": "United States",
        "longitude": "-121.4945908",
        "latitude": "38.56579627",
        "phone": "9167063741",
        "website_url": "http://www.urbanrootsbrewing.com",
        "state": "California",
        "street": "1322 V St"
    },
    {
        "id": "bfbcc407-1328-4791-bf71-7cc77e2a5feb",
        "name": "Urban South Brewery",
        "brewery_type": "micro",
        "address_1": "1645 Tchoupitoulas St",
        "address_2": null,
        "address_3": null,
        "city": "New Orleans",
        "state_province": "Louisiana",
        "postal_code": "70130-1852",
        "country": "United States",
        "longitude": "-90.0666607",
        "latitude": "29.9296799",
        "phone": null,
        "website_url": "http://www.urbansouthbrewery.com",
        "state": "Louisiana",
        "street": "1645 Tchoupitoulas St"
    },
    {
        "id": "7eb42505-4dd3-452f-847b-2bf8f2155a79",
        "name": "Urban Village Brewing Company",
        "brewery_type": "brewpub",
        "address_1": "1001 N 2nd St",
        "address_2": null,
        "address_3": null,
        "city": "Philadelphia",
        "state_province": "Pennsylvania",
        "postal_code": "19123-1612",
        "country": "United States",
        "longitude": "-75.1400237",
        "latitude": "39.9662701",
        "phone": "2676871961",
        "website_url": "http://www.urbanvillagebrewing.com",
        "state": "Pennsylvania",
        "street": "1001 N 2nd St"
    },
    {
        "id": "eae54355-ebca-400e-a9d9-7ce4ce866341",
        "name": "Urbanrest Brewing Company",
        "brewery_type": "micro",
        "address_1": "2615 Wolcott St",
        "address_2": null,
        "address_3": null,
        "city": "Ferndale",
        "state_province": "Michigan",
        "postal_code": "48220-1422",
        "country": "United States",
        "longitude": "-83.1274188",
        "latitude": "42.4679929",
        "phone": null,
        "website_url": "http://www.urbanrest.com",
        "state": "Michigan",
        "street": "2615 Wolcott St"
    },
    {
        "id": "e16cb5ff-1d95-4cae-9719-ff9951b746a3",
        "name": "Urge Gastropub & Common House/Mason Ale Works",
        "brewery_type": "brewpub",
        "address_1": "255 Redel Rd",
        "address_2": null,
        "address_3": null,
        "city": "San Marcos",
        "state_province": "California",
        "postal_code": "92078-4347",
        "country": "United States",
        "longitude": "-117.158627",
        "latitude": "33.135679",
        "phone": null,
        "website_url": null,
        "state": "California",
        "street": "255 Redel Rd"
    },
    {
        "id": "9b0f39aa-f7db-4378-a80c-7cfc88541776",
        "name": "Ursa Minor Brewing",
        "brewery_type": "planning",
        "address_1": null,
        "address_2": null,
        "address_3": null,
        "city": "Duluth",
        "state_province": "Minnesota",
        "postal_code": "55806",
        "country": "United States",
        "longitude": null,
        "latitude": null,
        "phone": "2182690537",
        "website_url": "http://www.ursaminorbrewing.com",
        "state": "Minnesota",
        "street": null
    },
    {
        "id": "3ce0ed18-9044-4ffa-9b18-366d0cbc657e",
        "name": "Ursula Brewery",
        "brewery_type": "micro",
        "address_1": "2101 N Ursula St Unit 10",
        "address_2": null,
        "address_3": null,
        "city": "Aurora",
        "state_province": "Colorado",
        "postal_code": "80045-7448",
        "country": "United States",
        "longitude": null,
        "latitude": null,
        "phone": "7203248529",
        "website_url": "http://www.ursulabrewery.com",
        "state": "Colorado",
        "street": "2101 N Ursula St Unit 10"
    },
    {
        "id": "f478a38b-fc50-485e-94ed-043655e2a716",
        "name": "US Beer Brewers At the Cellar Door",
        "brewery_type": "brewpub",
        "address_1": "17 W Cayuga St",
        "address_2": null,
        "address_3": null,
        "city": "Oswego",
        "state_province": "New York",
        "postal_code": "13126-4000",
        "country": "United States",
        "longitude": "-76.51260925",
        "latitude": "43.45769813",
        "phone": "3152072381",
        "website_url": "http://www.usbeerbrewers.beer",
        "state": "New York",
        "street": "17 W Cayuga St"
    },
    {
        "id": "968d9c63-9c9b-4456-bb34-4c5b0eb255c0",
        "name": "Utah Brewers Cooperative",
        "brewery_type": "regional",
        "address_1": "1735 S 300 W",
        "address_2": null,
        "address_3": null,
        "city": "Salt Lake City",
        "state_province": "Utah",
        "postal_code": "84115-1802",
        "country": "United States",
        "longitude": "-111.8993199",
        "latitude": "40.73267145",
        "phone": "8014668855",
        "website_url": "http://www.wasatchbeers.com",
        "state": "Utah",
        "street": "1735 S 300 W"
    },
    {
        "id": "41ade603-cf7a-4991-8ae9-bd87d8d9f56d",
        "name": "Ute Pass Brewing Co",
        "brewery_type": "brewpub",
        "address_1": "209 E Midland Ave",
        "address_2": null,
        "address_3": null,
        "city": "Woodland Park",
        "state_province": "Colorado",
        "postal_code": "80863-3101",
        "country": "United States",
        "longitude": "-105.0513357",
        "latitude": "38.9944899",
        "phone": "7196868722",
        "website_url": "http://www.utepassbrewingcompany.com",
        "state": "Colorado",
        "street": "209 E Midland Ave"
    },
    {
        "id": "9ba3356c-8888-410b-ac2e-1f0550aeb43f",
        "name": "Utepils Brewing Co",
        "brewery_type": "micro",
        "address_1": "225 Thomas Ave N Apt 700",
        "address_2": null,
        "address_3": null,
        "city": "Minneapolis",
        "state_province": "Minnesota",
        "postal_code": "55405-3397",
        "country": "United States",
        "longitude": null,
        "latitude": null,
        "phone": "6122497800",
        "website_url": "http://www.utepilsbrewing.com",
        "state": "Minnesota",
        "street": "225 Thomas Ave N Apt 700"
    },
    {
        "id": "cfd51d05-11a3-487f-af99-ce3ce3f4ee2f",
        "name": "Utility Brewing Company",
        "brewery_type": "brewpub",
        "address_1": "206 N. Vienna Street",
        "address_2": null,
        "address_3": null,
        "city": "Ruston",
        "state_province": "Louisiana",
        "postal_code": "71270",
        "country": "United States",
        "longitude": "-92.63790404",
        "latitude": "32.52986335",
        "phone": null,
        "website_url": "http://www.utilitybrewing.com",
        "state": "Louisiana",
        "street": "206 N. Vienna Street"
    },
    {
        "id": "73fdbccc-dbf8-4b7d-bf03-49c0e4a4e28a",
        "name": "UTOG Brewing Company",
        "brewery_type": "brewpub",
        "address_1": "2331 Grant Ave",
        "address_2": null,
        "address_3": null,
        "city": "Ogden",
        "state_province": "Utah",
        "postal_code": "84401-1407",
        "country": "United States",
        "longitude": "-111.973557",
        "latitude": "41.224087",
        "phone": "8016893476",
        "website_url": "http://www.utogbrewing.com",
        "state": "Utah",
        "street": "2331 Grant Ave"
    },
    {
        "id": "16af6b57-7519-47f6-a119-2e045a870fdd",
        "name": "Uturn BBQ",
        "brewery_type": "brewpub",
        "address_1": "599 Crossing Dr",
        "address_2": null,
        "address_3": null,
        "city": "Lafayette",
        "state_province": "Colorado",
        "postal_code": "80026-1797",
        "country": "United States",
        "longitude": "-105.1016163",
        "latitude": "40.0035307",
        "phone": "3039936033",
        "website_url": "http://www.uturnbbq.com",
        "state": "Colorado",
        "street": "599 Crossing Dr"
    },
    {
        "id": "c9130fd3-a4f7-42f1-bc3f-fcfb74a945d1",
        "name": "V Twin Brewing Company",
        "brewery_type": "micro",
        "address_1": "2302 N Argonne Rd Ste H",
        "address_2": null,
        "address_3": null,
        "city": "Spokane",
        "state_province": "Washington",
        "postal_code": "99212-2366",
        "country": "United States",
        "longitude": "-117.28198920193068",
        "latitude": "47.67793647405301",
        "phone": "5098680182",
        "website_url": "http://www.facebook.com/vtwinbrewingco",
        "state": "Washington",
        "street": "2302 N Argonne Rd Ste H"
    },
    {
        "id": "4a20bd57-f979-4ad8-82a4-4da5b02f8147",
        "name": "V's Restaurant and Brewpub",
        "brewery_type": "brewpub",
        "address_1": "3461 Main St",
        "address_2": null,
        "address_3": null,
        "city": "Keokuk",
        "state_province": "Iowa",
        "postal_code": "52632-2227",
        "country": "United States",
        "longitude": "-91.40894211",
        "latitude": "40.42055614",
        "phone": "3193138384",
        "website_url": null,
        "state": "Iowa",
        "street": "3461 Main St"
    },
    {
        "id": "bcc9f869-4952-4137-a502-5ac716b0a360",
        "name": "Vadia",
        "brewery_type": "brewpub",
        "address_1": "Rua Comendador Artur J. G. Barbosa n\u00ba576",
        "address_2": null,
        "address_3": null,
        "city": "Oliveira de Azemeis",
        "state_province": "Aveiro",
        "postal_code": "3720-005",
        "country": "Portugal",
        "longitude": "40.84133461624508",
        "latitude": "-8.434270976824363",
        "phone": "+351 256 482 151",
        "website_url": "https://www.cervejavadia.pt",
        "state": "Aveiro",
        "street": "Rua Comendador Artur J. G. Barbosa n\u00ba576"
    },
    {
        "id": "f460d4f3-c666-425d-83b6-36692195ea49",
        "name": "Vagabond Brewing",
        "brewery_type": "brewpub",
        "address_1": "2195 Hyacinth St NE Ste 172",
        "address_2": null,
        "address_3": null,
        "city": "Salem",
        "state_province": "Oregon",
        "postal_code": "97301-3118",
        "country": "United States",
        "longitude": "-123.0010873",
        "latitude": "44.9820399",
        "phone": "5035129007",
        "website_url": "http://www.vagabondbrewing.com",
        "state": "Oregon",
        "street": "2195 Hyacinth St NE Ste 172"
    },
    {
        "id": "093d96cf-2aa2-41f1-a941-39f7f16b37fa",
        "name": "Vail Brewing Company",
        "brewery_type": "micro",
        "address_1": "41290 US Hwy 6",
        "address_2": null,
        "address_3": null,
        "city": "Vail",
        "state_province": "Colorado",
        "postal_code": "81657",
        "country": "United States",
        "longitude": null,
        "latitude": null,
        "phone": "9704704351",
        "website_url": "http://www.vailbrewingco.com",
        "state": "Colorado",
        "street": "41290 US Hwy 6"
    },
    {
        "id": "d2fa1ab7-b50a-4ffb-ab59-daa4110e1193",
        "name": "Valcour Brewing Company LLC",
        "brewery_type": "micro",
        "address_1": "49 Ohio Rd",
        "address_2": null,
        "address_3": null,
        "city": "Plattsburgh",
        "state_province": "New York",
        "postal_code": "12903-4409",
        "country": "United States",
        "longitude": null,
        "latitude": null,
        "phone": "5183242337",
        "website_url": "http://www.valcourbrewery.com",
        "state": "New York",
        "street": "49 Ohio Rd"
    },
    {
        "id": "6e193741-61b7-4cc8-9731-45770307547a",
        "name": "Valholl Brewing Company",
        "brewery_type": "micro",
        "address_1": "18970 3rd Ave",
        "address_2": null,
        "address_3": null,
        "city": "Poulsbo",
        "state_province": "Washington",
        "postal_code": "98370",
        "country": "United States",
        "longitude": "-122.64536831727065",
        "latitude": "47.73528807594325",
        "phone": "3609300172",
        "website_url": "http://www.valhollbrewing.com",
        "state": "Washington",
        "street": "18970 3rd Ave"
    },
    {
        "id": "f009d054-be17-483a-a58c-d7f9021aea80",
        "name": "Valkyrie Brewing",
        "brewery_type": "micro",
        "address_1": "234 W Dallas St",
        "address_2": null,
        "address_3": null,
        "city": "Dallas",
        "state_province": "Wisconsin",
        "postal_code": "54733-9706",
        "country": "United States",
        "longitude": null,
        "latitude": null,
        "phone": "7158371824",
        "website_url": "http://www.valkyriebrewery.com",
        "state": "Wisconsin",
        "street": "234 W Dallas St"
    },
    {
        "id": "be1fa1c4-ec5e-4cde-bf24-96858b2bc560",
        "name": "Vallensons Brewing Co.",
        "brewery_type": "micro",
        "address_1": "4081 Rice Drier Road",
        "address_2": null,
        "address_3": null,
        "city": "Pearland",
        "state_province": "Texas",
        "postal_code": "77581",
        "country": "United States",
        "longitude": "-95.28716205",
        "latitude": "29.57569295",
        "phone": "2817054063",
        "website_url": "http://www.vallensons.com",
        "state": "Texas",
        "street": "4081 Rice Drier Road"
    },
    {
        "id": "49044ec6-74fc-4cca-8225-64035cec3922",
        "name": "Valley Brewing Co",
        "brewery_type": "brewpub",
        "address_1": "157 W Adams St",
        "address_2": null,
        "address_3": null,
        "city": "Stockton",
        "state_province": "California",
        "postal_code": "95204-5337",
        "country": "United States",
        "longitude": "-121.300391",
        "latitude": "37.97295175",
        "phone": "2094642739",
        "website_url": "http://www.valleybrew.com",
        "state": "California",
        "street": "157 W Adams St"
    },
    {
        "id": "9a1bed12-a9be-4b59-a4b3-7760ed7380a8",
        "name": "Valley Brewing Co",
        "brewery_type": "micro",
        "address_1": "3215 River Rd",
        "address_2": null,
        "address_3": null,
        "city": "Yakima",
        "state_province": "Washington",
        "postal_code": "98902-1142",
        "country": "United States",
        "longitude": "-120.553068",
        "latitude": "46.618456",
        "phone": "5099495944",
        "website_url": "http://www.valleybrewingco.com",
        "state": "Washington",
        "street": "3215 River Rd"
    },
    {
        "id": "ee527ffb-6e85-4a38-856c-10db17bb4b7e",
        "name": "Valley House Brewing",
        "brewery_type": "brewpub",
        "address_1": "16111 Main St NE",
        "address_2": null,
        "address_3": null,
        "city": "Duvall",
        "state_province": "Washington",
        "postal_code": "98019-8490",
        "country": "United States",
        "longitude": "-121.9858846",
        "latitude": "47.74315286",
        "phone": "4253186363",
        "website_url": "http://www.valleyhousebrewing.com",
        "state": "Washington",
        "street": "16111 Main St NE"
    },
    {
        "id": "0d4174b9-66de-4f8c-8e61-8a5d38f3a999",
        "name": "Valley River Brewery & Eatery",
        "brewery_type": "brewpub",
        "address_1": "71 Tennessee St",
        "address_2": null,
        "address_3": null,
        "city": "Murphy",
        "state_province": "North Carolina",
        "postal_code": "28906-2938",
        "country": "United States",
        "longitude": "-84.03520817",
        "latitude": "35.08890404",
        "phone": "8288372337",
        "website_url": "http://www.valleyriverbrewery.com",
        "state": "North Carolina",
        "street": "71 Tennessee St"
    },
    {
        "id": "76aca7b3-9521-49b0-bc20-96fa67e4b42f",
        "name": "Valley Vineyards Winery & Cellar Dweller Brewing",
        "brewery_type": "brewpub",
        "address_1": "2276 E US Highway 22 and 3",
        "address_2": null,
        "address_3": null,
        "city": "Morrow",
        "state_province": "Ohio",
        "postal_code": "45152-9414",
        "country": "United States",
        "longitude": null,
        "latitude": null,
        "phone": "5138992485",
        "website_url": "http://www.valleyvineyards.com",
        "state": "Ohio",
        "street": "2276 E US Highway 22 and 3"
    },
    {
        "id": "032e8235-e88f-4a5c-97a5-77e536a29e2d",
        "name": "Van Der Brew",
        "brewery_type": "planning",
        "address_1": null,
        "address_2": null,
        "address_3": null,
        "city": "Winthrop",
        "state_province": "Maine",
        "postal_code": "04364-1253",
        "country": "United States",
        "longitude": null,
        "latitude": null,
        "phone": "2074411102",
        "website_url": null,
        "state": "Maine",
        "street": null
    },
    {
        "id": "729aa416-177d-4e58-8700-9e9c51d6808d",
        "name": "Vander Mill",
        "brewery_type": "brewpub",
        "address_1": "505 Ball Ave NE",
        "address_2": null,
        "address_3": null,
        "city": "Grand Rapids",
        "state_province": "Michigan",
        "postal_code": "49503-2011",
        "country": "United States",
        "longitude": "-85.6305954",
        "latitude": "42.9712724",
        "phone": "6162598828",
        "website_url": "http://www.vandermill.com",
        "state": "Michigan",
        "street": "505 Ball Ave NE"
    },
    {
        "id": "d9579c97-3ecd-4133-922a-d1bc5dc58b31",
        "name": "Vanessa House Beer Company",
        "brewery_type": "micro",
        "address_1": "118 NW 8th St",
        "address_2": null,
        "address_3": null,
        "city": "Oklahoma City",
        "state_province": "Oklahoma",
        "postal_code": "73107-5723",
        "country": "United States",
        "longitude": "-97.515375",
        "latitude": "35.475896",
        "phone": "4057249330",
        "website_url": "http://www.vanessahousebeerco.com",
        "state": "Oklahoma",
        "street": "118 NW 8th St"
    },
    {
        "id": "8b6d0375-b572-4b21-9a81-504aa91d39c5",
        "name": "Vanguard Brewing Company",
        "brewery_type": "micro",
        "address_1": "27501 SW 95th Ave Ste 945",
        "address_2": null,
        "address_3": null,
        "city": "Wilsonville",
        "state_province": "Oregon",
        "postal_code": "97070-5705",
        "country": "United States",
        "longitude": "-122.7733742",
        "latitude": "45.3211582",
        "phone": "5039293774",
        "website_url": "http://www.vanguardbrewing.com",
        "state": "Oregon",
        "street": "27501 SW 95th Ave Ste 945"
    },
    {
        "id": "4e1f9466-2173-458d-b58d-0656112eb918",
        "name": "Vanish Farmwoods Brewery",
        "brewery_type": "brewpub",
        "address_1": "42245  Black Hops Ln",
        "address_2": null,
        "address_3": null,
        "city": "Leesburg",
        "state_province": "Virginia",
        "postal_code": "20176-5498",
        "country": "United States",
        "longitude": null,
        "latitude": null,
        "phone": "7037797407",
        "website_url": "http://vanishbeer.com",
        "state": "Virginia",
        "street": "42245  Black Hops Ln"
    },
    {
        "id": "6aa5bb2f-7b2f-43b6-8291-216bdc545f8e",
        "name": "Vanished Valley Brewing Company",
        "brewery_type": "micro",
        "address_1": "782 Center Street",
        "address_2": null,
        "address_3": null,
        "city": "Ludlow",
        "state_province": "Massachusetts",
        "postal_code": "01056",
        "country": "United States",
        "longitude": "-72.47021639",
        "latitude": "42.18292741",
        "phone": "4132710503",
        "website_url": "http://www.vanishedvalley.com",
        "state": "Massachusetts",
        "street": "782 Center Street"
    },
    {
        "id": "7ce7a516-c6e4-42c2-b357-a4dfd53f7236",
        "name": "VanMax Brewing Company LLC",
        "brewery_type": "micro",
        "address_1": "103 N Phelps St",
        "address_2": null,
        "address_3": null,
        "city": "Decatur",
        "state_province": "Michigan",
        "postal_code": "49045-1008",
        "country": "United States",
        "longitude": "-85.97454749",
        "latitude": "42.10876694",
        "phone": "2692171720",
        "website_url": "http://www.vanmaxbrewing.com",
        "state": "Michigan",
        "street": "103 N Phelps St"
    },
    {
        "id": "78cb7d62-ff5b-4e03-a5fc-0553b9fa3428",
        "name": "Vanport Brewing Company",
        "brewery_type": "planning",
        "address_1": null,
        "address_2": null,
        "address_3": null,
        "city": "Portland",
        "state_province": "Oregon",
        "postal_code": "97211-2907",
        "country": "United States",
        "longitude": null,
        "latitude": null,
        "phone": "5032670219",
        "website_url": null,
        "state": "Oregon",
        "street": null
    },
    {
        "id": "b961ff9e-4495-4db5-aa88-dea50bc3a02b",
        "name": "Variant Brewing Company",
        "brewery_type": "micro",
        "address_1": "66 Norcross St",
        "address_2": null,
        "address_3": null,
        "city": "Roswell",
        "state_province": "Georgia",
        "postal_code": "30075-3866",
        "country": "United States",
        "longitude": "-84.35907858",
        "latitude": "34.02576775",
        "phone": "6782428189",
        "website_url": null,
        "state": "Georgia",
        "street": "66 Norcross St"
    },
    {
        "id": "cefefb6f-577c-43e0-81e1-12f6125a86d6",
        "name": "Varietal Beer Company",
        "brewery_type": "micro",
        "address_1": "416 E Edison Ave",
        "address_2": null,
        "address_3": null,
        "city": "Sunnyside",
        "state_province": "Washington",
        "postal_code": "98944-1459",
        "country": "United States",
        "longitude": "-120.0157684",
        "latitude": "46.32370319",
        "phone": "5093074622",
        "website_url": "http://www.varietalbeer.com",
        "state": "Washington",
        "street": "416 E Edison Ave"
    },
    {
        "id": "d521368b-3245-4084-9f94-4783ba1f3238",
        "name": "Vasen Brewing Company",
        "brewery_type": "micro",
        "address_1": "3331 Moore St",
        "address_2": null,
        "address_3": null,
        "city": "Richmond",
        "state_province": "Virginia",
        "postal_code": "23230-4423",
        "country": "United States",
        "longitude": "-77.4517779",
        "latitude": "37.5574905",
        "phone": "8045885678",
        "website_url": "http://www.vasenbrewing.com",
        "state": "Virginia",
        "street": "3331 Moore St"
    },
    {
        "id": "615a73ce-eb1a-44bb-8a8d-0cc1b5573e72",
        "name": "Vashon Brewing Co",
        "brewery_type": "micro",
        "address_1": null,
        "address_2": null,
        "address_3": null,
        "city": "Vashon",
        "state_province": "Washington",
        "postal_code": "98070-5900",
        "country": "United States",
        "longitude": null,
        "latitude": null,
        "phone": null,
        "website_url": "http://www.vashonbrewingco.com",
        "state": "Washington",
        "street": null
    },
    {
        "id": "86157812-980d-4f66-b355-5aed2438ccc5",
        "name": "Vault Brewing Co",
        "brewery_type": "brewpub",
        "address_1": "10 S Main St",
        "address_2": null,
        "address_3": null,
        "city": "Morrisville",
        "state_province": "Pennsylvania",
        "postal_code": "19067-1511",
        "country": "United States",
        "longitude": null,
        "latitude": null,
        "phone": "2675734291",
        "website_url": "http://www.vaultbrewing.com",
        "state": "Pennsylvania",
        "street": "10 S Main St"
    },
    {
        "id": "5dafecff-6ef6-430d-87ed-1f9e315f3f92",
        "name": "Vecino Brewing",
        "brewery_type": "brewpub",
        "address_1": "300 E Main St",
        "address_2": null,
        "address_3": null,
        "city": "Carrboro",
        "state_province": "North Carolina",
        "postal_code": "27510-2359",
        "country": "United States",
        "longitude": "-79.0689722",
        "latitude": "35.9100127",
        "phone": "9196495101",
        "website_url": "http://www.vecinobrewing.com",
        "state": "North Carolina",
        "street": "300 E Main St"
    },
    {
        "id": "376af0a3-abdd-42e8-850d-0635374c2e86",
        "name": "Velveteen Brewing Co",
        "brewery_type": "planning",
        "address_1": null,
        "address_2": null,
        "address_3": null,
        "city": "Mamaroneck",
        "state_province": "New York",
        "postal_code": "10543-4719",
        "country": "United States",
        "longitude": null,
        "latitude": null,
        "phone": null,
        "website_url": null,
        "state": "New York",
        "street": null
    },
    {
        "id": "e4e8348e-71ba-41df-b571-b866fffbf050",
        "name": "Venice Ale House Brewing Co",
        "brewery_type": "contract",
        "address_1": "2 Rose Ave",
        "address_2": null,
        "address_3": null,
        "city": "Venice",
        "state_province": "California",
        "postal_code": "90291-2411",
        "country": "United States",
        "longitude": "-118.480274",
        "latitude": "33.994634",
        "phone": "3103148253",
        "website_url": "http://www.venicealehouse.com",
        "state": "California",
        "street": "2 Rose Ave"
    },
    {
        "id": "be340e56-0609-44de-a684-eca999c2b5a4",
        "name": "Venice Duck Brewery",
        "brewery_type": "contract",
        "address_1": null,
        "address_2": null,
        "address_3": null,
        "city": "Venice",
        "state_province": "California",
        "postal_code": "90291-3833",
        "country": "United States",
        "longitude": "-118.4668875",
        "latitude": "33.995044",
        "phone": "3103834927",
        "website_url": "http://www.veniceduckbrewery.com",
        "state": "California",
        "street": null
    },
    {
        "id": "cdb0ccdd-a7c9-457e-aaef-2aacb17954b9",
        "name": "Venn Brewing Company",
        "brewery_type": "micro",
        "address_1": "3550 E 46th St Suite 140",
        "address_2": null,
        "address_3": null,
        "city": "Minneapolis",
        "state_province": "Minnesota",
        "postal_code": "55406-3965",
        "country": "United States",
        "longitude": null,
        "latitude": null,
        "phone": null,
        "website_url": "http://www.vennbrewing.com",
        "state": "Minnesota",
        "street": "3550 E 46th St Suite 140"
    },
    {
        "id": "f74cf0da-72f1-449c-b2ec-81b5fcd848bf",
        "name": "Ventura Coast Brewing Company",
        "brewery_type": "micro",
        "address_1": "76 S Oak St",
        "address_2": null,
        "address_3": null,
        "city": "Ventura",
        "state_province": "California",
        "postal_code": "93001-2702",
        "country": "United States",
        "longitude": "-119.2945588",
        "latitude": "34.27988394",
        "phone": "8056678640",
        "website_url": "http://www.vcbc.beer",
        "state": "California",
        "street": "76 S Oak St"
    },
    {
        "id": "007923ef-19cb-4433-be8e-355ff64b34e7",
        "name": "Veracious Brewing Company",
        "brewery_type": "micro",
        "address_1": "246 Main St",
        "address_2": null,
        "address_3": null,
        "city": "Monroe",
        "state_province": "Connecticut",
        "postal_code": "06468-1171",
        "country": "United States",
        "longitude": null,
        "latitude": null,
        "phone": "2038805670",
        "website_url": "http://www.veraciousbrewing.com",
        "state": "Connecticut",
        "street": "246 Main St"
    },
    {
        "id": "d217a26e-7eec-4618-b32c-2689c76b92c3",
        "name": "Verboten Brewing",
        "brewery_type": "micro",
        "address_1": "127 E 5th St",
        "address_2": null,
        "address_3": null,
        "city": "Loveland",
        "state_province": "Colorado",
        "postal_code": "80537-5503",
        "country": "United States",
        "longitude": "-105.0749674",
        "latitude": "40.39658612",
        "phone": "9707757371",
        "website_url": "http://www.verbotenbrewing.com",
        "state": "Colorado",
        "street": "127 E 5th St"
    },
    {
        "id": "2d9ff9d8-6a92-49fd-b03c-d77bbb371600",
        "name": "Verde Brewing Company",
        "brewery_type": "micro",
        "address_1": "724 Industrial Dr Unit 7A",
        "address_2": null,
        "address_3": null,
        "city": "Camp Verde",
        "state_province": "Arizona",
        "postal_code": "86322",
        "country": "United States",
        "longitude": null,
        "latitude": null,
        "phone": "9285678626",
        "website_url": "http://www.verdebrewing.com",
        "state": "Arizona",
        "street": "724 Industrial Dr Unit 7A"
    },
    {
        "id": "5504068e-77c6-41c1-a1a2-01b796b52cd1",
        "name": "Verdugo West Brewing Company",
        "brewery_type": "micro",
        "address_1": "156 W Verdugo Ave",
        "address_2": null,
        "address_3": null,
        "city": "Burbank",
        "state_province": "California",
        "postal_code": "91502-2132",
        "country": "United States",
        "longitude": "-118.3103682",
        "latitude": "34.17375015",
        "phone": "8188415040",
        "website_url": "http://www.verdugowestbrewing.com",
        "state": "California",
        "street": "156 W Verdugo Ave"
    },
    {
        "id": "784b40eb-252d-4e8e-a002-e11de9c3b59a",
        "name": "Vermont Pub and Brewery",
        "brewery_type": "brewpub",
        "address_1": "144 College St",
        "address_2": null,
        "address_3": null,
        "city": "Burlington",
        "state_province": "Vermont",
        "postal_code": "05401-8416",
        "country": "United States",
        "longitude": "-73.2143746",
        "latitude": "44.4772683",
        "phone": "8028650500",
        "website_url": "http://www.vermontbrewery.com",
        "state": "Vermont",
        "street": "144 College St"
    },
    {
        "id": "9a4d9c4e-fc5f-4af0-9fed-9374d1c2ee4f",
        "name": "Vernal Brewing Company",
        "brewery_type": "micro",
        "address_1": "510 E Main St",
        "address_2": null,
        "address_3": null,
        "city": "Vernal",
        "state_province": "Utah",
        "postal_code": "84078-2700",
        "country": "United States",
        "longitude": "-109.5161701",
        "latitude": "40.45578612",
        "phone": "4357812337",
        "website_url": "http://www.vernalbrewingcompany.com",
        "state": "Utah",
        "street": "510 E Main St"
    },
    {
        "id": "427d559f-ec7b-4e5f-b973-c8cd9cbf15d9",
        "name": "Vertigo Brewing",
        "brewery_type": "micro",
        "address_1": "21420 NW Nicholas Ct Ste D-7",
        "address_2": null,
        "address_3": null,
        "city": "Hillsboro",
        "state_province": "Oregon",
        "postal_code": "97124-6633",
        "country": "United States",
        "longitude": "-122.8955804",
        "latitude": "45.53189006",
        "phone": "5036456644",
        "website_url": "http://www.vertigobrew.com",
        "state": "Oregon",
        "street": "21420 NW Nicholas Ct Ste D-7"
    },
    {
        "id": "f48f194a-adbb-4309-8138-72f89f53d4c7",
        "name": "Very Nice Brewing Co",
        "brewery_type": "micro",
        "address_1": "20 Lakeview Drive Unit 112",
        "address_2": null,
        "address_3": null,
        "city": "Nederland",
        "state_province": "Colorado",
        "postal_code": "80466",
        "country": "United States",
        "longitude": null,
        "latitude": null,
        "phone": "3032583770",
        "website_url": "http://www.verynicebrewing.com",
        "state": "Colorado",
        "street": "20 Lakeview Drive Unit 112"
    },
    {
        "id": "d3b92246-604a-45f4-bbe0-bd02451924b8",
        "name": "Vessel Ales & Taphouse",
        "brewery_type": "closed",
        "address_1": "19405 144th Ave NE Bldg D",
        "address_2": null,
        "address_3": null,
        "city": "Woodinville",
        "state_province": "Washington",
        "postal_code": "98072-6485",
        "country": "United States",
        "longitude": null,
        "latitude": null,
        "phone": "2066295024",
        "website_url": "http://www.vesselwines.com",
        "state": "Washington",
        "street": "19405 144th Ave NE Bldg D"
    },
    {
        "id": "4c7bdc81-c8a2-49a4-90c5-5297e796e7a9",
        "name": "Veteran Beer Co / Veteran Beverage Company",
        "brewery_type": "proprietor",
        "address_1": "320 W Ohio St Ste 501",
        "address_2": null,
        "address_3": null,
        "city": "Chicago",
        "state_province": "Illinois",
        "postal_code": "60654-7816",
        "country": "United States",
        "longitude": null,
        "latitude": null,
        "phone": "6192498081",
        "website_url": "http://www.veteranbeercompany.com",
        "state": "Illinois",
        "street": "320 W Ohio St Ste 501"
    },
    {
        "id": "aa0393b5-3623-4eeb-98c8-56547386d4eb",
        "name": "Veteran Brewhouse",
        "brewery_type": "micro",
        "address_1": "829 CR 801",
        "address_2": null,
        "address_3": null,
        "city": "Ashland",
        "state_province": "Ohio",
        "postal_code": "44805",
        "country": "United States",
        "longitude": null,
        "latitude": null,
        "phone": "4196064014",
        "website_url": "http://www.veteranbrewhouse.com",
        "state": "Ohio",
        "street": "829 CR 801"
    },
    {
        "id": "75a0701e-0f94-4550-afaf-892cd31774ee",
        "name": "Veteran Brothers Brewing Company",
        "brewery_type": "brewpub",
        "address_1": "21 N Parish Ave",
        "address_2": null,
        "address_3": null,
        "city": "Johnstown",
        "state_province": "Colorado",
        "postal_code": "80534",
        "country": "United States",
        "longitude": "-104.9061919",
        "latitude": "40.33713",
        "phone": "9705876786",
        "website_url": "https://www.facebook.com/veteranbrothersbrew",
        "state": "Colorado",
        "street": "21 N Parish Ave"
    },
    {
        "id": "2d3c288c-ecb1-47fc-bca3-c277c7728944",
        "name": "Veterans United Craft Brewery",
        "brewery_type": "micro",
        "address_1": "8999 Western Way Ste 104",
        "address_2": null,
        "address_3": null,
        "city": "Jacksonville",
        "state_province": "Florida",
        "postal_code": "32256",
        "country": "United States",
        "longitude": "-81.5570848",
        "latitude": "30.2008038",
        "phone": "9042533326",
        "website_url": "http://www.vubrew.com",
        "state": "Florida",
        "street": "8999 Western Way Ste 104"
    },
    {
        "id": "3895d6bc-06f0-4440-8350-9b929b95cda2",
        "name": "Veza Sur Brewing Co",
        "brewery_type": "large",
        "address_1": "55 NW 25th St",
        "address_2": null,
        "address_3": null,
        "city": "Miami",
        "state_province": "Florida",
        "postal_code": "33127-4415",
        "country": "United States",
        "longitude": "-80.19614871",
        "latitude": "25.80089733",
        "phone": null,
        "website_url": null,
        "state": "Florida",
        "street": "55 NW 25th St"
    },
    {
        "id": "add3dcfb-12fd-4d9f-be5d-5119961df9ce",
        "name": "Vibrant Shore Brewing Company",
        "brewery_type": "planning",
        "address_1": null,
        "address_2": null,
        "address_3": null,
        "city": "Virginia Beach",
        "state_province": "Virginia",
        "postal_code": "23451-2005",
        "country": "United States",
        "longitude": null,
        "latitude": null,
        "phone": "8082805895",
        "website_url": null,
        "state": "Virginia",
        "street": null
    },
    {
        "id": "b9f63a8d-4145-4e1f-8613-1bb45dba84dc",
        "name": "Vice District Tap Room",
        "brewery_type": "micro",
        "address_1": "1454 S Michigan Ave Ste 1",
        "address_2": null,
        "address_3": null,
        "city": "Chicago",
        "state_province": "Illinois",
        "postal_code": "60605-2811",
        "country": "United States",
        "longitude": null,
        "latitude": null,
        "phone": "3122919022",
        "website_url": "http://www.vicedistrictbrewing.com",
        "state": "Illinois",
        "street": "1454 S Michigan Ave Ste 1"
    },
    {
        "id": "4c321585-4c57-400b-9a56-fb95767b8cee",
        "name": "Vicious Fishes Brewery",
        "brewery_type": "micro",
        "address_1": "219 Fish Dr",
        "address_2": null,
        "address_3": null,
        "city": "Angier",
        "state_province": "North Carolina",
        "postal_code": "27501-6077",
        "country": "United States",
        "longitude": "-78.749408",
        "latitude": "35.507541",
        "phone": "9196393369",
        "website_url": "http://www.viciousfishes.com",
        "state": "North Carolina",
        "street": "219 Fish Dr"
    },
    {
        "id": "ccae7ca3-7457-44cf-8138-f6f5d8959b8c",
        "name": "Victor 23 Craft Brewery",
        "brewery_type": "brewpub",
        "address_1": "2905 St Johns Blvd",
        "address_2": null,
        "address_3": null,
        "city": "Vancouver",
        "state_province": "Washington",
        "postal_code": "98661-3718",
        "country": "United States",
        "longitude": "-122.6464236",
        "latitude": "45.6426306",
        "phone": "3609845413",
        "website_url": "http://www.Victor23.com",
        "state": "Washington",
        "street": "2905 St Johns Blvd"
    },
    {
        "id": "1b8122fc-3b03-49c0-9ae2-e344a3510030",
        "name": "Victory Brewing Co",
        "brewery_type": "regional",
        "address_1": "420 Acorn Ln",
        "address_2": null,
        "address_3": null,
        "city": "Downingtown",
        "state_province": "Pennsylvania",
        "postal_code": "19335-3040",
        "country": "United States",
        "longitude": null,
        "latitude": null,
        "phone": "6108730881",
        "website_url": "http://www.victorybeer.com",
        "state": "Pennsylvania",
        "street": "420 Acorn Ln"
    },
    {
        "id": "caa654e3-bfa9-4019-8e83-2aca7a423720",
        "name": "Victory Brewing Co",
        "brewery_type": "brewpub",
        "address_1": "650 W Cypress St Ste 1",
        "address_2": null,
        "address_3": null,
        "city": "Kennett Square",
        "state_province": "Pennsylvania",
        "postal_code": "19348-3059",
        "country": "United States",
        "longitude": null,
        "latitude": null,
        "phone": "4847301870",
        "website_url": "http://www.victorybeer.com",
        "state": "Pennsylvania",
        "street": "650 W Cypress St Ste 1"
    },
    {
        "id": "392b4940-7333-4a2e-9e64-3b12e0290354",
        "name": "Victory Brewing Co",
        "brewery_type": "regional",
        "address_1": "3127 Lower Valley Rd",
        "address_2": null,
        "address_3": null,
        "city": "Parkesburg",
        "state_province": "Pennsylvania",
        "postal_code": "19365-9617",
        "country": "United States",
        "longitude": null,
        "latitude": null,
        "phone": "6108730881",
        "website_url": "http://www.victorybeer.com",
        "state": "Pennsylvania",
        "street": "3127 Lower Valley Rd"
    },
    {
        "id": "60fad081-4a4e-4415-95d8-b478cb0ce9c1",
        "name": "Vierling Restaurant & Marquette Harbor Brewery",
        "brewery_type": "brewpub",
        "address_1": "119 S Front St",
        "address_2": null,
        "address_3": null,
        "city": "Marquette",
        "state_province": "Michigan",
        "postal_code": "49855-4642",
        "country": "United States",
        "longitude": "-87.3928955",
        "latitude": "46.5425586",
        "phone": "9062283533",
        "website_url": "http://www.thevierling.com",
        "state": "Michigan",
        "street": "119 S Front St"
    },
    {
        "id": "b3be1ab8-d34b-465c-9704-b50364cfd061",
        "name": "Viewpoint Brewing Co",
        "brewery_type": "brewpub",
        "address_1": "2201 San Dieguito Dr Ste F",
        "address_2": null,
        "address_3": null,
        "city": "del Mar",
        "state_province": "California",
        "postal_code": "92014-2257",
        "country": "United States",
        "longitude": "-117.2618232",
        "latitude": "32.970049",
        "phone": "8583569346",
        "website_url": "http://www.viewpointbrewing.com",
        "state": "California",
        "street": "2201 San Dieguito Dr Ste F"
    },
    {
        "id": "9fb445cd-bd7c-4b97-a249-ef17e9856cc0",
        "name": "Viking Brewpub",
        "brewery_type": "brewpub",
        "address_1": "211 E Main St",
        "address_2": null,
        "address_3": null,
        "city": "Stoughton",
        "state_province": "Wisconsin",
        "postal_code": "53589-1700",
        "country": "United States",
        "longitude": "-89.2188242",
        "latitude": "42.9166357",
        "phone": "6087195041",
        "website_url": null,
        "state": "Wisconsin",
        "street": "211 E Main St"
    },
    {
        "id": "f51b3f3d-be14-40da-914a-3b5c83f75bbf",
        "name": "Villacher Brauerei (Heineken)",
        "brewery_type": "large",
        "address_1": "Brauhausgasse 6",
        "address_2": null,
        "address_3": null,
        "city": "Villach",
        "state_province": "K\ufffdrnten",
        "postal_code": "9500",
        "country": "Austria",
        "longitude": "13.85168245858099",
        "latitude": "46.61662463422168",
        "phone": "+434242277770",
        "website_url": "https://www.villacher.com",
        "state": "K\ufffdrnten",
        "street": "Brauhausgasse 6"
    },
    {
        "id": "4d87a123-b93b-4f06-9c57-8f197a9b2ad9",
        "name": "Village Idiot Brewing Company",
        "brewery_type": "micro",
        "address_1": "42 High St",
        "address_2": null,
        "address_3": null,
        "city": "Mount Holly",
        "state_province": "New Jersey",
        "postal_code": "08060-1702",
        "country": "United States",
        "longitude": "-74.78801924",
        "latitude": "39.99417605",
        "phone": "6099759270",
        "website_url": "http://www.villageidiotbrewing.com",
        "state": "New Jersey",
        "street": "42 High St"
    },
    {
        "id": "71ac4ae1-27a3-45bb-a309-fa41cff28e4d",
        "name": "Village Vintner Winery & Brewery",
        "brewery_type": "brewpub",
        "address_1": "2380 Esplanade Dr Ste 100",
        "address_2": null,
        "address_3": null,
        "city": "Algonquin",
        "state_province": "Illinois",
        "postal_code": "60102-5450",
        "country": "United States",
        "longitude": "-88.33838098",
        "latitude": "42.14408948",
        "phone": "8476584900",
        "website_url": "http://www.thevillagevintner.com",
        "state": "Illinois",
        "street": "2380 Esplanade Dr Ste 100"
    },
    {
        "id": "7acd06bc-672e-4bc0-85ae-efa205f92b25",
        "name": "Vine Park Brewing Co",
        "brewery_type": "micro",
        "address_1": "1254 7th St W",
        "address_2": null,
        "address_3": null,
        "city": "Saint Paul",
        "state_province": "Minnesota",
        "postal_code": "55102-4123",
        "country": "United States",
        "longitude": "-93.1655001",
        "latitude": "44.9040455",
        "phone": "6512281355",
        "website_url": "http://www.vinepark.com",
        "state": "Minnesota",
        "street": "1254 7th St W"
    },
    {
        "id": "05d5110e-1f3c-40d0-b6b4-d00b5fdac6c1",
        "name": "Vine Street Pub & Brewery",
        "brewery_type": "brewpub",
        "address_1": "1700 Vine St",
        "address_2": null,
        "address_3": null,
        "city": "Denver",
        "state_province": "Colorado",
        "postal_code": "80206-1120",
        "country": "United States",
        "longitude": "-104.9627421",
        "latitude": "39.7434087",
        "phone": "3033882337",
        "website_url": "http://www.mountainsunpub.com",
        "state": "Colorado",
        "street": "1700 Vine St"
    },
    {
        "id": "17995f06-7c5d-4a2c-b3cf-b8cc855ba10e",
        "name": "Vino's Pizza Pub Brewery",
        "brewery_type": "brewpub",
        "address_1": "923 W 7th St",
        "address_2": null,
        "address_3": null,
        "city": "Little Rock",
        "state_province": "Arkansas",
        "postal_code": "72201-4005",
        "country": "United States",
        "longitude": "-92.28140212",
        "latitude": "34.7434392",
        "phone": "5013758466",
        "website_url": "http://www.vinosbrewpub.com",
        "state": "Arkansas",
        "street": "923 W 7th St"
    },
    {
        "id": "d2cf661a-d6dc-4e6e-b15d-a5100adc6ef4",
        "name": "Vintage Brewing Co",
        "brewery_type": "brewpub",
        "address_1": "674 S Whitney Way",
        "address_2": null,
        "address_3": null,
        "city": "Madison",
        "state_province": "Wisconsin",
        "postal_code": "53711-1035",
        "country": "United States",
        "longitude": "-89.47266345",
        "latitude": "43.05171633",
        "phone": "6082042739",
        "website_url": "http://www.vintagebrewingco.com",
        "state": "Wisconsin",
        "street": "674 S Whitney Way"
    },
    {
        "id": "f7660e19-369a-41f8-b77e-10d094e67142",
        "name": "Vintage Brewing Co",
        "brewery_type": "brewpub",
        "address_1": "600 Water Street",
        "address_2": null,
        "address_3": null,
        "city": "Sauk City",
        "state_province": "Wisconsin",
        "postal_code": "53583",
        "country": "United States",
        "longitude": "-89.7180892",
        "latitude": "43.2820804",
        "phone": "6082042739",
        "website_url": null,
        "state": "Wisconsin",
        "street": "600 Water Street"
    },
    {
        "id": "e66239b3-a3ec-4b2b-8738-0710ec300f25",
        "name": "Vinyl Brewing Company, LLC",
        "brewery_type": "micro",
        "address_1": "300B 12th St",
        "address_2": null,
        "address_3": null,
        "city": "Hammonton",
        "state_province": "New Jersey",
        "postal_code": "08037-",
        "country": "United States",
        "longitude": "-74.80690714",
        "latitude": "39.6330492",
        "phone": "6096665460",
        "website_url": "http://www.vinylbrewingnj.com",
        "state": "New Jersey",
        "street": "300B 12th St"
    },
    {
        "id": "1c9765e4-b86d-4127-8403-ba0eaa4a6e68",
        "name": "Virant Family Winery / Black Angus Brewery",
        "brewery_type": "micro",
        "address_1": "541 Atkins Rd",
        "address_2": null,
        "address_3": null,
        "city": "Geneva",
        "state_province": "Ohio",
        "postal_code": "44041",
        "country": "United States",
        "longitude": null,
        "latitude": null,
        "phone": "4404666279",
        "website_url": "http://www.virantfamilywinery.com",
        "state": "Ohio",
        "street": "541 Atkins Rd"
    },
    {
        "id": "0c325218-d9f7-47c5-8305-d4a6058ec3bc",
        "name": "Virginia City Brewery & Taphouse",
        "brewery_type": "brewpub",
        "address_1": "62 North C Street",
        "address_2": null,
        "address_3": null,
        "city": "Virginia City",
        "state_province": "Nevada",
        "postal_code": "89440",
        "country": "United States",
        "longitude": "-119.648264",
        "latitude": "39.314358",
        "phone": "7758477064",
        "website_url": "http://www.virginiacitybreweryandtaphouse.com",
        "state": "Nevada",
        "street": "62 North C Street"
    },
    {
        "id": "e3f7a311-cddb-4810-9fb8-32bca371f72c",
        "name": "Vis Major Brewing Co",
        "brewery_type": "brewpub",
        "address_1": "3501 Center St",
        "address_2": null,
        "address_3": null,
        "city": "Omaha",
        "state_province": "Nebraska",
        "postal_code": "68105-2423",
        "country": "United States",
        "longitude": "-95.964461",
        "latitude": "41.241419",
        "phone": "4028844082",
        "website_url": "http://www.vismajorbrewing.com",
        "state": "Nebraska",
        "street": "3501 Center St"
    },
    {
        "id": "b8005ec5-1fc7-43bd-96e6-a5b185c927d8",
        "name": "Vision Quest Brewing Company",
        "brewery_type": "micro",
        "address_1": "2510 47th St Ste A2",
        "address_2": null,
        "address_3": null,
        "city": "Boulder",
        "state_province": "Colorado",
        "postal_code": "80301-2301",
        "country": "United States",
        "longitude": null,
        "latitude": null,
        "phone": "3038986802",
        "website_url": "http://www.visionquestbrewing.com",
        "state": "Colorado",
        "street": "2510 47th St Ste A2"
    },
    {
        "id": "c09360db-487f-487c-9c6b-d3acca6cef44",
        "name": "Vista Brewing",
        "brewery_type": "brewpub",
        "address_1": "13551 Ranch To Market Rd 150",
        "address_2": null,
        "address_3": null,
        "city": "Driftwood",
        "state_province": "Texas",
        "postal_code": "78619",
        "country": "United States",
        "longitude": null,
        "latitude": null,
        "phone": "5127661842",
        "website_url": "http://www.vistabrewingtx.com",
        "state": "Texas",
        "street": "13551 Ranch To Market Rd 150"
    },
    {
        "id": "affe57b1-0891-4df3-aef1-28a3546e6571",
        "name": "Vitamin Sea Brewing",
        "brewery_type": "planning",
        "address_1": null,
        "address_2": null,
        "address_3": null,
        "city": "Hull",
        "state_province": "Massachusetts",
        "postal_code": "02045-2907",
        "country": "United States",
        "longitude": null,
        "latitude": null,
        "phone": "7815894569",
        "website_url": null,
        "state": "Massachusetts",
        "street": null
    },
    {
        "id": "ba813e75-fa19-44a3-bab2-7927849962c2",
        "name": "Vivio's Food",
        "brewery_type": "planning",
        "address_1": null,
        "address_2": null,
        "address_3": null,
        "city": "Detroit",
        "state_province": "Michigan",
        "postal_code": "48207-4516",
        "country": "United States",
        "longitude": null,
        "latitude": null,
        "phone": "3133931711",
        "website_url": "http://www.viviosdetroit.com",
        "state": "Michigan",
        "street": null
    },
    {
        "id": "38ea89d3-a701-473e-a3cb-f46ede4706e7",
        "name": "Volunteer Brewing Company",
        "brewery_type": "micro",
        "address_1": "120 W Main St",
        "address_2": null,
        "address_3": null,
        "city": "Middletown",
        "state_province": "Delaware",
        "postal_code": "19709-1040",
        "country": "United States",
        "longitude": "-75.71959161",
        "latitude": "39.44942786",
        "phone": "3024640822",
        "website_url": "http://www.VolunteerBrewing.com",
        "state": "Delaware",
        "street": "120 W Main St"
    },
    {
        "id": "70fe5224-37e2-431e-81ef-8b28168d4da4",
        "name": "Von Ebert Brewing",
        "brewery_type": "planning",
        "address_1": "14021 NE Glisan St",
        "address_2": null,
        "address_3": null,
        "city": "Portland",
        "state_province": "Oregon",
        "postal_code": "97230",
        "country": "United States",
        "longitude": "-122.5187026",
        "latitude": "45.52726898",
        "phone": null,
        "website_url": null,
        "state": "Oregon",
        "street": "14021 NE Glisan St"
    },
    {
        "id": "4d346ad7-4bc6-4f61-b993-f066f610b7ef",
        "name": "Von Ebert Brewing",
        "brewery_type": "brewpub",
        "address_1": "131 NW 13th Ave",
        "address_2": null,
        "address_3": null,
        "city": "Portland",
        "state_province": "Oregon",
        "postal_code": "97209-4110",
        "country": "United States",
        "longitude": "-122.6843058",
        "latitude": "45.52389727",
        "phone": "5038207721",
        "website_url": "http://vonebertbrewing.com",
        "state": "Oregon",
        "street": "131 NW 13th Ave"
    }
]