[
    {
        "id": "3a6fa1f2-5baa-48b0-ab62-17580ee59c80",
        "name": "Belly Love Brewing Company",
        "brewery_type": "brewpub",
        "address_1": "725 E Main St",
        "address_2": null,
        "address_3": null,
        "city": "Purcellville",
        "state_province": "Virginia",
        "postal_code": "20132-3178",
        "country": "United States",
        "longitude": "-77.7015903",
        "latitude": "39.1364247",
        "phone": "5404413159",
        "website_url": "http://www.bellylovebrewing.com",
        "state": "Virginia",
        "street": "725 E Main St"
    },
    {
        "id": "1fcbc3b2-91be-4668-9519-e0ec141e1ec6",
        "name": "Belly Up Beer Company",
        "brewery_type": "micro",
        "address_1": null,
        "address_2": null,
        "address_3": null,
        "city": "Western Springs",
        "state_province": "Illinois",
        "postal_code": "60558",
        "country": "United States",
        "longitude": null,
        "latitude": null,
        "phone": "7088379762",
        "website_url": "http://www.bellyupbeer.com",
        "state": "Illinois",
        "street": null
    },
    {
        "id": "b5c1920a-6015-4f9e-9ba6-58e654fe2138",
        "name": "Belmont Brewing Co",
        "brewery_type": "brewpub",
        "address_1": "25 39th Pl",
        "address_2": null,
        "address_3": null,
        "city": "Long Beach",
        "state_province": "California",
        "postal_code": "90803-2806",
        "country": "United States",
        "longitude": "-118.1480454",
        "latitude": "33.759551",
        "phone": "5624333891",
        "website_url": "http://www.belmontbrewing.com",
        "state": "California",
        "street": "25 39th Pl"
    },
    {
        "id": "0825c760-b25e-4d4d-ac6f-67498bffe8f6",
        "name": "Below the Radar Brewing Co",
        "brewery_type": "brewpub",
        "address_1": "220 Holmes Ave NE",
        "address_2": null,
        "address_3": null,
        "city": "Huntsville",
        "state_province": "Alabama",
        "postal_code": "35801-4837",
        "country": "United States",
        "longitude": "-86.58583931",
        "latitude": "34.73272365",
        "phone": "2564696617",
        "website_url": "http://www.btrbrew.com",
        "state": "Alabama",
        "street": "220 Holmes Ave NE"
    },
    {
        "id": "3e8bc011-fde9-480c-aed4-b1aa9a99fa57",
        "name": "Beltway Brewing Company",
        "brewery_type": "micro",
        "address_1": "22620 Davis Dr Ste 110",
        "address_2": null,
        "address_3": null,
        "city": "Sterling",
        "state_province": "Virginia",
        "postal_code": "20164-4470",
        "country": "United States",
        "longitude": "-77.4172876",
        "latitude": "38.9914289",
        "phone": "5719892739",
        "website_url": "http://www.beltwaybrewco.com",
        "state": "Virginia",
        "street": "22620 Davis Dr Ste 110"
    },
    {
        "id": "e99c9fda-b861-4dc4-99bb-58b685654f4f",
        "name": "Bemidji Brewing Company",
        "brewery_type": "brewpub",
        "address_1": "211 America Ave NW",
        "address_2": null,
        "address_3": null,
        "city": "Bemidji",
        "state_province": "Minnesota",
        "postal_code": "56601-3176",
        "country": "United States",
        "longitude": "-94.88482747",
        "latitude": "47.4699022",
        "phone": "2184447011",
        "website_url": "http://www.bemidjibeer.com",
        "state": "Minnesota",
        "street": "211 America Ave NW"
    },
    {
        "id": "80fb35c8-eef8-49f7-8d97-ed0a432d52c3",
        "name": "Ben's Brewing Station",
        "brewery_type": "micro",
        "address_1": "719 Walnut Street",
        "address_2": null,
        "address_3": null,
        "city": "Yankton",
        "state_province": "South Dakota",
        "postal_code": "57078-3542",
        "country": "United States",
        "longitude": "-97.39428007",
        "latitude": "42.8771861",
        "phone": "6056619090",
        "website_url": "http://www.bensbrewing.shop",
        "state": "South Dakota",
        "street": "719 Walnut Street"
    },
    {
        "id": "db8a8a89-3084-4632-8215-36c9446426b5",
        "name": "Ben's Tune-Up / Ben's Beer",
        "brewery_type": "brewpub",
        "address_1": "195 Hilliard Ave",
        "address_2": null,
        "address_3": null,
        "city": "Asheville",
        "state_province": "North Carolina",
        "postal_code": "28801-3616",
        "country": "United States",
        "longitude": "-82.5557931",
        "latitude": "35.5912756",
        "phone": "8284247580",
        "website_url": "http://www.benstuneup.com",
        "state": "North Carolina",
        "street": "195 Hilliard Ave"
    },
    {
        "id": "ef1075c7-0384-4bfe-8034-2ba2e99a5a0c",
        "name": "Benchmark Brewing Co",
        "brewery_type": "closed",
        "address_1": "6190 Fairmount Ave Ste G",
        "address_2": null,
        "address_3": null,
        "city": "San Diego",
        "state_province": "California",
        "postal_code": "92120-3428",
        "country": "United States",
        "longitude": "-117.1020694",
        "latitude": "32.78737066",
        "phone": "6197952911",
        "website_url": "http://www.benchmarkbrewing.com",
        "state": "California",
        "street": "6190 Fairmount Ave Ste G"
    },
    {
        "id": "b644eedc-dda5-49a4-b05f-8baed4791d41",
        "name": "Benchtop Brewing Company",
        "brewery_type": "micro",
        "address_1": "1129 Boissevain Ave",
        "address_2": null,
        "address_3": null,
        "city": "Norfolk",
        "state_province": "Virginia",
        "postal_code": "23507-1401",
        "country": "United States",
        "longitude": "-76.30742245",
        "latitude": "36.86493389",
        "phone": "7573219482",
        "website_url": "http://www.benchtopbrewing.com",
        "state": "Virginia",
        "street": "1129 Boissevain Ave"
    },
    {
        "id": "66d441d7-df24-4f32-83be-9a80d9d63951",
        "name": "Bend Brewing Co",
        "brewery_type": "brewpub",
        "address_1": "1019 NW Brooks St",
        "address_2": null,
        "address_3": null,
        "city": "Bend",
        "state_province": "Oregon",
        "postal_code": "97703-2018",
        "country": "United States",
        "longitude": "-121.3139312",
        "latitude": "44.06051115",
        "phone": "5413831599",
        "website_url": "http://www.bendbrewingco.com",
        "state": "Oregon",
        "street": "1019 NW Brooks St"
    },
    {
        "id": "58d75aca-9aef-48d1-b81a-0d085c4f4da5",
        "name": "Bend Brewing High Desert",
        "brewery_type": "closed",
        "address_1": "20650 NE High Desert Lane",
        "address_2": null,
        "address_3": null,
        "city": "Bend",
        "state_province": "Oregon",
        "postal_code": "97701",
        "country": "United States",
        "longitude": "-121.2914842",
        "latitude": "44.08727607",
        "phone": "5413831599",
        "website_url": null,
        "state": "Oregon",
        "street": "20650 NE High Desert Lane"
    },
    {
        "id": "2740427b-cb76-4b45-bb8d-364e82541041",
        "name": "Benford Brewing Co.",
        "brewery_type": "micro",
        "address_1": "2271 Boxcar Rd",
        "address_2": null,
        "address_3": null,
        "city": "Lancaster",
        "state_province": "South Carolina",
        "postal_code": "29720-9443",
        "country": "United States",
        "longitude": null,
        "latitude": null,
        "phone": null,
        "website_url": null,
        "state": "South Carolina",
        "street": "2271 Boxcar Rd"
    },
    {
        "id": "71531995-c5a9-42fc-8e1e-04b3b57f13b5",
        "name": "Bengal Brewing, LLC.",
        "brewery_type": "planning",
        "address_1": null,
        "address_2": null,
        "address_3": null,
        "city": "Spring Lake Park",
        "state_province": "Minnesota",
        "postal_code": "55432-2802",
        "country": "United States",
        "longitude": null,
        "latitude": null,
        "phone": "6125188146",
        "website_url": "http://www.BengalBrewingLLC.com",
        "state": "Minnesota",
        "street": null
    },
    {
        "id": "903f91f9-2c57-4909-87f7-fa268e44d454",
        "name": "Benjamin Beer Co",
        "brewery_type": "closed",
        "address_1": "507 6th St",
        "address_2": null,
        "address_3": null,
        "city": "Racine",
        "state_province": "Wisconsin",
        "postal_code": "53403-1117",
        "country": "United States",
        "longitude": "-87.78630172",
        "latitude": "42.72641512",
        "phone": "2625832034",
        "website_url": "http://www.benjaminbeer.com",
        "state": "Wisconsin",
        "street": "507 6th St"
    },
    {
        "id": "74266e58-c60c-4eed-bb2a-e582ac87c18c",
        "name": "Bennidito's Brewpub",
        "brewery_type": "brewpub",
        "address_1": "1909 E Sprague Ave",
        "address_2": null,
        "address_3": null,
        "city": "Spokane",
        "state_province": "Washington",
        "postal_code": "99202-3120",
        "country": "United States",
        "longitude": "-117.2178526",
        "latitude": "47.6571208",
        "phone": "5092905018",
        "website_url": "http://www.benniditosbrewpub.com",
        "state": "Washington",
        "street": "1909 E Sprague Ave"
    },
    {
        "id": "709f000d-826d-45e8-ab4f-c89137a58790",
        "name": "Benny Brewing Co.",
        "brewery_type": "micro",
        "address_1": "1429 Sans Souci Pkwy",
        "address_2": null,
        "address_3": null,
        "city": "Wilkes Barre",
        "state_province": "Pennsylvania",
        "postal_code": "18706-6025",
        "country": "United States",
        "longitude": null,
        "latitude": null,
        "phone": "5702356995",
        "website_url": "http://www.martysblueroom.com",
        "state": "Pennsylvania",
        "street": "1429 Sans Souci Pkwy"
    },
    {
        "id": "d19a5bc3-75b2-4119-b18d-fec643a1a3bc",
        "name": "Benoit-Casper Brewing",
        "brewery_type": "micro",
        "address_1": "1201 Pennsylvania Ave Ste E",
        "address_2": null,
        "address_3": null,
        "city": "Richmond",
        "state_province": "California",
        "postal_code": "94801-2300",
        "country": "United States",
        "longitude": "-122.3578637",
        "latitude": "37.94244029",
        "phone": "4086953449",
        "website_url": "http://www.bcbrewing.com",
        "state": "California",
        "street": "1201 Pennsylvania Ave Ste E"
    },
    {
        "id": "c74f06ec-3978-451b-88b4-92d813b11903",
        "name": "Benson Brewery",
        "brewery_type": "brewpub",
        "address_1": "6059 Maple St",
        "address_2": null,
        "address_3": null,
        "city": "Omaha",
        "state_province": "Nebraska",
        "postal_code": "68104-4050",
        "country": "United States",
        "longitude": "-96.00634511",
        "latitude": "41.28489756",
        "phone": "4029348668",
        "website_url": "http://www.bensonbrewery.com",
        "state": "Nebraska",
        "street": "6059 Maple St"
    },
    {
        "id": "d246dbd2-5991-48f5-9e47-3bca8b6027f0",
        "name": "Bent Bine Brew Co. LLC",
        "brewery_type": "brewpub",
        "address_1": "23297 WA-3",
        "address_2": null,
        "address_3": null,
        "city": "Belfair",
        "state_province": "Washington",
        "postal_code": "98394",
        "country": "United States",
        "longitude": "-122.83223",
        "latitude": "47.445115",
        "phone": "8142739379",
        "website_url": "http://www.bentbine.com",
        "state": "Washington",
        "street": "23297 WA-3"
    },
    {
        "id": "449a1e99-45aa-40d0-a3a8-d825919641d6",
        "name": "Bent Brewstillery",
        "brewery_type": "micro",
        "address_1": "1744 Terrace Dr",
        "address_2": null,
        "address_3": null,
        "city": "Roseville",
        "state_province": "Minnesota",
        "postal_code": "55113-1315",
        "country": "United States",
        "longitude": "-93.17364906",
        "latitude": "45.02557829",
        "phone": "8448792368",
        "website_url": "http://www.bentbrewstillery.com",
        "state": "Minnesota",
        "street": "1744 Terrace Dr"
    },
    {
        "id": "f4431225-2c10-4479-9ece-0090a958c1c1",
        "name": "Bent Hill Brewery",
        "brewery_type": "micro",
        "address_1": "1972 Bent Hill Rd",
        "address_2": null,
        "address_3": null,
        "city": "Randolph",
        "state_province": "Vermont",
        "postal_code": "05060-8833",
        "country": "United States",
        "longitude": null,
        "latitude": null,
        "phone": "8022491125",
        "website_url": "http://www.benthilbrewery.com",
        "state": "Vermont",
        "street": "1972 Bent Hill Rd"
    },
    {
        "id": "bdd49c54-8f0c-4e5f-8757-802bed30d8c9",
        "name": "Bent Kettle Brewing Company",
        "brewery_type": "closed",
        "address_1": "1507 Montclair Pl",
        "address_2": null,
        "address_3": null,
        "city": "Fort Atkinson",
        "state_province": "Wisconsin",
        "postal_code": "53538-3102",
        "country": "United States",
        "longitude": "-88.861232",
        "latitude": "42.9348495",
        "phone": "9203909038",
        "website_url": "http://www.bentkettle.com",
        "state": "Wisconsin",
        "street": "1507 Montclair Pl"
    },
    {
        "id": "8b43bd7c-41f0-4865-a9cf-0d82a7b53dcb",
        "name": "Bent Paddle Brewing Co",
        "brewery_type": "regional",
        "address_1": "1912 W Michigan St",
        "address_2": null,
        "address_3": null,
        "city": "Duluth",
        "state_province": "Minnesota",
        "postal_code": "55806-2135",
        "country": "United States",
        "longitude": "-92.1219171",
        "latitude": "46.7676912",
        "phone": "2182792722",
        "website_url": "http://www.bentpaddlebrewing.com",
        "state": "Minnesota",
        "street": "1912 W Michigan St"
    },
    {
        "id": "457f03ac-e315-4d9a-9a66-f091e90698da",
        "name": "Bent River Brewing Co",
        "brewery_type": "brewpub",
        "address_1": "1413 5th Ave",
        "address_2": null,
        "address_3": null,
        "city": "Moline",
        "state_province": "Illinois",
        "postal_code": "61265-1335",
        "country": "United States",
        "longitude": "-90.51736337",
        "latitude": "41.50590516",
        "phone": "3097972722",
        "website_url": "http://www.bentriverbrewing.com",
        "state": "Illinois",
        "street": "1413 5th Ave"
    },
    {
        "id": "5e6cbfb1-f958-47d5-9a19-d8a639216888",
        "name": "Bent River Brewing Co",
        "brewery_type": "brewpub",
        "address_1": "500 Jefferson St",
        "address_2": null,
        "address_3": null,
        "city": "Burlington",
        "state_province": "Iowa",
        "postal_code": "52601",
        "country": "United States",
        "longitude": "-91.1052085",
        "latitude": "40.8106128",
        "phone": "3192092773",
        "website_url": "http://www.burlingtonbentriver.com",
        "state": "Iowa",
        "street": "500 Jefferson St"
    },
    {
        "id": "c542eae9-6b85-4583-84c4-cba24c0cd68c",
        "name": "Bent River Brewing Co Production & Tasting Room",
        "brewery_type": "micro",
        "address_1": "512 24th St",
        "address_2": null,
        "address_3": null,
        "city": "Rock Island",
        "state_province": "Illinois",
        "postal_code": "61201-8928",
        "country": "United States",
        "longitude": "-90.5669283",
        "latitude": "41.5076339",
        "phone": "3092834811",
        "website_url": "http://www.bentriverbrewery.com",
        "state": "Illinois",
        "street": "512 24th St"
    },
    {
        "id": "eeabc125-dc98-49cf-a9da-969ee820c348",
        "name": "Bent Run Brewing Co",
        "brewery_type": "brewpub",
        "address_1": "5607 SR 957",
        "address_2": null,
        "address_3": null,
        "city": "Lander",
        "state_province": "Pennsylvania",
        "postal_code": "16345",
        "country": "United States",
        "longitude": null,
        "latitude": null,
        "phone": "8147578269",
        "website_url": "http://www.bentrunbrewing.com",
        "state": "Pennsylvania",
        "street": "5607 SR 957"
    },
    {
        "id": "2daabc96-c1c4-4bbc-a784-a0720a5c96c3",
        "name": "Bent Shovel Brewing",
        "brewery_type": "micro",
        "address_1": "21678 S Latourette Rd",
        "address_2": null,
        "address_3": null,
        "city": "Oregon City",
        "state_province": "Oregon",
        "postal_code": "97045-9453",
        "country": "United States",
        "longitude": "-122.421183",
        "latitude": "45.37878928",
        "phone": "5038980220",
        "website_url": "http://www.bentshovelbrewing.com",
        "state": "Oregon",
        "street": "21678 S Latourette Rd"
    },
    {
        "id": "ec45b763-05a4-490d-8a78-956939c38c6e",
        "name": "Bent Shovel Brewing",
        "brewery_type": "micro",
        "address_1": "20179 S Springwater Rd",
        "address_2": "Estacada",
        "address_3": null,
        "city": "Oregon City",
        "state_province": "Oregon",
        "postal_code": "97023",
        "country": "United States",
        "longitude": "-122.3922913",
        "latitude": "45.31388797",
        "phone": "5038980220",
        "website_url": "http://www.bentshovelbrewing.com",
        "state": "Oregon",
        "street": "20179 S Springwater Rd"
    },
    {
        "id": "05d4fc7f-58bc-4cc0-b5f8-c6829b0f6d86",
        "name": "Bent Water Brewing Company",
        "brewery_type": "micro",
        "address_1": "180 Commercial St Ste 18",
        "address_2": null,
        "address_3": null,
        "city": "Lynn",
        "state_province": "Massachusetts",
        "postal_code": "01905-3058",
        "country": "United States",
        "longitude": null,
        "latitude": null,
        "phone": null,
        "website_url": "http://www.bentwaterbrewing.com",
        "state": "Massachusetts",
        "street": "180 Commercial St Ste 18"
    },
    {
        "id": "247d83f9-7df3-4842-afd7-4104946fb455",
        "name": "Bentonville Brewing Co",
        "brewery_type": "micro",
        "address_1": "1700 S 1st St",
        "address_2": null,
        "address_3": null,
        "city": "Rogers",
        "state_province": "Arkansas",
        "postal_code": "72756-5923",
        "country": "United States",
        "longitude": "-94.1178372",
        "latitude": "36.3168272",
        "phone": "4799037330",
        "website_url": "http://www.bentonvillebrewing.com",
        "state": "Arkansas",
        "street": "1700 S 1st St"
    },
    {
        "id": "97ad3cff-f0ad-4ba3-94cd-f150d79c788d",
        "name": "Berchman's Brewing Company",
        "brewery_type": "closed",
        "address_1": "25 N Front St Ste 2",
        "address_2": null,
        "address_3": null,
        "city": "Yakima",
        "state_province": "Washington",
        "postal_code": "98901-2648",
        "country": "United States",
        "longitude": null,
        "latitude": null,
        "phone": "5099521058",
        "website_url": "http://berchmansbrewingcompany.com",
        "state": "Washington",
        "street": "25 N Front St Ste 2"
    },
    {
        "id": "dcf991c9-6692-4346-a52a-b6e9ff25520e",
        "name": "Berkeley Springs Brewing Co",
        "brewery_type": "brewpub",
        "address_1": "110 Michigan Ln",
        "address_2": null,
        "address_3": null,
        "city": "Berkeley Springs",
        "state_province": "West Virginia",
        "postal_code": "25411-3008",
        "country": "United States",
        "longitude": "-78.271156",
        "latitude": "39.576782",
        "phone": "3042583369",
        "website_url": "http://www.berkeleyspringsbrewingcompany.com",
        "state": "West Virginia",
        "street": "110 Michigan Ln"
    },
    {
        "id": "fdc796fe-ad16-4995-ad31-c7e896422d47",
        "name": "Berkley Beer Company",
        "brewery_type": "micro",
        "address_1": null,
        "address_2": null,
        "address_3": null,
        "city": "Berkley",
        "state_province": "Massachusetts",
        "postal_code": "02779-1101",
        "country": "United States",
        "longitude": null,
        "latitude": null,
        "phone": "5083269954",
        "website_url": "http://www.berkleybeer.com",
        "state": "Massachusetts",
        "street": null
    },
    {
        "id": "4dd9752b-954d-41fa-b899-c3e26aef7812",
        "name": "Big Bottom Brewery",
        "brewery_type": "micro",
        "address_1": "6 Tristan Dr",
        "address_2": null,
        "address_3": null,
        "city": "Dillsburg",
        "state_province": "Pennsylvania",
        "postal_code": "17019-1627",
        "country": "United States",
        "longitude": null,
        "latitude": null,
        "phone": "7175028800",
        "website_url": "http://www.facebook.com/bigbottombrewery",
        "state": "Pennsylvania",
        "street": "6 Tristan Dr"
    },
    {
        "id": "3cbbbfeb-a69b-4cea-be92-f7ae2808a1eb",
        "name": "Berkshire Brewing Co Inc",
        "brewery_type": "regional",
        "address_1": "12 Railroad St",
        "address_2": null,
        "address_3": null,
        "city": "South Deerfield",
        "state_province": "Massachusetts",
        "postal_code": "01373-0096",
        "country": "United States",
        "longitude": "-72.61025086",
        "latitude": "42.47779797",
        "phone": "4136656600",
        "website_url": "http://www.Berkshire-Brewing.com",
        "state": "Massachusetts",
        "street": "12 Railroad St"
    },
    {
        "id": "41962a71-dd2f-4aa8-9ec2-fd99dc0e684d",
        "name": "Berlin Brewing Company",
        "brewery_type": "micro",
        "address_1": "220 S White Horse Pike",
        "address_2": null,
        "address_3": null,
        "city": "Berlin",
        "state_province": "New Jersey",
        "postal_code": "08009-1902",
        "country": "United States",
        "longitude": "-74.92998973",
        "latitude": "39.79199228",
        "phone": "8563362038",
        "website_url": "http://www.berlinbrewco.com",
        "state": "New Jersey",
        "street": "220 S White Horse Pike"
    },
    {
        "id": "6540698e-cf27-41e2-8175-c810b172160e",
        "name": "Berryessa Brewing Co",
        "brewery_type": "micro",
        "address_1": "27260 State Highway 128",
        "address_2": null,
        "address_3": null,
        "city": "Winters",
        "state_province": "California",
        "postal_code": "95694-9066",
        "country": "United States",
        "longitude": "-122.0032197",
        "latitude": "38.51383288",
        "phone": "5303042202",
        "website_url": "http://www.berryessabrewingco.com",
        "state": "California",
        "street": "27260 State Highway 128"
    },
    {
        "id": "9e7c32bd-ac46-4e84-bfec-20a3be839c8e",
        "name": "Berthoud Brewing Company",
        "brewery_type": "micro",
        "address_1": "450 S 8th St Unit B",
        "address_2": null,
        "address_3": null,
        "city": "Berthoud",
        "state_province": "Colorado",
        "postal_code": "80513",
        "country": "United States",
        "longitude": null,
        "latitude": null,
        "phone": "9705329850",
        "website_url": "http://www.berthoudbrewing.com",
        "state": "Colorado",
        "street": "450 S 8th St Unit B"
    },
    {
        "id": "c495b454-6bbb-4f13-adb9-05d88e03136a",
        "name": "Bertrams Salmon Valley Brewery",
        "brewery_type": "brewpub",
        "address_1": "535 Main St",
        "address_2": null,
        "address_3": null,
        "city": "Salmon",
        "state_province": "Idaho",
        "postal_code": "83467-4246",
        "country": "United States",
        "longitude": "-113.8932079",
        "latitude": "45.1751978",
        "phone": "2087563391",
        "website_url": "http://salmonvalleybrewery.com",
        "state": "Idaho",
        "street": "535 Main St"
    },
    {
        "id": "6c10e5ba-1ebd-47b8-a4ce-c41603a6c662",
        "name": "Berts Brewing Co.",
        "brewery_type": "planning",
        "address_1": null,
        "address_2": null,
        "address_3": null,
        "city": "Orange",
        "state_province": "California",
        "postal_code": "92867-6942",
        "country": "United States",
        "longitude": "-117.8704931",
        "latitude": "33.7500378",
        "phone": "2069139711",
        "website_url": null,
        "state": "California",
        "street": null
    },
    {
        "id": "8b33dd81-0c75-4be9-90c0-72d5ed79f436",
        "name": "Berwick Brewing Co",
        "brewery_type": "brewpub",
        "address_1": "328 W Front St",
        "address_2": null,
        "address_3": null,
        "city": "Berwick",
        "state_province": "Pennsylvania",
        "postal_code": "18603-4757",
        "country": "United States",
        "longitude": "-76.2381632",
        "latitude": "41.05243327",
        "phone": "5707524313",
        "website_url": "http://www.berwickbrewing.com",
        "state": "Pennsylvania",
        "street": "328 W Front St"
    },
    {
        "id": "b635b07f-9dba-4619-ac00-f17ca8313c43",
        "name": "Bespoke Brewing Company",
        "brewery_type": "brewpub",
        "address_1": "242 Gap Rd",
        "address_2": null,
        "address_3": null,
        "city": "Ronks",
        "state_province": "Pennsylvania",
        "postal_code": "17572",
        "country": "United States",
        "longitude": null,
        "latitude": null,
        "phone": "7172882255",
        "website_url": "https://www.bespokebrewingco.com",
        "state": "Pennsylvania",
        "street": "242 Gap Rd"
    },
    {
        "id": "6f148564-9296-4d6c-ac6b-44bad3765fd2",
        "name": "Best of Hands Barrelhouse",
        "brewery_type": "micro",
        "address_1": "7500 35th Ave SW",
        "address_2": null,
        "address_3": null,
        "city": "Seattle",
        "state_province": "Washington",
        "postal_code": "98126",
        "country": "United States",
        "longitude": "-122.3763875",
        "latitude": "47.53628883",
        "phone": "2067081166",
        "website_url": "https://www.bestofhandsbarrelhouse.com",
        "state": "Washington",
        "street": "7500 35th Ave SW"
    },
    {
        "id": "45e5c569-1abb-496c-a961-9d2f2686b2d3",
        "name": "Bestens Brewery Ltd",
        "brewery_type": "taproom",
        "address_1": "Church Lane",
        "address_2": null,
        "address_3": null,
        "city": "Horsham",
        "state_province": "West Sussex",
        "postal_code": "RH13 6LU",
        "country": "England",
        "longitude": "-0.26049",
        "latitude": "51.041848",
        "phone": "1403892556",
        "website_url": "https://www.bestensbrewery.co.uk/",
        "state": "West Sussex",
        "street": "Church Lane"
    },
    {
        "id": "8dcd6f88-53ee-4962-8558-bdaadade0da8",
        "name": "Better Half Brewing",
        "brewery_type": "closed",
        "address_1": "59 North Main St",
        "address_2": null,
        "address_3": null,
        "city": "Bristol",
        "state_province": "Connecticut",
        "postal_code": "06010",
        "country": "United States",
        "longitude": null,
        "latitude": null,
        "phone": "8602617062",
        "website_url": "https://www.betterhalfbrewing.com/",
        "state": "Connecticut",
        "street": "59 North Main St"
    },
    {
        "id": "c86f788e-63b2-44e6-a469-4b2e3a04ba22",
        "name": "Bevel Craft Brewing",
        "brewery_type": "planning",
        "address_1": null,
        "address_2": null,
        "address_3": null,
        "city": "Bend",
        "state_province": "Oregon",
        "postal_code": "97701-4924",
        "country": "United States",
        "longitude": "-121.2917516",
        "latitude": "44.04614868",
        "phone": "8313451922",
        "website_url": "http://www.bevelbeer.com",
        "state": "Oregon",
        "street": null
    },
    {
        "id": "957afb07-a6ff-4ba3-9288-820bf0e7b107",
        "name": "Bewilder Brewing Co",
        "brewery_type": "brewpub",
        "address_1": "445 S 400 W",
        "address_2": null,
        "address_3": null,
        "city": "Salt Lake City",
        "state_province": "Utah",
        "postal_code": "84101-2202",
        "country": "United States",
        "longitude": "-111.9017072",
        "latitude": "40.7594039",
        "phone": "3855283840",
        "website_url": "https://bewilderbrewing.com",
        "state": "Utah",
        "street": "445 S 400 W"
    },
    {
        "id": "01e79aac-e955-4846-826e-1936e03bfd13",
        "name": "Beyond The Mountain Brewing Company",
        "brewery_type": "micro",
        "address_1": "6035 Longbow Dr Unit 109",
        "address_2": null,
        "address_3": null,
        "city": "Boulder",
        "state_province": "Colorado",
        "postal_code": "80301-3203",
        "country": "United States",
        "longitude": null,
        "latitude": null,
        "phone": "7574072346",
        "website_url": "http://www.btmbrewing.com",
        "state": "Colorado",
        "street": "6035 Longbow Dr Unit 109"
    },
    {
        "id": "e5fc6a44-a2f0-4c19-82a7-cb160e3a7a86",
        "name": "Bhramari Brewhouse",
        "brewery_type": "micro",
        "address_1": "101 S Lexington Ave",
        "address_2": null,
        "address_3": null,
        "city": "Asheville",
        "state_province": "North Carolina",
        "postal_code": "28801-3309",
        "country": "United States",
        "longitude": "-82.55191879",
        "latitude": "35.59166763",
        "phone": "8282147981",
        "website_url": "http://www.bhramaribrewing.com",
        "state": "North Carolina",
        "street": "101 S Lexington Ave"
    },
    {
        "id": "e29bb9cb-e459-4aab-b24d-390bc235f4b7",
        "name": "Bias Brewing",
        "brewery_type": "micro",
        "address_1": "409 1st Ave E Ste B",
        "address_2": null,
        "address_3": null,
        "city": "Kalispell",
        "state_province": "Montana",
        "postal_code": "59901",
        "country": "United States",
        "longitude": null,
        "latitude": null,
        "phone": "4067303020",
        "website_url": "http://www.biasbrewing.com",
        "state": "Montana",
        "street": "409 1st Ave E Ste B"
    },
    {
        "id": "0f7cb775-114f-4c6f-ad6b-4a3552568d91",
        "name": "Bickerson's Brewhouse",
        "brewery_type": "micro",
        "address_1": "4710 NE 4th St #C105",
        "address_2": null,
        "address_3": null,
        "city": "Renton",
        "state_province": "Washington",
        "postal_code": "98059",
        "country": "United States",
        "longitude": "-122.1555405",
        "latitude": "47.48904979",
        "phone": "4254422347",
        "website_url": "https://www.bickersonsbrewhouse.com",
        "state": "Washington",
        "street": "4710 NE 4th St #C105"
    },
    {
        "id": "11737bcc-a377-45ea-a0fd-8e2295429015",
        "name": "Bier Brewery and Taproom",
        "brewery_type": "micro",
        "address_1": "5133 E 65th St",
        "address_2": null,
        "address_3": null,
        "city": "Indianapolis",
        "state_province": "Indiana",
        "postal_code": "46220-4816",
        "country": "United States",
        "longitude": null,
        "latitude": null,
        "phone": "3176960200",
        "website_url": "http://www.bierbrewery.com",
        "state": "Indiana",
        "street": "5133 E 65th St"
    },
    {
        "id": "6b5ae555-89e4-4363-baac-a21e3e93a5d1",
        "name": "Bier Distillery",
        "brewery_type": "micro",
        "address_1": "5295 West River Dr NE Ste 100",
        "address_2": null,
        "address_3": null,
        "city": "Comstock Park",
        "state_province": "Michigan",
        "postal_code": "49321-8030",
        "country": "United States",
        "longitude": null,
        "latitude": null,
        "phone": "6168889746",
        "website_url": "http://bierdistillery.com",
        "state": "Michigan",
        "street": "5295 West River Dr NE Ste 100"
    },
    {
        "id": "c6f9f271-cdbd-4342-b2dd-8399a3cd6670",
        "name": "Bier One Brewing",
        "brewery_type": "brewpub",
        "address_1": "424 SW Coast Hwy",
        "address_2": null,
        "address_3": null,
        "city": "Newport",
        "state_province": "Oregon",
        "postal_code": "97365-4930",
        "country": "United States",
        "longitude": "-124.0572864",
        "latitude": "44.6330765",
        "phone": "5412654630",
        "website_url": "http://www.bier-one.com",
        "state": "Oregon",
        "street": "424 SW Coast Hwy"
    },
    {
        "id": "4af8972b-a42f-43c7-a871-c28ba96f378a",
        "name": "Biercamp",
        "brewery_type": "brewpub",
        "address_1": "1643 S State St",
        "address_2": null,
        "address_3": null,
        "city": "Ann Arbor",
        "state_province": "Michigan",
        "postal_code": "48104-4302",
        "country": "United States",
        "longitude": "-83.740111",
        "latitude": "42.2586786",
        "phone": "7349952437",
        "website_url": "http://www.bier-camp.com",
        "state": "Michigan",
        "street": "1643 S State St"
    },
    {
        "id": "701239cb-5319-4d2e-92c1-129ab0b3b440",
        "name": "Bi\u00e8re de la Plaine",
        "brewery_type": "micro",
        "address_1": "16 Rue Saint Pierre",
        "address_2": null,
        "address_3": null,
        "city": "Marseille",
        "state_province": "Bouche du Rh\u00f4ne",
        "postal_code": "13006",
        "country": "France",
        "longitude": "5.38767154",
        "latitude": "43.29366192",
        "phone": "491473254",
        "website_url": "https://brasseriedelaplaine.fr/",
        "state": "Bouche du Rh\u00f4ne",
        "street": "16 Rue Saint Pierre"
    },
    {
        "id": "71ed116d-2a0c-405f-9595-66b00f37030d",
        "name": "Biere De Mac Brew Works",
        "brewery_type": "micro",
        "address_1": "14277 N Mackinaw Hwy",
        "address_2": null,
        "address_3": null,
        "city": "Mackinaw City",
        "state_province": "Michigan",
        "postal_code": "49701-8622",
        "country": "United States",
        "longitude": null,
        "latitude": null,
        "phone": "2314277007",
        "website_url": "http://www.bieredemac.com",
        "state": "Michigan",
        "street": "14277 N Mackinaw Hwy"
    },
    {
        "id": "a7ea14a8-dc7d-4cd5-8314-7632451807fe",
        "name": "Bierly Brewing @ Eats and Treats",
        "brewery_type": "brewpub",
        "address_1": "1644 Main St",
        "address_2": null,
        "address_3": null,
        "city": "Philomath",
        "state_province": "Oregon",
        "postal_code": "97370-9237",
        "country": "United States",
        "longitude": "-123.3625416",
        "latitude": "44.539936",
        "phone": "5412575126",
        "website_url": null,
        "state": "Oregon",
        "street": "1644 Main St"
    },
    {
        "id": "c3d41248-80ed-4c14-8078-c100308e5450",
        "name": "Bierstadt Lagerhaus",
        "brewery_type": "brewpub",
        "address_1": "2875 Blake St",
        "address_2": null,
        "address_3": null,
        "city": "Denver",
        "state_province": "Colorado",
        "postal_code": "80205-2210",
        "country": "United States",
        "longitude": "-104.9838084",
        "latitude": "39.7630094",
        "phone": "7205707824",
        "website_url": "http://www.bierstadtlager.com",
        "state": "Colorado",
        "street": "2875 Blake St"
    },
    {
        "id": "58bbeef3-65a9-4cdf-b2f3-0acb2c53f1f8",
        "name": "BierWerks",
        "brewery_type": "brewpub",
        "address_1": "121 E. Midland Ave",
        "address_2": null,
        "address_3": null,
        "city": "Woodland Park",
        "state_province": "Colorado",
        "postal_code": "80863",
        "country": "United States",
        "longitude": "-105.0519462",
        "latitude": "38.9941414",
        "phone": "7196868100",
        "website_url": "http://www.bierwerks.com",
        "state": "Colorado",
        "street": "121 E. Midland Ave"
    },
    {
        "id": "6baafd1a-3faf-41f6-bce8-7f9c223b2d1c",
        "name": "Big Alice Brewing Company",
        "brewery_type": "micro",
        "address_1": "808 43rd Rd",
        "address_2": null,
        "address_3": null,
        "city": "Long Island City",
        "state_province": "New York",
        "postal_code": "11101-6820",
        "country": "United States",
        "longitude": null,
        "latitude": null,
        "phone": "3476882337",
        "website_url": "http://www.bigalicebrewing.com",
        "state": "New York",
        "street": "808 43rd Rd"
    },
    {
        "id": "97bb99d6-94da-4f54-8fe7-9d7d7f102556",
        "name": "Big Ash Brewing Company",
        "brewery_type": "planning",
        "address_1": null,
        "address_2": null,
        "address_3": null,
        "city": "Cincinnati",
        "state_province": "Ohio",
        "postal_code": "45244-3244",
        "country": "United States",
        "longitude": null,
        "latitude": null,
        "phone": "5133079688",
        "website_url": "http://www.BigAshBrewing.com",
        "state": "Ohio",
        "street": null
    },
    {
        "id": "03fe4348-0e01-446b-81af-dda8167284e8",
        "name": "Big Axe Brewing Company",
        "brewery_type": "brewpub",
        "address_1": "25435 Main St",
        "address_2": null,
        "address_3": null,
        "city": "Nisswa",
        "state_province": "Minnesota",
        "postal_code": "56468-5001",
        "country": "United States",
        "longitude": "-94.2891095",
        "latitude": "46.5199477",
        "phone": "2189612337",
        "website_url": "http://www.bigaxebrewing.com",
        "state": "Minnesota",
        "street": "25435 Main St"
    },
    {
        "id": "b9237ad4-42fd-43e1-a953-19fc451f9601",
        "name": "Big Barn Brewing Co / Bodacious Berries Fruits and Brews",
        "brewery_type": "micro",
        "address_1": "16004 N Applewood Ln",
        "address_2": null,
        "address_3": null,
        "city": "Mead",
        "state_province": "Washington",
        "postal_code": "99021-7818",
        "country": "United States",
        "longitude": "-117.266079",
        "latitude": "47.80652793",
        "phone": "5097102961",
        "website_url": "http://www.bigbarnbrewing.com",
        "state": "Washington",
        "street": "16004 N Applewood Ln"
    },
    {
        "id": "1dc47da7-faa4-498f-8e97-e83e74d1c79d",
        "name": "Big Beach Brewing Company",
        "brewery_type": "micro",
        "address_1": "300 E 24th Ave",
        "address_2": null,
        "address_3": null,
        "city": "Gulf Shores",
        "state_province": "Alabama",
        "postal_code": "36542-3104",
        "country": "United States",
        "longitude": "-87.683039",
        "latitude": "30.278051",
        "phone": "2519482337",
        "website_url": "http://www.bigbeachbrewing.com",
        "state": "Alabama",
        "street": "300 E 24th Ave"
    },
    {
        "id": "1a67833a-71e7-482e-9f85-9726583aceb7",
        "name": "Big Bear Brewing Co",
        "brewery_type": "brewpub",
        "address_1": "1800 N University Dr",
        "address_2": null,
        "address_3": null,
        "city": "Coral Springs",
        "state_province": "Florida",
        "postal_code": "33071-6031",
        "country": "United States",
        "longitude": "-80.2505088",
        "latitude": "26.2992083",
        "phone": "9543415545",
        "website_url": "http://www.bigbearbrewingco.com",
        "state": "Florida",
        "street": "1800 N University Dr"
    },
    {
        "id": "6ce0f40e-a10e-4dde-82a6-c51662b2fe09",
        "name": "Big Bear Lake Brewing Co",
        "brewery_type": "brewpub",
        "address_1": "40827 Stone Rd",
        "address_2": null,
        "address_3": null,
        "city": "Big Bear Lake",
        "state_province": "California",
        "postal_code": "92315",
        "country": "United States",
        "longitude": "-116.9110287",
        "latitude": "34.2425583",
        "phone": "9098780283",
        "website_url": "http://www.bblbc.com",
        "state": "California",
        "street": "40827 Stone Rd"
    },
    {
        "id": "08d14e79-430e-448f-a264-7bc200af83d5",
        "name": "Big Bear Mountain Brewery",
        "brewery_type": "brewpub",
        "address_1": "40260 Big Bear Blvd",
        "address_2": null,
        "address_3": null,
        "city": "Big Bear Lake",
        "state_province": "California",
        "postal_code": "92315",
        "country": "United States",
        "longitude": "-116.923042",
        "latitude": "34.23876062",
        "phone": "9098662337",
        "website_url": "http://www.mountainbrewery.com",
        "state": "California",
        "street": "40260 Big Bear Blvd"
    },
    {
        "id": "1b8be5f6-7f57-4a6e-830a-3d565e2e03d7",
        "name": "Big Beaver Brewing Co",
        "brewery_type": "micro",
        "address_1": "2707 W Eisenhower Blvd Ste 9",
        "address_2": null,
        "address_3": null,
        "city": "Loveland",
        "state_province": "Colorado",
        "postal_code": "80537-3141",
        "country": "United States",
        "longitude": null,
        "latitude": null,
        "phone": "9708186064",
        "website_url": "http://www.bigbeaverbrew.com",
        "state": "Colorado",
        "street": "2707 W Eisenhower Blvd Ste 9"
    },
    {
        "id": "5fe8f212-8c52-4183-85ff-687307298047",
        "name": "Big Bend Brewing Co",
        "brewery_type": "micro",
        "address_1": "3401 W Highway 90",
        "address_2": null,
        "address_3": null,
        "city": "Alpine",
        "state_province": "Texas",
        "postal_code": "79830-4127",
        "country": "United States",
        "longitude": null,
        "latitude": null,
        "phone": "4328373700",
        "website_url": "http://www.bigbendbrewing.com",
        "state": "Texas",
        "street": "3401 W Highway 90"
    },
    {
        "id": "d05957b0-56af-4e14-8e32-326fa3769253",
        "name": "Big Block Brewing",
        "brewery_type": "micro",
        "address_1": "3310 E Lake Sammamish Pkwy SE",
        "address_2": null,
        "address_3": null,
        "city": "Sammamish",
        "state_province": "Washington",
        "postal_code": "98075",
        "country": "United States",
        "longitude": "-122.07474",
        "latitude": "47.57926212",
        "phone": "4254570515",
        "website_url": "https://www.bigblockbrewery.com/sammamish-taproom",
        "state": "Washington",
        "street": "3310 E Lake Sammamish Pkwy SE"
    },
    {
        "id": "e4631ae5-8fbe-4576-8d03-cd284bec84cd",
        "name": "Big Block Brewing - Redmond Taproom",
        "brewery_type": "micro",
        "address_1": "14950 NE 95th St",
        "address_2": null,
        "address_3": null,
        "city": "Redmond",
        "state_province": "Washington",
        "postal_code": "98052",
        "country": "United States",
        "longitude": "-122.1410868",
        "latitude": "47.68654123",
        "phone": "4256583644",
        "website_url": "https://www.bigblockbrewery.com/redmond-taproom",
        "state": "Washington",
        "street": "14950 NE 95th St"
    },
    {
        "id": "b9f816db-8d71-4be2-9370-5100c2b1257a",
        "name": "Big Blue Brewing",
        "brewery_type": "brewpub",
        "address_1": "4721 SE 10th Pl",
        "address_2": null,
        "address_3": null,
        "city": "Cape Coral",
        "state_province": "Florida",
        "postal_code": "33904-9168",
        "country": "United States",
        "longitude": "-81.95242639",
        "latitude": "26.56445895",
        "phone": "9737693294",
        "website_url": "http://www.bigbluebrewing.com",
        "state": "Florida",
        "street": "4721 SE 10th Pl"
    },
    {
        "id": "5071d551-c086-4480-a57f-d2dbfcd7fbcc",
        "name": "Big Boiler Brewing",
        "brewery_type": "brewpub",
        "address_1": "318 E Main St",
        "address_2": null,
        "address_3": null,
        "city": "Lowell",
        "state_province": "Michigan",
        "postal_code": "49331-1714",
        "country": "United States",
        "longitude": "-85.33655351",
        "latitude": "42.93462931",
        "phone": "6169873155",
        "website_url": "http://bigboilerbrewing.com",
        "state": "Michigan",
        "street": "318 E Main St"
    },
    {
        "id": "b1813df6-ffad-4604-b909-874bfb56e41b",
        "name": "Big Boss Brewing Co",
        "brewery_type": "micro",
        "address_1": "1249 Wicker Dr Ste A",
        "address_2": null,
        "address_3": null,
        "city": "Raleigh",
        "state_province": "North Carolina",
        "postal_code": "27604-1683",
        "country": "United States",
        "longitude": null,
        "latitude": null,
        "phone": "9198340045",
        "website_url": "http://www.bigbossbrewing.com",
        "state": "North Carolina",
        "street": "1249 Wicker Dr Ste A"
    },
    {
        "id": "b203b9a5-a84a-461f-a64a-938adf44a7d4",
        "name": "Big Cat Brewing Company",
        "brewery_type": "brewpub",
        "address_1": "8699 S Good Harbor Trl",
        "address_2": null,
        "address_3": null,
        "city": "Cedar",
        "state_province": "Michigan",
        "postal_code": "49621-8580",
        "country": "United States",
        "longitude": "-85.79311511",
        "latitude": "44.85319287",
        "phone": "2312282282",
        "website_url": "http://www.bigcatbrewingco.com",
        "state": "Michigan",
        "street": "8699 S Good Harbor Trl"
    },
    {
        "id": "b2ad6e2c-1bdc-45df-a0bc-c8e075949e75",
        "name": "Big Choice Brewing Co",
        "brewery_type": "micro",
        "address_1": "21 S 1st Ave",
        "address_2": null,
        "address_3": null,
        "city": "Brighton",
        "state_province": "Colorado",
        "postal_code": "80601-1603",
        "country": "United States",
        "longitude": "-104.822433",
        "latitude": "39.98642943",
        "phone": "3034692616",
        "website_url": "http://www.bigchoicebrewing.com",
        "state": "Colorado",
        "street": "21 S 1st Ave"
    },
    {
        "id": "8c42a9fc-a6c9-4c26-a0d3-0bf8c94be918",
        "name": "Big Data Brewing Company LLC",
        "brewery_type": "planning",
        "address_1": null,
        "address_2": null,
        "address_3": null,
        "city": "Sterling",
        "state_province": "Virginia",
        "postal_code": "20165-7227",
        "country": "United States",
        "longitude": null,
        "latitude": null,
        "phone": "5713088293",
        "website_url": "http://www.bigdatabrewco.com/",
        "state": "Virginia",
        "street": null
    },
    {
        "id": "5db014b6-be92-4c4d-b95e-f5156550ad05",
        "name": "Big Ditch Brewing Company",
        "brewery_type": "micro",
        "address_1": "55 E Huron St",
        "address_2": null,
        "address_3": null,
        "city": "Buffalo",
        "state_province": "New York",
        "postal_code": "14203-1632",
        "country": "United States",
        "longitude": "-78.8709352",
        "latitude": "42.888031",
        "phone": "7168545050",
        "website_url": "http://www.bigditchbrewing.com",
        "state": "New York",
        "street": "55 E Huron St"
    },
    {
        "id": "2c048f27-d9fc-4117-ae9a-c3c79ea2470e",
        "name": "Big Dog's Brewing Co",
        "brewery_type": "brewpub",
        "address_1": "4547 N Rancho Dr Ste A",
        "address_2": null,
        "address_3": null,
        "city": "Las Vegas",
        "state_province": "Nevada",
        "postal_code": "89130-3432",
        "country": "United States",
        "longitude": null,
        "latitude": null,
        "phone": "7023683715",
        "website_url": "http://www.bigdogsbrews.com",
        "state": "Nevada",
        "street": "4547 N Rancho Dr Ste A"
    },
    {
        "id": "36840152-444d-4615-b422-752e0e0bf044",
        "name": "Big Draft Brewing",
        "brewery_type": "micro",
        "address_1": "697 Main St E",
        "address_2": null,
        "address_3": null,
        "city": "White Sulphur Springs",
        "state_province": "West Virginia",
        "postal_code": "24986-3003",
        "country": "United States",
        "longitude": "-80.3001175",
        "latitude": "37.7945598",
        "phone": "3049152442",
        "website_url": "https://bigdraftbrewing.com/",
        "state": "West Virginia",
        "street": "697 Main St E"
    },
    {
        "id": "0aff7bc2-29eb-4127-b80c-d5fc3e05274a",
        "name": "Big Elm Brewing",
        "brewery_type": "micro",
        "address_1": "65 Silver St",
        "address_2": null,
        "address_3": null,
        "city": "Sheffield",
        "state_province": "Massachusetts",
        "postal_code": "01257",
        "country": "United States",
        "longitude": "-73.351236",
        "latitude": "42.093595",
        "phone": "4132292348",
        "website_url": "http://www.bigelmbrewery.com",
        "state": "Massachusetts",
        "street": "65 Silver St"
    },
    {
        "id": "4e558cde-490f-4c49-b0c0-28d3abb9458b",
        "name": "Big Frog Brewing Company",
        "brewery_type": "micro",
        "address_1": "2122 Dayton Blvd",
        "address_2": null,
        "address_3": null,
        "city": "Red Bank",
        "state_province": "Tennessee",
        "postal_code": "37415-6414",
        "country": "United States",
        "longitude": "-85.31017603",
        "latitude": "35.0916037",
        "phone": "4238039046",
        "website_url": "http://www.bigfrogbrewery.com",
        "state": "Tennessee",
        "street": "2122 Dayton Blvd"
    },
    {
        "id": "b1040378-9992-4329-90d8-989fabdf5097",
        "name": "Big Grove Brewery",
        "brewery_type": "micro",
        "address_1": "1225 S Gilbert St",
        "address_2": null,
        "address_3": null,
        "city": "Iowa City",
        "state_province": "Iowa",
        "postal_code": "52240-4507",
        "country": "United States",
        "longitude": "-91.53189828",
        "latitude": "41.64713299",
        "phone": "3195941891",
        "website_url": "http://www.biggrovebrewery.com",
        "state": "Iowa",
        "street": "1225 S Gilbert St"
    },
    {
        "id": "7541c361-f556-481e-905f-172dab289cce",
        "name": "Big Grove Brewery & Tap Room",
        "brewery_type": "brewpub",
        "address_1": "1225 S Gilbert St",
        "address_2": null,
        "address_3": null,
        "city": "Iowa City",
        "state_province": "Iowa",
        "postal_code": "52240-4507",
        "country": "United States",
        "longitude": "-91.53189828",
        "latitude": "41.64713299",
        "phone": "3196242337",
        "website_url": null,
        "state": "Iowa",
        "street": "1225 S Gilbert St"
    },
    {
        "id": "f59742d0-8848-414d-a1e1-59b428315374",
        "name": "Big Hart Brewing Company",
        "brewery_type": "brewpub",
        "address_1": "4086 W Polk Rd",
        "address_2": null,
        "address_3": null,
        "city": "Hart",
        "state_province": "Michigan",
        "postal_code": "49420-8172",
        "country": "United States",
        "longitude": null,
        "latitude": null,
        "phone": "2313018226",
        "website_url": "http://www.bighartbrewing.com",
        "state": "Michigan",
        "street": "4086 W Polk Rd"
    },
    {
        "id": "eefcf946-59e2-4ad0-ac41-955cffa9f701",
        "name": "Big Head Brewing Co.",
        "brewery_type": "micro",
        "address_1": "6204 W State St",
        "address_2": null,
        "address_3": null,
        "city": "Milwaukee",
        "state_province": "Wisconsin",
        "postal_code": "53213-2906",
        "country": "United States",
        "longitude": "-87.9201437",
        "latitude": "43.0429687",
        "phone": "6082359636",
        "website_url": "http://www.bigheadbrewingco.com",
        "state": "Wisconsin",
        "street": "6204 W State St"
    },
    {
        "id": "f5a551d7-6af0-418e-bec2-0f16044bb3f2",
        "name": "Big Horse Brewpub",
        "brewery_type": "brewpub",
        "address_1": "115 State St",
        "address_2": null,
        "address_3": null,
        "city": "Hood River",
        "state_province": "Oregon",
        "postal_code": "97031-2315",
        "country": "United States",
        "longitude": "-121.5120956",
        "latitude": "45.7079528",
        "phone": "5413864411",
        "website_url": "http://www.bighorsebrewpub.com",
        "state": "Oregon",
        "street": "115 State St"
    },
    {
        "id": "dcc9cdb6-415f-4783-aa42-c5cfb7664dc6",
        "name": "Big Inlet Brewing",
        "brewery_type": "planning",
        "address_1": null,
        "address_2": null,
        "address_3": null,
        "city": "Mayville",
        "state_province": "New York",
        "postal_code": "14757-9730",
        "country": "United States",
        "longitude": null,
        "latitude": null,
        "phone": "7165737564",
        "website_url": "http://www.biginletbrewing.com",
        "state": "New York",
        "street": null
    },
    {
        "id": "d2699492-6d8c-492d-a52d-e71342e717ca",
        "name": "Big Island Brewhaus",
        "brewery_type": "brewpub",
        "address_1": "64-1066 Mamalahoa Hwy Unit 5",
        "address_2": null,
        "address_3": null,
        "city": "Kamuela",
        "state_province": "Hawaii",
        "postal_code": "96743-7309",
        "country": "United States",
        "longitude": "-155.661471",
        "latitude": "20.025552",
        "phone": "8088871717",
        "website_url": "http://www.bigislandbrewhaus.com",
        "state": "Hawaii",
        "street": "64-1066 Mamalahoa Hwy Unit 5"
    },
    {
        "id": "4383b079-c8fe-49c0-9999-9ff23a8f4f8e",
        "name": "Big Lake Brewing",
        "brewery_type": "micro",
        "address_1": "13 W 7th St",
        "address_2": null,
        "address_3": null,
        "city": "Holland",
        "state_province": "Michigan",
        "postal_code": "49423-2821",
        "country": "United States",
        "longitude": "-86.10791587",
        "latitude": "42.79149405",
        "phone": "6167968888",
        "website_url": "http://www.biglakebrewing.com",
        "state": "Michigan",
        "street": "13 W 7th St"
    },
    {
        "id": "0a229c47-5c8f-46e8-bf5c-e9866e006341",
        "name": "Big Lake Brewing Production Facility",
        "brewery_type": "micro",
        "address_1": "166 E 19th St",
        "address_2": null,
        "address_3": null,
        "city": "Holland",
        "state_province": "Michigan",
        "postal_code": "49423-4230",
        "country": "United States",
        "longitude": "-86.09988824",
        "latitude": "42.78029471",
        "phone": null,
        "website_url": null,
        "state": "Michigan",
        "street": "166 E 19th St"
    },
    {
        "id": "4445772e-e9d6-41c3-80cd-d5f4b70e7825",
        "name": "Big Leaf Brewing",
        "brewery_type": "micro",
        "address_1": "1320 Durkees Ferry Rd",
        "address_2": null,
        "address_3": null,
        "city": "West Terre Haute",
        "state_province": "Indiana",
        "postal_code": "47885-9626",
        "country": "United States",
        "longitude": null,
        "latitude": null,
        "phone": "8122812187",
        "website_url": null,
        "state": "Indiana",
        "street": "1320 Durkees Ferry Rd"
    },
    {
        "id": "eccf5719-1dea-4661-b675-e862c8f3d475",
        "name": "Big Lick Brewing Company",
        "brewery_type": "micro",
        "address_1": "409 Salem Ave SW",
        "address_2": null,
        "address_3": null,
        "city": "Roanoke",
        "state_province": "Virginia",
        "postal_code": "24016",
        "country": "United States",
        "longitude": "-79.94873144",
        "latitude": "37.2724144",
        "phone": "5405628383",
        "website_url": "http://www.biglickbrewingco.com",
        "state": "Virginia",
        "street": "409 Salem Ave SW"
    },
    {
        "id": "36215801-9e64-49fa-9ad8-b80649d7de07",
        "name": "Big Lost Meadery and Brewery",
        "brewery_type": "micro",
        "address_1": "106 S Gillette Ave",
        "address_2": null,
        "address_3": null,
        "city": "Gillette",
        "state_province": "Wyoming",
        "postal_code": "82716",
        "country": "United States",
        "longitude": "-105.5046114",
        "latitude": "44.2866583",
        "phone": "3076603199",
        "website_url": "http://www.biglostmeadery.com",
        "state": "Wyoming",
        "street": "106 S Gillette Ave"
    },
    {
        "id": "f00adb8d-12dc-45ef-852e-57d10d79f7ff",
        "name": "Big Lug Canteen",
        "brewery_type": "brewpub",
        "address_1": "1435 E 86th St",
        "address_2": null,
        "address_3": null,
        "city": "Indianapolis",
        "state_province": "Indiana",
        "postal_code": "46240-1911",
        "country": "United States",
        "longitude": "-86.079957",
        "latitude": "39.912628",
        "phone": null,
        "website_url": null,
        "state": "Indiana",
        "street": "1435 E 86th St"
    },
    {
        "id": "13508268-325c-40ae-b1da-c7a4a295c6cb",
        "name": "Big Muddy Brewing Co",
        "brewery_type": "micro",
        "address_1": "1430 N 7th St",
        "address_2": null,
        "address_3": null,
        "city": "Murphysboro",
        "state_province": "Illinois",
        "postal_code": "62966-3938",
        "country": "United States",
        "longitude": "-89.33204055",
        "latitude": "37.78182292",
        "phone": "6186848833",
        "website_url": "http://www.bigmuddybrewing.com",
        "state": "Illinois",
        "street": "1430 N 7th St"
    },
    {
        "id": "62b7e476-a41e-4d17-a57a-e3658fc9224c",
        "name": "Big Rack Brew Haus",
        "brewery_type": "micro",
        "address_1": "2475 Hiatt Apple Trl",
        "address_2": null,
        "address_3": null,
        "city": "Winterset",
        "state_province": "Iowa",
        "postal_code": "50273-8113",
        "country": "United States",
        "longitude": "-93.923386",
        "latitude": "41.286503",
        "phone": null,
        "website_url": "http://www.bigrackbrewhaus.com",
        "state": "Iowa",
        "street": "2475 Hiatt Apple Trl"
    },
    {
        "id": "068bdaad-c6e9-47b2-a3f8-fbdf24c059b6",
        "name": "Big Rip Brewing Company",
        "brewery_type": "micro",
        "address_1": "216 E 9th Ave",
        "address_2": null,
        "address_3": null,
        "city": "North Kansas City",
        "state_province": "Missouri",
        "postal_code": "64116-4315",
        "country": "United States",
        "longitude": "-94.57786",
        "latitude": "39.1261133",
        "phone": "8168660747",
        "website_url": "http://www.bigripbrewing.com",
        "state": "Missouri",
        "street": "216 E 9th Ave"
    },
    {
        "id": "8db35211-a4ca-44d7-a6dd-a31c3e2ead66",
        "name": "Big River Brewery, LLC",
        "brewery_type": "micro",
        "address_1": "505 W Nolana Loop",
        "address_2": null,
        "address_3": null,
        "city": "Pharr",
        "state_province": "Texas",
        "postal_code": "78577-8345",
        "country": "United States",
        "longitude": null,
        "latitude": null,
        "phone": "9565661455",
        "website_url": null,
        "state": "Texas",
        "street": "505 W Nolana Loop"
    },
    {
        "id": "002012b4-afef-4e35-95bf-56930dbc599e",
        "name": "Big River Grille & Brewing Works - Chattanooga",
        "brewery_type": "brewpub",
        "address_1": "222 Broad St",
        "address_2": null,
        "address_3": null,
        "city": "Chattanooga",
        "state_province": "Tennessee",
        "postal_code": "37402-1009",
        "country": "United States",
        "longitude": "-85.31070875",
        "latitude": "35.05387554",
        "phone": "4232672739",
        "website_url": "http://www.craftworksrestaurants.com",
        "state": "Tennessee",
        "street": "222 Broad St"
    },
    {
        "id": "077585a3-1bbb-46fa-90ac-6494765afc75",
        "name": "Big River Grille & Brewing Works - Disney",
        "brewery_type": "brewpub",
        "address_1": "2101 Epcot Resorts Blvd",
        "address_2": null,
        "address_3": null,
        "city": "Lake Buena Vista",
        "state_province": "Florida",
        "postal_code": "32830-8442",
        "country": "United States",
        "longitude": null,
        "latitude": null,
        "phone": "4075600253",
        "website_url": "http://www.craftworksrestaurants.com",
        "state": "Florida",
        "street": "2101 Epcot Resorts Blvd"
    },
    {
        "id": "f0570db4-92b3-4b86-8b98-9628d917ffcc",
        "name": "Big Rock Chop House & Brewery",
        "brewery_type": "contract",
        "address_1": "245 S Eton St",
        "address_2": null,
        "address_3": null,
        "city": "Birmingham",
        "state_province": "Michigan",
        "postal_code": "48009-6577",
        "country": "United States",
        "longitude": "-83.19603911",
        "latitude": "42.54693868",
        "phone": "2486477774",
        "website_url": "http://www.bigrockchophouse.com",
        "state": "Michigan",
        "street": "245 S Eton St"
    },
    {
        "id": "6f458334-b27f-4637-bbef-08902a118637",
        "name": "Big Sexy Brewing Company",
        "brewery_type": "micro",
        "address_1": "5861 88th St Ste 800",
        "address_2": null,
        "address_3": null,
        "city": "Sacramento",
        "state_province": "California",
        "postal_code": "95828-1131",
        "country": "United States",
        "longitude": "-121.3757237",
        "latitude": "38.52149864",
        "phone": "9163747332",
        "website_url": "http://www.bigsexybrewing.com",
        "state": "California",
        "street": "5861 88th St Ste 800"
    },
    {
        "id": "96e9ab03-28cd-4240-9ad6-5e49f716d1a0",
        "name": "Big Sioux Brewing Company",
        "brewery_type": "planning",
        "address_1": null,
        "address_2": null,
        "address_3": null,
        "city": "Humboldt",
        "state_province": "South Dakota",
        "postal_code": "57035-6106",
        "country": "United States",
        "longitude": null,
        "latitude": null,
        "phone": null,
        "website_url": null,
        "state": "South Dakota",
        "street": null
    },
    {
        "id": "9f87a804-b9ce-4264-9cc1-c8f6edfdb83f",
        "name": "Big Sky Brewing Co",
        "brewery_type": "regional",
        "address_1": "5417 Trumpeter Way",
        "address_2": null,
        "address_3": null,
        "city": "Missoula",
        "state_province": "Montana",
        "postal_code": "59808-8680",
        "country": "United States",
        "longitude": "-114.0730248",
        "latitude": "46.9224156",
        "phone": "4065492777",
        "website_url": "http://www.bigskybrew.com",
        "state": "Montana",
        "street": "5417 Trumpeter Way"
    },
    {
        "id": "d5e9205f-ff1f-4cd2-9eec-2844197449f1",
        "name": "Big Slide Brewery",
        "brewery_type": "brewpub",
        "address_1": "5686 Cascade Road",
        "address_2": null,
        "address_3": null,
        "city": "Lake Placid",
        "state_province": "New York",
        "postal_code": "12946",
        "country": "United States",
        "longitude": "-73.96977615",
        "latitude": "44.26461237",
        "phone": "5185237844",
        "website_url": "http://www.bigslidebrewery.com",
        "state": "New York",
        "street": "5686 Cascade Road"
    },
    {
        "id": "20a11408-a1f1-408c-89c0-aef4faef79c4",
        "name": "Big Storm Brewing",
        "brewery_type": "micro",
        "address_1": "839 Miramar St",
        "address_2": null,
        "address_3": null,
        "city": "Cape Coral",
        "state_province": "Florida",
        "postal_code": "33904-9046",
        "country": "United States",
        "longitude": "-81.9557454",
        "latitude": "26.5609342",
        "phone": null,
        "website_url": null,
        "state": "Florida",
        "street": "839 Miramar St"
    },
    {
        "id": "881c39be-bb1c-4517-ad04-f6bd052fd74c",
        "name": "Big Storm Brewing",
        "brewery_type": "micro",
        "address_1": "2330 Success Dr",
        "address_2": null,
        "address_3": null,
        "city": "Odessa",
        "state_province": "Florida",
        "postal_code": "33556",
        "country": "United States",
        "longitude": "-82.62618762",
        "latitude": "28.19192178",
        "phone": "7273762890",
        "website_url": null,
        "state": "Florida",
        "street": "2330 Success Dr"
    },
    {
        "id": "491566c3-b7e2-42f6-a400-545ef0ceffdb",
        "name": "Big Storm Brewing Co.",
        "brewery_type": "micro",
        "address_1": "12707 49th St N",
        "address_2": null,
        "address_3": null,
        "city": "Clearwater",
        "state_province": "Florida",
        "postal_code": "33762-4604",
        "country": "United States",
        "longitude": null,
        "latitude": null,
        "phone": "7274970666",
        "website_url": "http://www.bigstormbrewery.com",
        "state": "Florida",
        "street": "12707 49th St N"
    },
    {
        "id": "9002d0c7-e0c1-4db2-ba73-fb31043ea41f",
        "name": "Big Stump Brewing Company",
        "brewery_type": "micro",
        "address_1": "1716 L St",
        "address_2": null,
        "address_3": null,
        "city": "Sacramento",
        "state_province": "California",
        "postal_code": "95811-4024",
        "country": "United States",
        "longitude": "-121.4263334",
        "latitude": "38.68887875",
        "phone": "9166687433",
        "website_url": "http://www.bigstumpbrewco.com/",
        "state": "California",
        "street": "1716 L St"
    },
    {
        "id": "dc1b146d-741e-426b-8216-a65911e0f76a",
        "name": "Big Texan Brewery",
        "brewery_type": "brewpub",
        "address_1": "7701 Interstate 40 Access Rd",
        "address_2": null,
        "address_3": null,
        "city": "Amarillo",
        "state_province": "Texas",
        "postal_code": "79118-6915",
        "country": "United States",
        "longitude": null,
        "latitude": null,
        "phone": "8063726000",
        "website_url": "http://www.bigtexan.com",
        "state": "Texas",
        "street": "7701 Interstate 40 Access Rd"
    },
    {
        "id": "797e1d68-c1e1-478c-bc92-9561c7d951b5",
        "name": "Big Thompson Brewery",
        "brewery_type": "micro",
        "address_1": "114 E 15th St",
        "address_2": null,
        "address_3": null,
        "city": "Loveland",
        "state_province": "Colorado",
        "postal_code": "80538-3832",
        "country": "United States",
        "longitude": "-105.0746687",
        "latitude": "40.40811243",
        "phone": null,
        "website_url": null,
        "state": "Colorado",
        "street": "114 E 15th St"
    },
    {
        "id": "dc4706e6-80e6-4c6e-adc1-504f0711adbc",
        "name": "Big Thorn Farm and Brewery",
        "brewery_type": "micro",
        "address_1": "14274 E 600 North Rd",
        "address_2": null,
        "address_3": null,
        "city": "Georgetown",
        "state_province": "Illinois",
        "postal_code": "61846-7594",
        "country": "United States",
        "longitude": null,
        "latitude": null,
        "phone": "2175970156",
        "website_url": "http://www.bigthornfarm.com",
        "state": "Illinois",
        "street": "14274 E 600 North Rd"
    },
    {
        "id": "77e31ad7-17aa-4c92-9200-ab12888aaacd",
        "name": "Big Timber Brewing",
        "brewery_type": "micro",
        "address_1": "1210 S Davis Ave",
        "address_2": null,
        "address_3": null,
        "city": "Elkins",
        "state_province": "West Virginia",
        "postal_code": "26241-3437",
        "country": "United States",
        "longitude": "-79.85143109",
        "latitude": "38.91765609",
        "phone": "3046375008",
        "website_url": "http://www.bigtimberbrewing.com",
        "state": "West Virginia",
        "street": "1210 S Davis Ave"
    },
    {
        "id": "a1964010-0e7c-4bd0-9da1-1aef938faf44",
        "name": "Big Time Brewery",
        "brewery_type": "brewpub",
        "address_1": "4133 University Way NE",
        "address_2": null,
        "address_3": null,
        "city": "Seattle",
        "state_province": "Washington",
        "postal_code": "98105-6213",
        "country": "United States",
        "longitude": "-122.3135759",
        "latitude": "47.65785225",
        "phone": "2065454509",
        "website_url": "http://www.bigtimebrewery.com",
        "state": "Washington",
        "street": "4133 University Way NE"
    },
    {
        "id": "83b19e83-5855-4e53-88e4-987ab398d8ae",
        "name": "Big Top Brewing Company",
        "brewery_type": "micro",
        "address_1": "6111 Porter Way Unit B",
        "address_2": null,
        "address_3": null,
        "city": "Sarasota",
        "state_province": "Florida",
        "postal_code": "34232-6224",
        "country": "United States",
        "longitude": null,
        "latitude": null,
        "phone": null,
        "website_url": "http://Bigtopbrewing.com",
        "state": "Florida",
        "street": "6111 Porter Way Unit B"
    },
    {
        "id": "00eddf9c-e274-4d9a-8957-457e3ea570ac",
        "name": "Big Tupper Brewing",
        "brewery_type": "brewpub",
        "address_1": "12 Cliff Ave",
        "address_2": null,
        "address_3": null,
        "city": "Tupper Lake",
        "state_province": "New York",
        "postal_code": "12986-1719",
        "country": "United States",
        "longitude": "-74.46576367",
        "latitude": "44.223293",
        "phone": "5183596350",
        "website_url": "http://www.bigtupperbrewing.com",
        "state": "New York",
        "street": "12 Cliff Ave"
    },
    {
        "id": "76b27550-7e67-4aae-9e70-384e5c84bc79",
        "name": "Big Ugly Brewing Co",
        "brewery_type": "micro",
        "address_1": "1296 Battlefield Blvd S",
        "address_2": null,
        "address_3": null,
        "city": "Chesapeake",
        "state_province": "Virginia",
        "postal_code": "23322-4378",
        "country": "United States",
        "longitude": "-76.22847989",
        "latitude": "36.67862015",
        "phone": "7576092739",
        "website_url": "http://www.biguglybrewing.com",
        "state": "Virginia",
        "street": "1296 Battlefield Blvd S"
    },
    {
        "id": "e9e4c64c-bd3f-4c43-aab3-9b685f70d9b0",
        "name": "Big Water Brewery",
        "brewery_type": "micro",
        "address_1": "24 Robie Rd",
        "address_2": null,
        "address_3": null,
        "city": "Salisbury",
        "state_province": "New Hampshire",
        "postal_code": "03268-5423",
        "country": "United States",
        "longitude": "-71.717004",
        "latitude": "43.409129",
        "phone": "6036486068",
        "website_url": "http://www.bigwaterbrewery.net",
        "state": "New Hampshire",
        "street": "24 Robie Rd"
    },
    {
        "id": "fcae18a9-9809-487e-a8e8-21125010ce4a",
        "name": "Big Wood Brewery",
        "brewery_type": "micro",
        "address_1": "2222 4th St Ste REAR",
        "address_2": null,
        "address_3": null,
        "city": "White Bear Lake",
        "state_province": "Minnesota",
        "postal_code": "55110-3045",
        "country": "United States",
        "longitude": null,
        "latitude": null,
        "phone": "6123602986",
        "website_url": "http://www.bigwoodbrewery.com",
        "state": "Minnesota",
        "street": "2222 4th St Ste REAR"
    },
    {
        "id": "5a56a77e-507d-4fb8-b62d-31c48240d512",
        "name": "Big Woods Brewery",
        "brewery_type": "brewpub",
        "address_1": "2222 4th Street",
        "address_2": null,
        "address_3": null,
        "city": "White Bear Lake",
        "state_province": "Minnesota",
        "postal_code": "55110",
        "country": "United States",
        "longitude": "-93.007108",
        "latitude": "45.08530367",
        "phone": "8139886000",
        "website_url": "http://www.bigwoodsbeer.com",
        "state": "Minnesota",
        "street": "2222 4th Street"
    },
    {
        "id": "810dda02-89b0-44a0-a287-228109259314",
        "name": "Big's BBQ Brewpub",
        "brewery_type": "brewpub",
        "address_1": "124 2nd Ave NW",
        "address_2": null,
        "address_3": null,
        "city": "Mount Vernon",
        "state_province": "Iowa",
        "postal_code": "52314",
        "country": "United States",
        "longitude": "-91.41772002",
        "latitude": "41.92299939",
        "phone": "3195351060",
        "website_url": "http://www.bigsbbqmv.com",
        "state": "Iowa",
        "street": "124 2nd Ave NW"
    },
    {
        "id": "f62eed3c-818b-49a8-9aca-20ebe1793f23",
        "name": "Bigelow Brewing Company",
        "brewery_type": "brewpub",
        "address_1": "473 Bigelow Hill Rd",
        "address_2": null,
        "address_3": null,
        "city": "Skowhegan",
        "state_province": "Maine",
        "postal_code": "04976-5126",
        "country": "United States",
        "longitude": "-69.72961613",
        "latitude": "44.71991967",
        "phone": "2073996262",
        "website_url": "http://www.bigelowbrewing.com",
        "state": "Maine",
        "street": "473 Bigelow Hill Rd"
    },
    {
        "id": "2ebb8fea-f982-43a0-bc95-b0ac01ae3f99",
        "name": "Bike Dog Brewing Co",
        "brewery_type": "micro",
        "address_1": "2534 Industrial Blvd Ste 110",
        "address_2": null,
        "address_3": null,
        "city": "West Sacramento",
        "state_province": "California",
        "postal_code": "95691-3471",
        "country": "United States",
        "longitude": "-121.5433734",
        "latitude": "38.5660851",
        "phone": null,
        "website_url": null,
        "state": "California",
        "street": "2534 Industrial Blvd Ste 110"
    },
    {
        "id": "7d5db948-1fc5-45b6-a277-8d69a6352055",
        "name": "Bike Rack Brewing Co",
        "brewery_type": "micro",
        "address_1": "410 SW A St Ste 6",
        "address_2": null,
        "address_3": null,
        "city": "Bentonville",
        "state_province": "Arkansas",
        "postal_code": "72712-5839",
        "country": "United States",
        "longitude": null,
        "latitude": null,
        "phone": "4792686648",
        "website_url": "http://www.bikerackbrewing.com",
        "state": "Arkansas",
        "street": "410 SW A St Ste 6"
    },
    {
        "id": "8d77bca9-de55-47a3-93e1-a72290a39c08",
        "name": "Bike Rack Brewing Co - 8th Street Market",
        "brewery_type": "micro",
        "address_1": "801 SE 8th St",
        "address_2": null,
        "address_3": null,
        "city": "Bentonville",
        "state_province": "Arkansas",
        "postal_code": "72712-6409",
        "country": "United States",
        "longitude": "-94.200584",
        "latitude": "36.364069",
        "phone": "4793196593",
        "website_url": "http://www.bikerackbrewing.com",
        "state": "Arkansas",
        "street": "801 SE 8th St"
    },
    {
        "id": "40dbdacc-6531-4c83-8622-49758b82a052",
        "name": "Bike TrAle Brewing",
        "brewery_type": "micro",
        "address_1": "101 Loudoun St SE",
        "address_2": null,
        "address_3": null,
        "city": "Leesburg",
        "state_province": "Virginia",
        "postal_code": "20175-3106",
        "country": "United States",
        "longitude": "-77.562422",
        "latitude": "39.113418",
        "phone": "5712930050",
        "website_url": "http://www.BikeTrAleBrewing.com",
        "state": "Virginia",
        "street": "101 Loudoun St SE"
    },
    {
        "id": "ddad9761-9bd4-4dbd-a744-890c38eb61ac",
        "name": "Biker Brew House",
        "brewery_type": "micro",
        "address_1": "5700 Interstate Blvd",
        "address_2": null,
        "address_3": null,
        "city": "Austintown",
        "state_province": "Ohio",
        "postal_code": "44515-1170",
        "country": "United States",
        "longitude": null,
        "latitude": null,
        "phone": null,
        "website_url": "http://www.bikerbrewhouse.com",
        "state": "Ohio",
        "street": "5700 Interstate Blvd"
    },
    {
        "id": "5e549a83-df46-462c-aa98-3bd6dd0e65fd",
        "name": "Bilbo's Pizza and Brewery",
        "brewery_type": "brewpub",
        "address_1": "3307 Stadium Dr",
        "address_2": null,
        "address_3": null,
        "city": "Kalamazoo",
        "state_province": "Michigan",
        "postal_code": "49008-1528",
        "country": "United States",
        "longitude": "-85.63122494",
        "latitude": "42.27160225",
        "phone": "2693825544",
        "website_url": "http://www.bilbospizza.com",
        "state": "Michigan",
        "street": "3307 Stadium Dr"
    },
    {
        "id": "2e6d6446-a752-4ed5-85dc-164d7bb799ba",
        "name": "Bill's Brewing Co.",
        "brewery_type": "brewpub",
        "address_1": "4238 Market St.",
        "address_2": null,
        "address_3": null,
        "city": "Wilmington",
        "state_province": "North Carolina",
        "postal_code": "28403",
        "country": "United States",
        "longitude": "-77.892361",
        "latitude": "34.242224",
        "phone": "9107626333",
        "website_url": "http://www.billsfrontporch.com",
        "state": "North Carolina",
        "street": "4238 Market St."
    },
    {
        "id": "76f46964-b68a-4156-8a61-dbd2e6acaacf",
        "name": "Bill's Front Porch Pub and Brewery",
        "brewery_type": "brewpub",
        "address_1": "4238 Market St",
        "address_2": null,
        "address_3": null,
        "city": "Wilmington",
        "state_province": "North Carolina",
        "postal_code": "28403-1409",
        "country": "United States",
        "longitude": "-77.892361",
        "latitude": "34.242224",
        "phone": "9107626333",
        "website_url": "http://www.billsfrontporch.com",
        "state": "North Carolina",
        "street": "4238 Market St"
    },
    {
        "id": "47a98559-734f-4475-ad82-f8bad6a69bf1",
        "name": "Bill's Tavern and Brewhouse",
        "brewery_type": "brewpub",
        "address_1": "188 N Hemlock St",
        "address_2": null,
        "address_3": null,
        "city": "Cannon Beach",
        "state_province": "Oregon",
        "postal_code": "97110-3037",
        "country": "United States",
        "longitude": "-123.9610943",
        "latitude": "45.89803615",
        "phone": "5034362202",
        "website_url": "http://www.billstavernandbrewhouse.com",
        "state": "Oregon",
        "street": "188 N Hemlock St"
    },
    {
        "id": "26e2db12-3e83-438b-9ed7-c43eb0fed1f9",
        "name": "Billsburg Brewery",
        "brewery_type": "micro",
        "address_1": "2054 Jamestown Rd",
        "address_2": null,
        "address_3": null,
        "city": "Williamsburg",
        "state_province": "Virginia",
        "postal_code": "23185-7911",
        "country": "United States",
        "longitude": "-76.7129558",
        "latitude": "37.2682365",
        "phone": null,
        "website_url": "http://www.billsburg.com",
        "state": "Virginia",
        "street": "2054 Jamestown Rd"
    },
    {
        "id": "d238261c-e421-4ee9-a530-2e661d417d62",
        "name": "Biloba Brewing",
        "brewery_type": "micro",
        "address_1": "18720 Pleasant St Stop 4",
        "address_2": null,
        "address_3": null,
        "city": "Brookfield",
        "state_province": "Wisconsin",
        "postal_code": "53045-3447",
        "country": "United States",
        "longitude": null,
        "latitude": null,
        "phone": "2623095820",
        "website_url": "http://www.bilobabrewing.com",
        "state": "Wisconsin",
        "street": "18720 Pleasant St Stop 4"
    },
    {
        "id": "c66e7af2-41c2-4e8b-b66d-32ea62e28d4f",
        "name": "Biloxi Brewing Co",
        "brewery_type": "micro",
        "address_1": "186 Bohn St",
        "address_2": null,
        "address_3": null,
        "city": "Biloxi",
        "state_province": "Mississippi",
        "postal_code": "39530-3812",
        "country": "United States",
        "longitude": "-88.89361913",
        "latitude": "30.3982915",
        "phone": "2282731638",
        "website_url": "http://www.biloxibrewing.com",
        "state": "Mississippi",
        "street": "186 Bohn St"
    },
    {
        "id": "6ccd6e8a-5d6c-4a5e-a285-57067d8b3a41",
        "name": "Biltmore Brewing Company",
        "brewery_type": "proprietor",
        "address_1": "1 N Pack Sq C/O Biltmore Winery Estates",
        "address_2": null,
        "address_3": null,
        "city": "Asheville",
        "state_province": "North Carolina",
        "postal_code": "28801-3462",
        "country": "United States",
        "longitude": null,
        "latitude": null,
        "phone": "8004113812",
        "website_url": "http://www.biltmore.com",
        "state": "North Carolina",
        "street": "1 N Pack Sq C/O Biltmore Winery Estates"
    },
    {
        "id": "aa7a58a8-b2af-4c19-a73b-7b803262bfad",
        "name": "Bine Valley Brewing",
        "brewery_type": "micro",
        "address_1": "2027 25th St SE",
        "address_2": null,
        "address_3": null,
        "city": "Salem",
        "state_province": "Oregon",
        "postal_code": "97302-1130",
        "country": "United States",
        "longitude": "-123.0104248",
        "latitude": "44.92083964",
        "phone": "7602249889",
        "website_url": "http://www.binebrews.com",
        "state": "Oregon",
        "street": "2027 25th St SE"
    },
    {
        "id": "5b64e8ae-f38a-4cf0-8d60-e3f0cf3c9572",
        "name": "Binghamton Brewing Co",
        "brewery_type": "micro",
        "address_1": "15 Avenue B",
        "address_2": null,
        "address_3": null,
        "city": "Johnson City",
        "state_province": "New York",
        "postal_code": "13790-2234",
        "country": "United States",
        "longitude": "-75.95337584",
        "latitude": "42.11473563",
        "phone": "6072383448",
        "website_url": "http://www.bingbrew.com",
        "state": "New York",
        "street": "15 Avenue B"
    },
    {
        "id": "106a32d5-54fd-4431-8406-0803aef87605",
        "name": "Bingo Beer Company",
        "brewery_type": "planning",
        "address_1": "2900 W Broad St",
        "address_2": null,
        "address_3": null,
        "city": "Richmond",
        "state_province": "Virginia",
        "postal_code": "23230",
        "country": "United States",
        "longitude": null,
        "latitude": null,
        "phone": "8043975226",
        "website_url": "http://www.bingorva.com/",
        "state": "Virginia",
        "street": "2900 W Broad St"
    },
    {
        "id": "ffd991bf-fb26-470c-9167-77d54c1fd57b",
        "name": "Birch's On the Lake",
        "brewery_type": "brewpub",
        "address_1": "1310 Wayzata Blvd",
        "address_2": null,
        "address_3": null,
        "city": "Long Lake",
        "state_province": "Minnesota",
        "postal_code": "55356-8314",
        "country": "United States",
        "longitude": "-93.55601814",
        "latitude": "44.98493915",
        "phone": "9524737373",
        "website_url": "http://www.birchsrestaurantandbar.com",
        "state": "Minnesota",
        "street": "1310 Wayzata Blvd"
    },
    {
        "id": "16be946c-4c1b-415b-ac5d-05a5efe1429c",
        "name": "Bircus Brewing",
        "brewery_type": "micro",
        "address_1": "322 Elm St",
        "address_2": null,
        "address_3": null,
        "city": "Ludlow",
        "state_province": "Kentucky",
        "postal_code": "41016-1451",
        "country": "United States",
        "longitude": "-84.54923129",
        "latitude": "39.0935089",
        "phone": "8593607757",
        "website_url": "http://www.bircus.com",
        "state": "Kentucky",
        "street": "322 Elm St"
    },
    {
        "id": "0b8ab2be-1d15-4a60-8bd2-e526a6615567",
        "name": "Bird Brain Brewing Company",
        "brewery_type": "contract",
        "address_1": "435 Nikki Ter SE",
        "address_2": null,
        "address_3": null,
        "city": "Leesburg",
        "state_province": "Virginia",
        "postal_code": "20175-8962",
        "country": "United States",
        "longitude": "-77.54348368",
        "latitude": "39.09389489",
        "phone": null,
        "website_url": null,
        "state": "Virginia",
        "street": "435 Nikki Ter SE"
    },
    {
        "id": "88559f42-b68b-4ba9-963c-c15d13986a72",
        "name": "Bird Nickel Brewing Company",
        "brewery_type": "planning",
        "address_1": null,
        "address_2": null,
        "address_3": null,
        "city": "Easton",
        "state_province": "Maryland",
        "postal_code": "21601-3904",
        "country": "United States",
        "longitude": null,
        "latitude": null,
        "phone": "4103106042",
        "website_url": null,
        "state": "Maryland",
        "street": null
    },
    {
        "id": "817d37b5-07f0-4722-9b9d-d37e238a6fbe",
        "name": "Bird Street Brewing",
        "brewery_type": "micro",
        "address_1": "242 Heinlen St",
        "address_2": null,
        "address_3": null,
        "city": "Lemoore",
        "state_province": "California",
        "postal_code": "93245-2947",
        "country": "United States",
        "longitude": "-119.784711",
        "latitude": "36.30146756",
        "phone": "5593094649",
        "website_url": "http://www.birdstreetbrewing.com",
        "state": "California",
        "street": "242 Heinlen St"
    },
    {
        "id": "78cc5335-72ed-4756-8c08-b18c65ea3675",
        "name": "Birdboy Brewing Co",
        "brewery_type": "micro",
        "address_1": "210 E Collins Rd",
        "address_2": null,
        "address_3": null,
        "city": "Fort Wayne",
        "state_province": "Indiana",
        "postal_code": "46825-5304",
        "country": "United States",
        "longitude": "-85.13900142",
        "latitude": "41.12187792",
        "phone": "2605795508",
        "website_url": "http://www.birdboybrewing.com",
        "state": "Indiana",
        "street": "210 E Collins Rd"
    },
    {
        "id": "55cf083b-d2b1-4839-878f-730d1a00fc27",
        "name": "BirdFish Brewing Co",
        "brewery_type": "micro",
        "address_1": "16 S Main St",
        "address_2": null,
        "address_3": null,
        "city": "Columbiana",
        "state_province": "Ohio",
        "postal_code": "44408-1348",
        "country": "United States",
        "longitude": "-80.69353036",
        "latitude": "40.888487",
        "phone": "3303339385",
        "website_url": "http://www.birdfishbrew.com",
        "state": "Ohio",
        "street": "16 S Main St"
    },
    {
        "id": "b47dbcd6-1beb-434c-a9fb-3f8d88772800",
        "name": "Birds Fly South Ale Project",
        "brewery_type": "micro",
        "address_1": "1320 Hampton Avenue Ext",
        "address_2": null,
        "address_3": null,
        "city": "Greenville",
        "state_province": "South Carolina",
        "postal_code": "29601-1012",
        "country": "United States",
        "longitude": null,
        "latitude": null,
        "phone": "8644128825",
        "website_url": null,
        "state": "South Carolina",
        "street": "1320 Hampton Avenue Ext"
    },
    {
        "id": "2f8dee5a-fc6e-49f3-84de-20ca5580acd4",
        "name": "Birdsong Brewing Co.",
        "brewery_type": "micro",
        "address_1": "1016 N Davidson St",
        "address_2": null,
        "address_3": null,
        "city": "Charlotte",
        "state_province": "North Carolina",
        "postal_code": "28206-3371",
        "country": "United States",
        "longitude": "-80.82704272",
        "latitude": "35.23060753",
        "phone": "7043321810",
        "website_url": "http://www.birdsongbrewing.com",
        "state": "North Carolina",
        "street": "1016 N Davidson St"
    },
    {
        "id": "10617c0b-c29a-4e60-bd3d-5e4d56649398",
        "name": "BirdsView Brewing Co",
        "brewery_type": "micro",
        "address_1": "38302 State Route 20",
        "address_2": null,
        "address_3": null,
        "city": "Concrete",
        "state_province": "Washington",
        "postal_code": "98237-9460",
        "country": "United States",
        "longitude": "-121.7378167",
        "latitude": "48.5357818",
        "phone": "3608263406",
        "website_url": "http://www.birdsviewbrewingcompany.com",
        "state": "Washington",
        "street": "38302 State Route 20"
    },
    {
        "id": "c1b16bee-8dc2-4b8f-ae1a-3f9134183d29",
        "name": "Birmingham District Brewing",
        "brewery_type": "planning",
        "address_1": null,
        "address_2": null,
        "address_3": null,
        "city": "Birmingham",
        "state_province": "Alabama",
        "postal_code": "35242-5651",
        "country": "United States",
        "longitude": "-86.8024326",
        "latitude": "33.5206824",
        "phone": "6019380486",
        "website_url": null,
        "state": "Alabama",
        "street": null
    },
    {
        "id": "ceabe2ed-e384-453c-a972-245ff8abc850",
        "name": "Birravino",
        "brewery_type": "brewpub",
        "address_1": "183 Riverside Ave",
        "address_2": null,
        "address_3": null,
        "city": "Red Bank",
        "state_province": "New Jersey",
        "postal_code": "07701-1015",
        "country": "United States",
        "longitude": "-74.07536238",
        "latitude": "40.35352565",
        "phone": "7328425990",
        "website_url": "http://www.birravino.com",
        "state": "New Jersey",
        "street": "183 Riverside Ave"
    },
    {
        "id": "66cb7863-0a8f-49e0-96e5-d29ed5b69e86",
        "name": "Birreria @ Eataly",
        "brewery_type": "brewpub",
        "address_1": "43 E Ohio St",
        "address_2": null,
        "address_3": null,
        "city": "Chicago",
        "state_province": "Illinois",
        "postal_code": "60611-2701",
        "country": "United States",
        "longitude": "-87.6262332",
        "latitude": "41.89209845",
        "phone": null,
        "website_url": "http://www.eataly.com",
        "state": "Illinois",
        "street": "43 E Ohio St"
    },
    {
        "id": "aec527a2-0534-4252-86e0-56c621fc835d",
        "name": "Birreria @ Eataly",
        "brewery_type": "brewpub",
        "address_1": "200 5th Ave Fl 14",
        "address_2": null,
        "address_3": null,
        "city": "New York",
        "state_province": "New York",
        "postal_code": "10010-3302",
        "country": "United States",
        "longitude": null,
        "latitude": null,
        "phone": "2125390204",
        "website_url": "http://www.eatalyny.com",
        "state": "New York",
        "street": "200 5th Ave Fl 14"
    },
    {
        "id": "27c38f61-cc1b-4e9c-baea-a55193ba486b",
        "name": "Birthright Brewing Co.",
        "brewery_type": "brewpub",
        "address_1": "57 S Main St",
        "address_2": null,
        "address_3": null,
        "city": "Nazareth",
        "state_province": "Pennsylvania",
        "postal_code": "18064-2037",
        "country": "United States",
        "longitude": "-75.31224579",
        "latitude": "40.74211365",
        "phone": "6103652225",
        "website_url": "http://www.birthrightbrewingco.com",
        "state": "Pennsylvania",
        "street": "57 S Main St"
    },
    {
        "id": "9baed18a-8f26-4e9a-a56f-280ced6d1d7a",
        "name": "Biscayne Bay Brewing Co",
        "brewery_type": "micro",
        "address_1": "8000 NW 25th St Ste 500",
        "address_2": null,
        "address_3": null,
        "city": "Miami",
        "state_province": "Florida",
        "postal_code": "33122-1631",
        "country": "United States",
        "longitude": null,
        "latitude": null,
        "phone": null,
        "website_url": null,
        "state": "Florida",
        "street": "8000 NW 25th St Ste 500"
    },
    {
        "id": "105076f0-ca29-4fb5-8c91-73e1d7dbfb9d",
        "name": "Bismarck Brewing",
        "brewery_type": "brewpub",
        "address_1": "1100 Canada Ave Suite 1",
        "address_2": null,
        "address_3": null,
        "city": "Bismarck",
        "state_province": "North Dakota",
        "postal_code": "58503-1814",
        "country": "United States",
        "longitude": "-100.7737552",
        "latitude": "46.86270313",
        "phone": null,
        "website_url": "http://www.bismarckbrew.com",
        "state": "North Dakota",
        "street": "1100 Canada Ave Suite 1"
    },
    {
        "id": "7e37544f-5e87-4652-95db-e946e58ae9ed",
        "name": "Bison Brewing Co",
        "brewery_type": "contract",
        "address_1": "1627 S 7th St",
        "address_2": null,
        "address_3": null,
        "city": "San Jose",
        "state_province": "California",
        "postal_code": "95112-5932",
        "country": "United States",
        "longitude": "-121.8665257",
        "latitude": "37.31531409",
        "phone": "5108125996",
        "website_url": "http://bisonbrew.com",
        "state": "California",
        "street": "1627 S 7th St"
    },
    {
        "id": "9ca594a0-97b0-4bd5-a4fe-5b8ee789289f",
        "name": "Bissell Brothers Brewing",
        "brewery_type": "micro",
        "address_1": "4 Thompsons Pt Ste 108",
        "address_2": null,
        "address_3": null,
        "city": "Portland",
        "state_province": "Maine",
        "postal_code": "04102-2639",
        "country": "United States",
        "longitude": "-70.2904097",
        "latitude": "43.6514062",
        "phone": "2074233622",
        "website_url": "http://www.bissellbrothers.com",
        "state": "Maine",
        "street": "4 Thompsons Pt Ste 108"
    },
    {
        "id": "77c019ef-bc30-40e4-aa2b-5c51ffa38453",
        "name": "Bistronomy B2B Craft Brewery",
        "brewery_type": "brewpub",
        "address_1": "3118 Central Ave SE",
        "address_2": null,
        "address_3": null,
        "city": "Albuquerque",
        "state_province": "New Mexico",
        "postal_code": "87106-2216",
        "country": "United States",
        "longitude": "-106.6102147",
        "latitude": "35.080354",
        "phone": "5052622222",
        "website_url": "http://www.bistronomyb2b.com",
        "state": "New Mexico",
        "street": "3118 Central Ave SE"
    },
    {
        "id": "3169d94b-9531-4639-8eea-54f94d72eace",
        "name": "Bitter Brothers Brewing Co.",
        "brewery_type": "micro",
        "address_1": "4170 Morena Blvd Ste F",
        "address_2": null,
        "address_3": null,
        "city": "San Diego",
        "state_province": "California",
        "postal_code": "92117-5252",
        "country": "United States",
        "longitude": "-117.2202906",
        "latitude": "32.81614831",
        "phone": "6199616690",
        "website_url": "http://www.bitterbrothers.com",
        "state": "California",
        "street": "4170 Morena Blvd Ste F"
    },
    {
        "id": "bfdbcc50-5bfa-443b-a2fa-586f433a28e0",
        "name": "Bitter Creek Brewing Co",
        "brewery_type": "brewpub",
        "address_1": "604 Broadway St",
        "address_2": null,
        "address_3": null,
        "city": "Rock Springs",
        "state_province": "Wyoming",
        "postal_code": "82901-6348",
        "country": "United States",
        "longitude": "-109.2181243",
        "latitude": "41.58683904",
        "phone": "3073624782",
        "website_url": "http://www.bittercreekbrewing.com",
        "state": "Wyoming",
        "street": "604 Broadway St"
    },
    {
        "id": "80dd3663-71f9-46db-811e-7b1610731542",
        "name": "Bitter Old Fecker Rustic Ales",
        "brewery_type": "micro",
        "address_1": "12855 E Old US Hwy 12",
        "address_2": null,
        "address_3": null,
        "city": "Chelsea",
        "state_province": "Michigan",
        "postal_code": "48118-9229",
        "country": "United States",
        "longitude": "-83.98452281",
        "latitude": "42.2995379",
        "phone": "7344445201",
        "website_url": null,
        "state": "Michigan",
        "street": "12855 E Old US Hwy 12"
    },
    {
        "id": "2f3d22a3-113e-424a-aed6-b8a2f2f785c2",
        "name": "Bitter Root Brewing Co",
        "brewery_type": "micro",
        "address_1": "101 Marcus St",
        "address_2": null,
        "address_3": null,
        "city": "Hamilton",
        "state_province": "Montana",
        "postal_code": "59840-2541",
        "country": "United States",
        "longitude": "-114.1551946",
        "latitude": "46.24733778",
        "phone": "4063637468",
        "website_url": "http://www.bitterrootbrewing.com",
        "state": "Montana",
        "street": "101 Marcus St"
    },
    {
        "id": "27812208-7d7b-4c77-b62a-bc405d6af897",
        "name": "Bitter Sisters Brewing Company",
        "brewery_type": "micro",
        "address_1": "15103 Surveyor Blvd",
        "address_2": null,
        "address_3": null,
        "city": "Addison",
        "state_province": "Texas",
        "postal_code": "75001-4316",
        "country": "United States",
        "longitude": "-96.845846",
        "latitude": "32.951222",
        "phone": "9724790949",
        "website_url": "http://www.bittersistersbrewery.com",
        "state": "Texas",
        "street": "15103 Surveyor Blvd"
    },
    {
        "id": "1946d91f-cffd-4794-9f88-4264b923f398",
        "name": "Bittersweet Brewing Company, LLC",
        "brewery_type": "micro",
        "address_1": "191 S Oak Park Blvd Ste 3",
        "address_2": null,
        "address_3": null,
        "city": "Grover Beach",
        "state_province": "California",
        "postal_code": "93433-2265",
        "country": "United States",
        "longitude": "-120.6088596",
        "latitude": "35.12009944",
        "phone": null,
        "website_url": "http://www.bittersweetbrewing.com",
        "state": "California",
        "street": "191 S Oak Park Blvd Ste 3"
    },
    {
        "id": "8f291173-eb33-4277-96a6-81a3a1b32709",
        "name": "BJ's Brewhouse",
        "brewery_type": "regional",
        "address_1": "602 E Central Ave",
        "address_2": null,
        "address_3": null,
        "city": "Temple",
        "state_province": "Texas",
        "postal_code": "76501-4319",
        "country": "United States",
        "longitude": "-97.33525536",
        "latitude": "31.09509964",
        "phone": "7145002400",
        "website_url": null,
        "state": "Texas",
        "street": "602 E Central Ave"
    },
    {
        "id": "57b4c49f-7c62-4f88-8027-deeb7aa29a99",
        "name": "BJs Restaurant & Brewery - Boulder",
        "brewery_type": "brewpub",
        "address_1": "1690 28th St",
        "address_2": null,
        "address_3": null,
        "city": "Boulder",
        "state_province": "Colorado",
        "postal_code": "80301-",
        "country": "United States",
        "longitude": "-105.258512",
        "latitude": "40.0291592",
        "phone": "3034405200",
        "website_url": "http://www.bjsrestaurants.com",
        "state": "Colorado",
        "street": "1690 28th St"
    },
    {
        "id": "b550667b-11ec-49f0-8609-071ca0395269",
        "name": "BJs Restaurant & Brewery - Brea",
        "brewery_type": "brewpub",
        "address_1": "600 Brea Mall Dr",
        "address_2": null,
        "address_3": null,
        "city": "Brea",
        "state_province": "California",
        "postal_code": "92821-5764",
        "country": "United States",
        "longitude": "-117.8863245",
        "latitude": "33.9152037",
        "phone": "7149902095",
        "website_url": "http://www.bjsrestaurants.com",
        "state": "California",
        "street": "600 Brea Mall Dr"
    },
    {
        "id": "a9888981-3b31-4cb8-80ec-83b4e089dc04",
        "name": "BJs Restaurant & Brewery - Chandler",
        "brewery_type": "brewpub",
        "address_1": "3155 W Chandler Blvd",
        "address_2": null,
        "address_3": null,
        "city": "Chandler",
        "state_province": "Arizona",
        "postal_code": "85226-5175",
        "country": "United States",
        "longitude": "-111.911126",
        "latitude": "33.3053455",
        "phone": "4809170631",
        "website_url": "http://www.bjsrestaurants.com",
        "state": "Arizona",
        "street": "3155 W Chandler Blvd"
    },
    {
        "id": "8fe53360-1c28-4c1a-8e98-49ff1966fc25",
        "name": "BJs Restaurant & Brewery - Reno",
        "brewery_type": "brewpub",
        "address_1": "13999 S Virginia St",
        "address_2": null,
        "address_3": null,
        "city": "Reno",
        "state_province": "Nevada",
        "postal_code": "89511-8917",
        "country": "United States",
        "longitude": "-119.8122668",
        "latitude": "39.5244083",
        "phone": "7758537575",
        "website_url": "http://www.bjsbrewhouse.com",
        "state": "Nevada",
        "street": "13999 S Virginia St"
    },
    {
        "id": "d4b77aea-a845-46b2-8f6e-b81378525c89",
        "name": "BJs Restaurant & Brewery - West Covina",
        "brewery_type": "brewpub",
        "address_1": "2917 E Eastland Ctr Dr",
        "address_2": null,
        "address_3": null,
        "city": "West Covina",
        "state_province": "California",
        "postal_code": "91791-1603",
        "country": "United States",
        "longitude": "-117.8867988",
        "latitude": "34.07298952",
        "phone": "6268580054",
        "website_url": "http://www.bjsrestaurants.com",
        "state": "California",
        "street": "2917 E Eastland Ctr Dr"
    },
    {
        "id": "283ac187-d4fb-4859-b536-3a4566d9631a",
        "name": "BJs Restauraunt & Brewhouse",
        "brewery_type": "brewpub",
        "address_1": "4502 S. Steele St. Suite 1500",
        "address_2": null,
        "address_3": null,
        "city": "Tacoma",
        "state_province": "Washington",
        "postal_code": "98409",
        "country": "United States",
        "longitude": "-122.467515",
        "latitude": "47.214875",
        "phone": "2534721220",
        "website_url": "https://www.bjsrestaurants.com/locations/wa/tacoma",
        "state": "Washington",
        "street": "4502 S. Steele St. Suite 1500"
    },
    {
        "id": "9e7959cb-8292-4892-aa10-6467c2b764b0",
        "name": "BKS Artisan Ales",
        "brewery_type": "micro",
        "address_1": "633 E 63rd St #120",
        "address_2": null,
        "address_3": null,
        "city": "Kansas City",
        "state_province": "Missouri",
        "postal_code": "64110",
        "country": "United States",
        "longitude": "-94.493961",
        "latitude": "39.010093",
        "phone": "8166733027",
        "website_url": "http://www.bksartisanales.com",
        "state": "Missouri",
        "street": "633 E 63rd St #120"
    },
    {
        "id": "e018afc5-b867-44d2-b3e6-9f54e66bc5c8",
        "name": "Bl\u00c3\u00bc Dragonfly Brewing",
        "brewery_type": "brewpub",
        "address_1": "301 E 9th St # C",
        "address_2": null,
        "address_3": null,
        "city": "Cimarron",
        "state_province": "New Mexico",
        "postal_code": "87714-4027",
        "country": "United States",
        "longitude": "-104.914428",
        "latitude": "36.511427",
        "phone": "9186361095",
        "website_url": null,
        "state": "New Mexico",
        "street": "301 E 9th St # C"
    },
    {
        "id": "64fd68cb-1304-41c8-b42d-0b5e801e7156",
        "name": "Black Acre Brewing Co",
        "brewery_type": "brewpub",
        "address_1": "5632 E Washington St",
        "address_2": null,
        "address_3": null,
        "city": "Indianapolis",
        "state_province": "Indiana",
        "postal_code": "46219-6428",
        "country": "United States",
        "longitude": "-86.1452662",
        "latitude": "39.7668669",
        "phone": "3177973316",
        "website_url": "http://www.blackacrebrewing.com",
        "state": "Indiana",
        "street": "5632 E Washington St"
    },
    {
        "id": "6cab717d-2883-4869-ab9a-879f09319efb",
        "name": "Black Beak Brewing",
        "brewery_type": "planning",
        "address_1": null,
        "address_2": null,
        "address_3": null,
        "city": "Denver",
        "state_province": "Colorado",
        "postal_code": "80237-1907",
        "country": "United States",
        "longitude": "-104.984696",
        "latitude": "39.7391428",
        "phone": "3032107836",
        "website_url": null,
        "state": "Colorado",
        "street": null
    },
    {
        "id": "77c455db-9445-408f-8447-c4d28830edf9",
        "name": "Black Bear Brewery",
        "brewery_type": "micro",
        "address_1": "19 Mill St Ste 4",
        "address_2": null,
        "address_3": null,
        "city": "Orono",
        "state_province": "Maine",
        "postal_code": "04473-4095",
        "country": "United States",
        "longitude": null,
        "latitude": null,
        "phone": "2078899123",
        "website_url": "http://www.blackbearmicrobrew.com",
        "state": "Maine",
        "street": "19 Mill St Ste 4"
    },
    {
        "id": "2d1c4b89-4d44-4f47-8ea1-b11fdfc247bd",
        "name": "Black Bottle Brewery",
        "brewery_type": "brewpub",
        "address_1": "1611 S College Ave Ste STE1609",
        "address_2": null,
        "address_3": null,
        "city": "Fort Collins",
        "state_province": "Colorado",
        "postal_code": "80525-1074",
        "country": "United States",
        "longitude": null,
        "latitude": null,
        "phone": "9704932337",
        "website_url": "http://www.blackbottlebrewery.com",
        "state": "Colorado",
        "street": "1611 S College Ave Ste STE1609"
    },
    {
        "id": "c616ab6b-bba4-4d23-b341-b325251f3420",
        "name": "Black Bridge Brewery",
        "brewery_type": "micro",
        "address_1": "421 E Beale St",
        "address_2": null,
        "address_3": null,
        "city": "Kingman",
        "state_province": "Arizona",
        "postal_code": "86401-5833",
        "country": "United States",
        "longitude": "-114.051737",
        "latitude": "35.1895877",
        "phone": "9283773618",
        "website_url": "http://www.blackbridgebrewery.com",
        "state": "Arizona",
        "street": "421 E Beale St"
    },
    {
        "id": "01a7842a-3139-475e-95e9-e5a671c236ef",
        "name": "Black Cat Brewing",
        "brewery_type": "planning",
        "address_1": null,
        "address_2": null,
        "address_3": null,
        "city": "Boulder",
        "state_province": "Colorado",
        "postal_code": "80302",
        "country": "United States",
        "longitude": "-105.2705456",
        "latitude": "40.0149856",
        "phone": null,
        "website_url": "http://www.blackcatbrewing.com",
        "state": "Colorado",
        "street": null
    },
    {
        "id": "fd28030a-631f-410a-b426-9c67c29b3175",
        "name": "Black Circle Brewing Co",
        "brewery_type": "micro",
        "address_1": "2201 E 46th St",
        "address_2": null,
        "address_3": null,
        "city": "Indianapolis",
        "state_province": "Indiana",
        "postal_code": "46205",
        "country": "United States",
        "longitude": "-86.123944",
        "latitude": "39.8398813",
        "phone": "3174260143",
        "website_url": "http://www.blackcirclebrewing.com",
        "state": "Indiana",
        "street": "2201 E 46th St"
    },
    {
        "id": "7f459973-0ae7-40d5-825c-a6eaa6f3843a",
        "name": "Black Cloister Brewing Co",
        "brewery_type": "brewpub",
        "address_1": "619 Monroe St",
        "address_2": null,
        "address_3": null,
        "city": "Toledo",
        "state_province": "Ohio",
        "postal_code": "43604-1015",
        "country": "United States",
        "longitude": "-83.5399665",
        "latitude": "41.6499863",
        "phone": "4192141500",
        "website_url": "http://www.blackcloister.com",
        "state": "Ohio",
        "street": "619 Monroe St"
    },
    {
        "id": "962e31a8-5230-4bf5-a006-cceed47b46bf",
        "name": "Black Cock Brewing Company",
        "brewery_type": "micro",
        "address_1": "1444 N Batavia St",
        "address_2": null,
        "address_3": null,
        "city": "Orange",
        "state_province": "California",
        "postal_code": "92867-3505",
        "country": "United States",
        "longitude": "-117.8620026",
        "latitude": "33.8274902",
        "phone": "7147448410",
        "website_url": null,
        "state": "California",
        "street": "1444 N Batavia St"
    },
    {
        "id": "68534594-0610-4e38-93fa-b8a9e76941c6",
        "name": "Black Creek Brewery",
        "brewery_type": "micro",
        "address_1": "111 Depot St",
        "address_2": null,
        "address_3": null,
        "city": "Roxboro",
        "state_province": "North Carolina",
        "postal_code": "27573-5503",
        "country": "United States",
        "longitude": "-78.98146367",
        "latitude": "36.39362085",
        "phone": "9195244319",
        "website_url": null,
        "state": "North Carolina",
        "street": "111 Depot St"
    },
    {
        "id": "73174f3a-40c5-49c4-8394-1a913831f14d",
        "name": "Black Donkey Brewing",
        "brewery_type": "micro",
        "address_1": "Srah Road",
        "address_2": null,
        "address_3": null,
        "city": "Ballinlough",
        "state_province": "Roscommon",
        "postal_code": "F45 KN60",
        "country": "Ireland",
        "longitude": "-8.640373685",
        "latitude": "53.74460665",
        "phone": null,
        "website_url": "http://blackdonkeybeer.com/",
        "state": "Roscommon",
        "street": "Srah Road"
    },
    {
        "id": "149e2ad1-8a38-4659-a11a-0b2647d5a788",
        "name": "Black Doubt Brewing Company",
        "brewery_type": "micro",
        "address_1": "452 Old Mammoth Rd, #104",
        "address_2": null,
        "address_3": null,
        "city": "Mammoth Lakes",
        "state_province": "California",
        "postal_code": "93546",
        "country": "United States",
        "longitude": "-118.9668019",
        "latitude": "37.6395882",
        "phone": "7605250462",
        "website_url": "http://www.blackdoubtbrewing.com",
        "state": "California",
        "street": "452 Old Mammoth Rd, #104"
    },
    {
        "id": "a539c80f-cfa0-400c-9eb5-a2fe8a882343",
        "name": "Black Eagle Brewery",
        "brewery_type": "micro",
        "address_1": "1600 25th Ave NE",
        "address_2": null,
        "address_3": null,
        "city": "Black Eagle",
        "state_province": "Montana",
        "postal_code": "59414-1070",
        "country": "United States",
        "longitude": "-111.279526",
        "latitude": "47.528243",
        "phone": "4068681866",
        "website_url": "http://www.pitstopblackeagle.com",
        "state": "Montana",
        "street": "1600 25th Ave NE"
    },
    {
        "id": "d7ae324d-dcc4-4b52-b857-35dca78f8c37",
        "name": "Black Fire Winery",
        "brewery_type": "micro",
        "address_1": "1261 E Munger Rd",
        "address_2": null,
        "address_3": null,
        "city": "Tecumseh",
        "state_province": "Michigan",
        "postal_code": "49286-8714",
        "country": "United States",
        "longitude": null,
        "latitude": null,
        "phone": "5174249232",
        "website_url": null,
        "state": "Michigan",
        "street": "1261 E Munger Rd"
    },
    {
        "id": "f6cc21c0-039d-4257-9869-b168502185d6",
        "name": "Black Flag Brewing Company",
        "brewery_type": "micro",
        "address_1": "9315 Snowden River Pkwy",
        "address_2": null,
        "address_3": null,
        "city": "Columbia",
        "state_province": "Maryland",
        "postal_code": "21046-2091",
        "country": "United States",
        "longitude": "-76.810364",
        "latitude": "39.192524",
        "phone": "4438645139",
        "website_url": "http://www.blackflagbrewingco.com",
        "state": "Maryland",
        "street": "9315 Snowden River Pkwy"
    },
    {
        "id": "866e9938-a7ea-41c1-a2b9-81ecb26aa3b0",
        "name": "Black Fleet Brewing",
        "brewery_type": "micro",
        "address_1": "2302 Fawcett Ave",
        "address_2": null,
        "address_3": null,
        "city": "Tacoma",
        "state_province": "Washington",
        "postal_code": "98402",
        "country": "United States",
        "longitude": "-122.44036",
        "latitude": "47.24082",
        "phone": "2533271641",
        "website_url": "http://www.blackfleetbrewing.com",
        "state": "Washington",
        "street": "2302 Fawcett Ave"
    },
    {
        "id": "a0fadb5a-1b4c-4e40-9782-27f06c10a52d",
        "name": "Black Forest Brew Haus",
        "brewery_type": "brewpub",
        "address_1": "2015 New Hwy",
        "address_2": null,
        "address_3": null,
        "city": "Farmingdale",
        "state_province": "New York",
        "postal_code": "11735-1103",
        "country": "United States",
        "longitude": "-73.41443291",
        "latitude": "40.7550515",
        "phone": "6313919500",
        "website_url": "http://www.blackforestbrewhaus.com",
        "state": "New York",
        "street": "2015 New Hwy"
    },
    {
        "id": "d3eba4df-b289-4ee6-ada9-da33ef0567aa",
        "name": "Black Forest Brewery",
        "brewery_type": "brewpub",
        "address_1": "301 W Main St",
        "address_2": null,
        "address_3": null,
        "city": "Ephrata",
        "state_province": "Pennsylvania",
        "postal_code": "17522-1713",
        "country": "United States",
        "longitude": "-76.183579",
        "latitude": "40.181767",
        "phone": "7174507217",
        "website_url": "http://www.blackforestbrewery.net",
        "state": "Pennsylvania",
        "street": "301 W Main St"
    },
    {
        "id": "c8160b2b-3e43-4db3-bbd8-32f07a0a0060",
        "name": "Black Forest Brewing Company",
        "brewery_type": "brewpub",
        "address_1": "11590 Black Forest Rd Ste 50",
        "address_2": null,
        "address_3": null,
        "city": "Colorado Springs",
        "state_province": "Colorado",
        "postal_code": "80908-6000",
        "country": "United States",
        "longitude": null,
        "latitude": null,
        "phone": "7193962011",
        "website_url": "http://www.blackforestbrewco.com",
        "state": "Colorado",
        "street": "11590 Black Forest Rd Ste 50"
    },
    {
        "id": "aa85b666-63af-42fd-9f3a-0484bfc6666b",
        "name": "Black Frog Brewing Co",
        "brewery_type": "micro",
        "address_1": "831 S McCord Rd",
        "address_2": null,
        "address_3": null,
        "city": "Holland",
        "state_province": "Ohio",
        "postal_code": "43528-8746",
        "country": "United States",
        "longitude": "-83.7032185",
        "latitude": "41.6171284",
        "phone": "4193897136",
        "website_url": "http://www.blackfrogbrewery.com",
        "state": "Ohio",
        "street": "831 S McCord Rd"
    },
    {
        "id": "e81bfb16-7efb-4b1f-bad8-9d0eeabc3157",
        "name": "Black Gold Brewing Co",
        "brewery_type": "brewpub",
        "address_1": "508 Center St",
        "address_2": null,
        "address_3": null,
        "city": "Taft",
        "state_province": "California",
        "postal_code": "93268-3109",
        "country": "United States",
        "longitude": "-119.4591658",
        "latitude": "35.14109718",
        "phone": "6617656550",
        "website_url": null,
        "state": "California",
        "street": "508 Center St"
    },
    {
        "id": "26d678eb-fcce-4072-95aa-97afa8505925",
        "name": "Black Hammer Brewing",
        "brewery_type": "micro",
        "address_1": "544 Bryant St",
        "address_2": null,
        "address_3": null,
        "city": "San Francisco",
        "state_province": "California",
        "postal_code": "94107-1217",
        "country": "United States",
        "longitude": "-122.3969947",
        "latitude": "37.780655",
        "phone": "4155002273",
        "website_url": "http://www.blackhammerbrewing.com",
        "state": "California",
        "street": "544 Bryant St"
    },
    {
        "id": "61d6bc91-4366-49a9-ac55-5eed49482fc7",
        "name": "Black Hat Brew Works",
        "brewery_type": "micro",
        "address_1": "25 Scotland Blvd # 1",
        "address_2": null,
        "address_3": null,
        "city": "Bridgewater",
        "state_province": "Massachusetts",
        "postal_code": "02324-2302",
        "country": "United States",
        "longitude": null,
        "latitude": null,
        "phone": "5088075172",
        "website_url": "http://www.blackhatbrewworks.com",
        "state": "Massachusetts",
        "street": "25 Scotland Blvd # 1"
    }
]