[
    {
        "id": "cb19bf9b-71b5-444c-a8a5-00a4fadf1d7b",
        "name": "Northern Row Brewery & Distillery",
        "brewery_type": "micro",
        "address_1": "111 W McMicken Ave",
        "address_2": null,
        "address_3": null,
        "city": "Cincinnati",
        "state_province": "Ohio",
        "postal_code": "45202-4915",
        "country": "United States",
        "longitude": "-84.51924466",
        "latitude": "39.11836855",
        "phone": "5136736689",
        "website_url": "http://www.northernrow.com",
        "state": "Ohio",
        "street": "111 W McMicken Ave"
    },
    {
        "id": "f82ff275-dad6-45be-ada4-0f572743461b",
        "name": "Northish Beer Company",
        "brewery_type": "micro",
        "address_1": null,
        "address_2": null,
        "address_3": null,
        "city": "Tacoma",
        "state_province": "Washington",
        "postal_code": "98444",
        "country": "United States",
        "longitude": null,
        "latitude": null,
        "phone": "2537786106",
        "website_url": null,
        "state": "Washington",
        "street": null
    },
    {
        "id": "479157a8-7e68-4983-91a5-9b6b2a5ee470",
        "name": "Northshire Brewery, Inc",
        "brewery_type": "micro",
        "address_1": "108 County St",
        "address_2": null,
        "address_3": null,
        "city": "Bennington",
        "state_province": "Vermont",
        "postal_code": "05201-1807",
        "country": "United States",
        "longitude": "-73.20053877",
        "latitude": "42.88457164",
        "phone": "8026810201",
        "website_url": "http://www.northshirebrewery.com",
        "state": "Vermont",
        "street": "108 County St"
    },
    {
        "id": "e19854be-9a28-4587-b055-90e13fcbd7fb",
        "name": "Northville Winery and Brewery",
        "brewery_type": "micro",
        "address_1": "630 Old Baseline Rd",
        "address_2": null,
        "address_3": null,
        "city": "Northville",
        "state_province": "Michigan",
        "postal_code": "48167",
        "country": "United States",
        "longitude": null,
        "latitude": null,
        "phone": "2483206507",
        "website_url": null,
        "state": "Michigan",
        "street": "630 Old Baseline Rd"
    },
    {
        "id": "2be1334f-d077-4164-807b-33d967296185",
        "name": "Northwest Brewing Company",
        "brewery_type": "closed",
        "address_1": "1091 Valentine Ave SE",
        "address_2": null,
        "address_3": null,
        "city": "Pacific",
        "state_province": "Washington",
        "postal_code": "98047-2127",
        "country": "United States",
        "longitude": "-122.2488484",
        "latitude": "47.2501336",
        "phone": "2539875680",
        "website_url": "http://www.nwbrewingcompany.com",
        "state": "Washington",
        "street": "1091 Valentine Ave SE"
    },
    {
        "id": "7da574f0-1e97-4f39-81a4-7737b440d445",
        "name": "Northwest Passage Craft Brewery",
        "brewery_type": "micro",
        "address_1": null,
        "address_2": null,
        "address_3": null,
        "city": "Vancouver",
        "state_province": "Washington",
        "postal_code": "98661",
        "country": "United States",
        "longitude": null,
        "latitude": null,
        "phone": "3605212417",
        "website_url": null,
        "state": "Washington",
        "street": null
    },
    {
        "id": "d93d3629-6694-437e-89bd-dcc748c72316",
        "name": "Northwest Peaks Brewery",
        "brewery_type": "micro",
        "address_1": "5718 Rainier Ave S",
        "address_2": null,
        "address_3": null,
        "city": "Seattle",
        "state_province": "Washington",
        "postal_code": "98118-2704",
        "country": "United States",
        "longitude": "-122.2774364",
        "latitude": "47.55099169",
        "phone": "2067252337",
        "website_url": "http://www.nwpeaksbrewery.com",
        "state": "Washington",
        "street": "5718 Rainier Ave S"
    },
    {
        "id": "fdad47c3-6aa5-48d5-902f-25cfadcb46ed",
        "name": "Northwood Public House & Brewery",
        "brewery_type": "brewpub",
        "address_1": "1401 SE Rasmussen Blvd",
        "address_2": null,
        "address_3": null,
        "city": "Battle Ground",
        "state_province": "Washington",
        "postal_code": "98604-8620",
        "country": "United States",
        "longitude": "-122.5232786",
        "latitude": "45.77521745",
        "phone": "3607230937",
        "website_url": "http://www.northwoodpublichouse.com",
        "state": "Washington",
        "street": "1401 SE Rasmussen Blvd"
    },
    {
        "id": "762d6bfd-e2ba-469e-b3f5-05817d0a2d96",
        "name": "Northwoods Brewing Co",
        "brewery_type": "planning",
        "address_1": null,
        "address_2": null,
        "address_3": null,
        "city": "Northwood",
        "state_province": "New Hampshire",
        "postal_code": "03261",
        "country": "United States",
        "longitude": null,
        "latitude": null,
        "phone": "2073516983",
        "website_url": null,
        "state": "New Hampshire",
        "street": null
    },
    {
        "id": "10e225f0-d48e-40c8-8d58-1393404ff7a2",
        "name": "Northwoods Brewpub and Grill",
        "brewery_type": "brewpub",
        "address_1": "50918 West Street",
        "address_2": null,
        "address_3": null,
        "city": "Osseo",
        "state_province": "Wisconsin",
        "postal_code": "54758",
        "country": "United States",
        "longitude": "-91.22665123",
        "latitude": "44.58270666",
        "phone": "7155520510",
        "website_url": "http://www.northwoodsbrewpub.com",
        "state": "Wisconsin",
        "street": "50918 West Street"
    },
    {
        "id": "2486587b-e54e-48e4-842e-f35d9111767c",
        "name": "Nortons Brewing Co.",
        "brewery_type": "brewpub",
        "address_1": "125 N Saint Francis St",
        "address_2": null,
        "address_3": null,
        "city": "Wichita",
        "state_province": "Kansas",
        "postal_code": "67202-2607",
        "country": "United States",
        "longitude": "-97.331744",
        "latitude": "37.68657784",
        "phone": "3166446067",
        "website_url": "http://www.nortonsbrewing.com",
        "state": "Kansas",
        "street": "125 N Saint Francis St"
    },
    {
        "id": "439343a8-59c1-4823-9bf6-ea0c831d9db5",
        "name": "Norway Brewing Company",
        "brewery_type": "brewpub",
        "address_1": "237 Main St",
        "address_2": null,
        "address_3": null,
        "city": "Norway",
        "state_province": "Maine",
        "postal_code": "04268-5913",
        "country": "United States",
        "longitude": "-70.5268344",
        "latitude": "44.1973621",
        "phone": "2077392126",
        "website_url": "http://www.norwaybrewing.com",
        "state": "Maine",
        "street": "237 Main St"
    },
    {
        "id": "dab6bfc2-f4ba-4545-b06d-06d9d429f4d6",
        "name": "Nosdunk Brewing Company",
        "brewery_type": "closed",
        "address_1": null,
        "address_2": null,
        "address_3": null,
        "city": "Walla Walla",
        "state_province": "Washington",
        "postal_code": "99362-9311",
        "country": "United States",
        "longitude": null,
        "latitude": null,
        "phone": "5095408784",
        "website_url": "http://www.nosdunkbrewing.com",
        "state": "Washington",
        "street": null
    },
    {
        "id": "b4be3337-2dfa-44af-affb-9f65903a61c8",
        "name": "Nostrum Brewing",
        "brewery_type": "planning",
        "address_1": null,
        "address_2": null,
        "address_3": null,
        "city": "Alexandria",
        "state_province": "Virginia",
        "postal_code": "22303-2214",
        "country": "United States",
        "longitude": null,
        "latitude": null,
        "phone": null,
        "website_url": null,
        "state": "Virginia",
        "street": null
    },
    {
        "id": "cfaff05e-fab7-4530-b84e-bf10f5d439b7",
        "name": "Notch Brewing",
        "brewery_type": "micro",
        "address_1": "283R Derby St",
        "address_2": null,
        "address_3": null,
        "city": "Salem",
        "state_province": "Massachusetts",
        "postal_code": "01970-",
        "country": "United States",
        "longitude": "-70.8898969",
        "latitude": "42.52062541",
        "phone": "9782389060",
        "website_url": "http://www.notchbrewing.com",
        "state": "Massachusetts",
        "street": "283R Derby St"
    },
    {
        "id": "d32244a7-1996-4dd3-b2b4-490dde9a5c39",
        "name": "Nothing's Left Brewing Co.",
        "brewery_type": "contract",
        "address_1": "1502 E 6th St",
        "address_2": null,
        "address_3": null,
        "city": "Tulsa",
        "state_province": "Oklahoma",
        "postal_code": "74120-4026",
        "country": "United States",
        "longitude": "-95.99253596",
        "latitude": "36.14047292",
        "phone": "9186061902",
        "website_url": "http://www.nothingsleftbrew.co",
        "state": "Oklahoma",
        "street": "1502 E 6th St"
    },
    {
        "id": "db05a3a2-1c2e-4c9f-a5f2-c364db13586e",
        "name": "Nova Brewing Co",
        "brewery_type": "micro",
        "address_1": "1580 W San Bernardino Rd Ste H",
        "address_2": null,
        "address_3": null,
        "city": "Covina",
        "state_province": "California",
        "postal_code": "91722-3457",
        "country": "United States",
        "longitude": "-117.9230666",
        "latitude": "34.08867414",
        "phone": "6263889949",
        "website_url": "http://www.novabrewingco.com",
        "state": "California",
        "street": "1580 W San Bernardino Rd Ste H"
    },
    {
        "id": "8343a7db-e614-456d-8e96-6ea87da3c942",
        "name": "Novel Brewing Company",
        "brewery_type": "micro",
        "address_1": "6510 San Pablo Ave",
        "address_2": null,
        "address_3": null,
        "city": "Oakland",
        "state_province": "California",
        "postal_code": "94608-1236",
        "country": "United States",
        "longitude": "-122.282003",
        "latitude": "37.837819",
        "phone": "5109229974",
        "website_url": "http://novelbrewing.com",
        "state": "California",
        "street": "6510 San Pablo Ave"
    },
    {
        "id": "7a2b157a-7973-4e45-aacf-c3401a4cf6ac",
        "name": "Novel Strand Brewing",
        "brewery_type": "micro",
        "address_1": "305 W 1st Ave",
        "address_2": null,
        "address_3": null,
        "city": "Denver",
        "state_province": "Colorado",
        "postal_code": "80223-1509",
        "country": "United States",
        "longitude": "-104.9923182",
        "latitude": "39.718471",
        "phone": "5189613217",
        "website_url": null,
        "state": "Colorado",
        "street": "305 W 1st Ave"
    },
    {
        "id": "6024f8b3-c827-42a8-9ad9-d58b79e1916c",
        "name": "Novo Brazil Brewing Company",
        "brewery_type": "micro",
        "address_1": "901 Lane Ave # 100",
        "address_2": null,
        "address_3": null,
        "city": "Chula Vista",
        "state_province": "California",
        "postal_code": "91914-3501",
        "country": "United States",
        "longitude": "-116.9613594",
        "latitude": "32.6518762",
        "phone": "6198694274",
        "website_url": "http://www.novobrazilbrewing.com",
        "state": "California",
        "street": "901 Lane Ave # 100"
    },
    {
        "id": "44e8dfa5-7682-466d-9fcb-7ab1c42ca7bf",
        "name": "Nowhere In Particular Brewing Company",
        "brewery_type": "proprietor",
        "address_1": "6826 Loop Rd",
        "address_2": null,
        "address_3": null,
        "city": "Dayton",
        "state_province": "Ohio",
        "postal_code": "45459-2159",
        "country": "United States",
        "longitude": null,
        "latitude": null,
        "phone": "5133487282",
        "website_url": "http://www.nipbrewco.com",
        "state": "Ohio",
        "street": "6826 Loop Rd"
    },
    {
        "id": "ff1c4781-8052-4cb7-bbc5-510de9df420a",
        "name": "Numbers Brewing Company",
        "brewery_type": "brewpub",
        "address_1": "127 N Beaver St",
        "address_2": null,
        "address_3": null,
        "city": "Lisbon",
        "state_province": "Ohio",
        "postal_code": "44432-1121",
        "country": "United States",
        "longitude": "-80.76970138",
        "latitude": "40.77253357",
        "phone": "3308705305",
        "website_url": null,
        "state": "Ohio",
        "street": "127 N Beaver St"
    },
    {
        "id": "d519f6e4-88be-44b6-948e-ddbd4bf0966b",
        "name": "Nun Chuck's Brewing Co",
        "brewery_type": "micro",
        "address_1": "18609 76th Avenue West Suite #C",
        "address_2": null,
        "address_3": null,
        "city": "Lynnwood",
        "state_province": "Washington",
        "postal_code": "98037",
        "country": "United States",
        "longitude": "-122.3373596",
        "latitude": "47.82993093",
        "phone": "2066361105",
        "website_url": "https://nunchucksbrewing.com",
        "state": "Washington",
        "street": "18609 76th Avenue West Suite #C"
    },
    {
        "id": "f9c62e1c-dd1a-4e87-b3b7-c70f941976b9",
        "name": "Nutmeg Brewhouse",
        "brewery_type": "brewpub",
        "address_1": "1905 County Road 42 W",
        "address_2": null,
        "address_3": null,
        "city": "Burnsville",
        "state_province": "Minnesota",
        "postal_code": "55306-6211",
        "country": "United States",
        "longitude": "-93.30547377",
        "latitude": "44.74636346",
        "phone": "9528921438",
        "website_url": "http://www.nutmegbrewhouse.com",
        "state": "Minnesota",
        "street": "1905 County Road 42 W"
    },
    {
        "id": "370c64be-4eac-4b7b-b0d0-a40c69290320",
        "name": "Nuts and Bolts Brewing",
        "brewery_type": "micro",
        "address_1": "10 Westpoint Ln Bldg 10 Ste 204",
        "address_2": null,
        "address_3": null,
        "city": "Biddeford",
        "state_province": "Maine",
        "postal_code": "04005",
        "country": "United States",
        "longitude": null,
        "latitude": null,
        "phone": "2074681538",
        "website_url": "http://www.nutsnboltsbeer.com",
        "state": "Maine",
        "street": "10 Westpoint Ln Bldg 10 Ste 204"
    },
    {
        "id": "7585139f-7a98-4552-862c-388de1fe1d59",
        "name": "O Brother Brewing",
        "brewery_type": "micro",
        "address_1": "G3",
        "address_2": "Network Enterprise Park",
        "address_3": null,
        "city": "Kilcool",
        "state_province": "Wicklow",
        "postal_code": "A63 DX47",
        "country": "Ireland",
        "longitude": "-6.0642913",
        "latitude": "53.0986762",
        "phone": "353872028465",
        "website_url": "https://www.obrotherbrewing.com/",
        "state": "Wicklow",
        "street": "G3"
    },
    {
        "id": "5a27af9d-5a16-408e-b9c3-525ff59636c3",
        "name": "O.H.S.O. Brewery",
        "brewery_type": "brewpub",
        "address_1": "10810 N Tatum Blvd Ste 126",
        "address_2": null,
        "address_3": null,
        "city": "Phoenix",
        "state_province": "Arizona",
        "postal_code": "85028-6057",
        "country": "United States",
        "longitude": null,
        "latitude": null,
        "phone": "6029009003",
        "website_url": "http://www.ohsobrewery.com",
        "state": "Arizona",
        "street": "10810 N Tatum Blvd Ste 126"
    },
    {
        "id": "9848a316-3ec6-415c-bca6-a6a8514decf6",
        "name": "O.H.S.O. Brewery - Gilbert",
        "brewery_type": "brewpub",
        "address_1": "335 N Gilbert Rd",
        "address_2": null,
        "address_3": null,
        "city": "Gilbert",
        "state_province": "Arizona",
        "postal_code": "85234-5766",
        "country": "United States",
        "longitude": "-111.7896117",
        "latitude": "33.3508552",
        "phone": "6029009004",
        "website_url": null,
        "state": "Arizona",
        "street": "335 N Gilbert Rd"
    },
    {
        "id": "02affaa6-de24-4d80-ba61-889f9c5752d9",
        "name": "O.H.S.O. Eatery + NanoBrewery",
        "brewery_type": "brewpub",
        "address_1": "4900 E Indian School Rd",
        "address_2": null,
        "address_3": null,
        "city": "Phoenix",
        "state_province": "Arizona",
        "postal_code": "85018-5554",
        "country": "United States",
        "longitude": "-111.975831",
        "latitude": "33.49501715",
        "phone": "6029550358",
        "website_url": "http://www.ohsobrewery.com",
        "state": "Arizona",
        "street": "4900 E Indian School Rd"
    },
    {
        "id": "4214d4f6-75da-4830-b0b5-c643f8ec76ac",
        "name": "O'Connor Brewing Co",
        "brewery_type": "micro",
        "address_1": "211 W 24th St",
        "address_2": null,
        "address_3": null,
        "city": "Norfolk",
        "state_province": "Virginia",
        "postal_code": "23517-1303",
        "country": "United States",
        "longitude": "-76.28625088",
        "latitude": "36.8697822",
        "phone": "7576520059",
        "website_url": "http://www.oconnorbrewing.com",
        "state": "Virginia",
        "street": "211 W 24th St"
    },
    {
        "id": "201c624e-15c6-46ac-93ff-3ec93543d17e",
        "name": "O'Dempsey's Brewing Co",
        "brewery_type": "contract",
        "address_1": "205 Grosvenor Place, Nw",
        "address_2": null,
        "address_3": null,
        "city": "Atlanta",
        "state_province": "Georgia",
        "postal_code": "30328",
        "country": "United States",
        "longitude": null,
        "latitude": null,
        "phone": "4048450059",
        "website_url": "http://www.odempseys.com",
        "state": "Georgia",
        "street": "205 Grosvenor Place, Nw"
    },
    {
        "id": "79ed4f4a-a470-42c2-af50-955633f757b7",
        "name": "O'Fallon Brewery",
        "brewery_type": "micro",
        "address_1": "45 Progress Pkwy",
        "address_2": null,
        "address_3": null,
        "city": "Maryland Heights",
        "state_province": "Missouri",
        "postal_code": "63043-3701",
        "country": "United States",
        "longitude": "-90.44580667",
        "latitude": "38.71250421",
        "phone": "6364742337",
        "website_url": "http://www.ofallonbrewery.com",
        "state": "Missouri",
        "street": "45 Progress Pkwy"
    },
    {
        "id": "a4e0521d-ddd8-4991-9d19-456b3455ecd8",
        "name": "O'Griffs Grill & Brewhouse",
        "brewery_type": "brewpub",
        "address_1": "415 Hampshire St",
        "address_2": null,
        "address_3": null,
        "city": "Quincy",
        "state_province": "Illinois",
        "postal_code": "62301-2931",
        "country": "United States",
        "longitude": "-91.40876529",
        "latitude": "39.93330414",
        "phone": "2172242002",
        "website_url": null,
        "state": "Illinois",
        "street": "415 Hampshire St"
    },
    {
        "id": "f7121060-48a5-4779-b6bd-57a1a7642c62",
        "name": "O'Meara Bros. Brewing Company",
        "brewery_type": "brewpub",
        "address_1": "901 Bevins St",
        "address_2": null,
        "address_3": null,
        "city": "Lakeport",
        "state_province": "California",
        "postal_code": "95453-8778",
        "country": "United States",
        "longitude": "-122.9245547",
        "latitude": "39.04005267",
        "phone": "7072621234",
        "website_url": "http://www.omearabros.com",
        "state": "California",
        "street": "901 Bevins St"
    },
    {
        "id": "eabf7b18-6513-4c95-bfac-ef15d532a21a",
        "name": "O'Neil & Sons Brewing Company",
        "brewery_type": "micro",
        "address_1": "502 Half League Rd Unit A",
        "address_2": null,
        "address_3": null,
        "city": "Port Lavaca",
        "state_province": "Texas",
        "postal_code": "77979-",
        "country": "United States",
        "longitude": null,
        "latitude": null,
        "phone": "3616766023",
        "website_url": "http://www.oneilandsons.com/home",
        "state": "Texas",
        "street": "502 Half League Rd Unit A"
    },
    {
        "id": "0464077b-c2c4-4bf1-b777-b26ec800b7ea",
        "name": "O'so Brewing",
        "brewery_type": "micro",
        "address_1": "3028 Village Park Dr",
        "address_2": null,
        "address_3": null,
        "city": "Plover",
        "state_province": "Wisconsin",
        "postal_code": "54467-4300",
        "country": "United States",
        "longitude": "-89.52343053",
        "latitude": "44.45340044",
        "phone": "7152542163",
        "website_url": "http://www.osobrewing.com",
        "state": "Wisconsin",
        "street": "3028 Village Park Dr"
    },
    {
        "id": "47226f07-fbbd-4f97-88b9-e8a7a6e0f5a8",
        "name": "Oak & Iron Brewing Co",
        "brewery_type": "brewpub",
        "address_1": "18 Red Spring Rd",
        "address_2": null,
        "address_3": null,
        "city": "Andover",
        "state_province": "Massachusetts",
        "postal_code": "01810-3448",
        "country": "United States",
        "longitude": "-71.14788579",
        "latitude": "42.65614908",
        "phone": "9784754077",
        "website_url": "http://www.oakandironbrewing.com",
        "state": "Massachusetts",
        "street": "18 Red Spring Rd"
    },
    {
        "id": "ce6318f1-dd45-402a-849d-43548e7b8e6a",
        "name": "Oak and Dagger Public House",
        "brewery_type": "brewpub",
        "address_1": "18 Seaboard Ave Ste 150",
        "address_2": null,
        "address_3": null,
        "city": "Raleigh",
        "state_province": "North Carolina",
        "postal_code": "27604-8010",
        "country": "United States",
        "longitude": null,
        "latitude": null,
        "phone": "9199459382",
        "website_url": "http://www.oakanddagger.beer",
        "state": "North Carolina",
        "street": "18 Seaboard Ave Ste 150"
    },
    {
        "id": "e5b56c80-41a9-4101-aeec-ffb683617611",
        "name": "Oak Cliff Brewing Co",
        "brewery_type": "planning",
        "address_1": null,
        "address_2": null,
        "address_3": null,
        "city": "Dallas",
        "state_province": "Texas",
        "postal_code": "75224-1305",
        "country": "United States",
        "longitude": null,
        "latitude": null,
        "phone": null,
        "website_url": null,
        "state": "Texas",
        "street": null
    },
    {
        "id": "9fd8f231-917e-4a85-9511-0c7eda622d18",
        "name": "Oak Creek Brewery & Grill",
        "brewery_type": "brewpub",
        "address_1": "336 State Route 179 Ste D201",
        "address_2": null,
        "address_3": null,
        "city": "Sedona",
        "state_province": "Arizona",
        "postal_code": "86336-6183",
        "country": "United States",
        "longitude": null,
        "latitude": null,
        "phone": "9282823300",
        "website_url": null,
        "state": "Arizona",
        "street": "336 State Route 179 Ste D201"
    },
    {
        "id": "1e6a90d9-5819-4bf8-90b9-5099daa6f16f",
        "name": "Oak Creek Brewing Co",
        "brewery_type": "brewpub",
        "address_1": "2050 Yavapai Dr Ste 2C",
        "address_2": null,
        "address_3": null,
        "city": "Sedona",
        "state_province": "Arizona",
        "postal_code": "86336-4559",
        "country": "United States",
        "longitude": null,
        "latitude": null,
        "phone": "9282039441",
        "website_url": "http://www.oakcreekbrew.com",
        "state": "Arizona",
        "street": "2050 Yavapai Dr Ste 2C"
    },
    {
        "id": "8b3d8e4c-661d-446b-bc66-b1b738feca80",
        "name": "Oak Grove Brewing Company",
        "brewery_type": "planning",
        "address_1": null,
        "address_2": null,
        "address_3": null,
        "city": "Glendale",
        "state_province": "California",
        "postal_code": "91208-1836",
        "country": "United States",
        "longitude": "-118.2462486",
        "latitude": "34.192912",
        "phone": "8183199577",
        "website_url": "http://Www.oakgrovebrewingcompany.com",
        "state": "California",
        "street": null
    },
    {
        "id": "7f1f3bd0-82cd-46a7-99b0-0fded816d380",
        "name": "Oak Highlands Brewery",
        "brewery_type": "micro",
        "address_1": "10484 Brockwood Rd",
        "address_2": null,
        "address_3": null,
        "city": "Dallas",
        "state_province": "Texas",
        "postal_code": "75238-1640",
        "country": "United States",
        "longitude": null,
        "latitude": null,
        "phone": "4698029455",
        "website_url": "http://www.ohbrewery.com",
        "state": "Texas",
        "street": "10484 Brockwood Rd"
    },
    {
        "id": "782d72e8-ff4a-449e-a2c0-76a5d4ae3903",
        "name": "Oak Hills Brewing",
        "brewery_type": "micro",
        "address_1": "12221 Poplar St Ste 3",
        "address_2": null,
        "address_3": null,
        "city": "Hesperia",
        "state_province": "California",
        "postal_code": "92344-9287",
        "country": "United States",
        "longitude": "-117.3969876",
        "latitude": "34.4156358",
        "phone": "7602448278",
        "website_url": "http://www.oakhillsbrewing.com",
        "state": "California",
        "street": "12221 Poplar St Ste 3"
    },
    {
        "id": "4922f203-3290-4063-a879-0009376395bc",
        "name": "Oak Park Brewing Co",
        "brewery_type": "brewpub",
        "address_1": "3514 Broadway",
        "address_2": null,
        "address_3": null,
        "city": "Sacramento",
        "state_province": "California",
        "postal_code": "95817-2825",
        "country": "United States",
        "longitude": "-121.4681046",
        "latitude": "38.55062715",
        "phone": "9166602723",
        "website_url": "http://www.opbrewco.com",
        "state": "California",
        "street": "3514 Broadway"
    },
    {
        "id": "63c296f9-29e3-4b2e-9f52-2064578114ee",
        "name": "Oak Park Brewing Company",
        "brewery_type": "brewpub",
        "address_1": "155 S Oak Park Ave",
        "address_2": null,
        "address_3": null,
        "city": "Oak Park",
        "state_province": "Illinois",
        "postal_code": "60302-2901",
        "country": "United States",
        "longitude": "-87.79456064",
        "latitude": "41.886465",
        "phone": "8475425523",
        "website_url": "http://www.oakparkbeer.com",
        "state": "Illinois",
        "street": "155 S Oak Park Ave"
    },
    {
        "id": "36159780-2e66-42c6-92ca-54b98c9d9b56",
        "name": "Oak Pond Brewing Co",
        "brewery_type": "micro",
        "address_1": "101 Oak Pond Rd",
        "address_2": null,
        "address_3": null,
        "city": "Skowhegan",
        "state_province": "Maine",
        "postal_code": "04976-4602",
        "country": "United States",
        "longitude": null,
        "latitude": null,
        "phone": "2074743233",
        "website_url": "http://www.oakpondbrewery.com",
        "state": "Maine",
        "street": "101 Oak Pond Rd"
    },
    {
        "id": "b4089ac0-ba23-40c3-91c5-7d7f3f2aec1d",
        "name": "Oak Road Brewery",
        "brewery_type": "micro",
        "address_1": "108 E 3rd North St Ste C",
        "address_2": null,
        "address_3": null,
        "city": "Summerville",
        "state_province": "South Carolina",
        "postal_code": "29483-6810",
        "country": "United States",
        "longitude": null,
        "latitude": null,
        "phone": "8436959886",
        "website_url": "http://www.oakroadbrewery.com",
        "state": "South Carolina",
        "street": "108 E 3rd North St Ste C"
    },
    {
        "id": "f7977b5d-4e21-4f63-aede-1c5ca36e519a",
        "name": "Oakbrook Brewing Company",
        "brewery_type": "brewpub",
        "address_1": "628 Park Ave",
        "address_2": null,
        "address_3": null,
        "city": "Reading",
        "state_province": "Pennsylvania",
        "postal_code": "19611-1926",
        "country": "United States",
        "longitude": "-75.93478919",
        "latitude": "40.31684944",
        "phone": "4847555289",
        "website_url": "http://www.oakbrookbrew.com",
        "state": "Pennsylvania",
        "street": "628 Park Ave"
    },
    {
        "id": "024ae123-c899-413e-8964-801b01d74d6e",
        "name": "Oaken Barrel Brewing Co",
        "brewery_type": "brewpub",
        "address_1": "50 Airport Pkwy Ste L",
        "address_2": null,
        "address_3": null,
        "city": "Greenwood",
        "state_province": "Indiana",
        "postal_code": "46143-1438",
        "country": "United States",
        "longitude": null,
        "latitude": null,
        "phone": "3178872287",
        "website_url": "http://www.oakenbarrel.com",
        "state": "Indiana",
        "street": "50 Airport Pkwy Ste L"
    },
    {
        "id": "4d8ee740-1b56-49f1-bb3f-ba452fc28401",
        "name": "Oakenbrau",
        "brewery_type": "planning",
        "address_1": null,
        "address_2": null,
        "address_3": null,
        "city": "Milwaukie",
        "state_province": "Oregon",
        "postal_code": "97267-3838",
        "country": "United States",
        "longitude": null,
        "latitude": null,
        "phone": "9715063126",
        "website_url": "http://www.oakenbrau.com",
        "state": "Oregon",
        "street": null
    },
    {
        "id": "d57fb73d-3582-4f8d-8b86-8daea30c36f2",
        "name": "Oakland United Beerworks",
        "brewery_type": "micro",
        "address_1": "3775 Alameda Ave Ste G",
        "address_2": null,
        "address_3": null,
        "city": "Oakland",
        "state_province": "California",
        "postal_code": "94601-3920",
        "country": "United States",
        "longitude": "-122.2720141",
        "latitude": "37.79470818",
        "phone": "5102518898",
        "website_url": "http://www.oaklandunitedbeerworks.com",
        "state": "California",
        "street": "3775 Alameda Ave Ste G"
    },
    {
        "id": "25beda23-8920-4a0a-a7a7-fd8b972ac1cd",
        "name": "Oaklyn Springs Brewery",
        "brewery_type": "planning",
        "address_1": null,
        "address_2": null,
        "address_3": null,
        "city": "Fuquay Varina",
        "state_province": "North Carolina",
        "postal_code": "27526-5499",
        "country": "United States",
        "longitude": null,
        "latitude": null,
        "phone": "9192800046",
        "website_url": "http://www.oaklynspringsbrewery.com",
        "state": "North Carolina",
        "street": null
    },
    {
        "id": "ffd62db7-780c-4b0d-9f42-812ddefb2305",
        "name": "Oakshire Brewing",
        "brewery_type": "micro",
        "address_1": "1055 Madera St",
        "address_2": null,
        "address_3": null,
        "city": "Eugene",
        "state_province": "Oregon",
        "postal_code": "97402-2019",
        "country": "United States",
        "longitude": "-123.1410241",
        "latitude": "44.07299355",
        "phone": "5416884555",
        "website_url": "http://www.oakbrew.com",
        "state": "Oregon",
        "street": "1055 Madera St"
    },
    {
        "id": "11e18963-8156-4941-b7e6-457b01b6d19f",
        "name": "Oasis Brewery",
        "brewery_type": "micro",
        "address_1": "3257 N Lowell Blvd",
        "address_2": null,
        "address_3": null,
        "city": "Denver",
        "state_province": "Colorado",
        "postal_code": "80211",
        "country": "United States",
        "longitude": null,
        "latitude": null,
        "phone": "3033174369",
        "website_url": "http://www.oasisbeer.com",
        "state": "Colorado",
        "street": "3257 N Lowell Blvd"
    },
    {
        "id": "5398673e-abb7-4855-ab70-276b95e0147f",
        "name": "Oasis Texas Brewing Company",
        "brewery_type": "micro",
        "address_1": "6548 Comanche Trl Ste 301",
        "address_2": null,
        "address_3": null,
        "city": "Austin",
        "state_province": "Texas",
        "postal_code": "78732-1210",
        "country": "United States",
        "longitude": "-98.151206",
        "latitude": "30.043267",
        "phone": "5122849407",
        "website_url": "http://www.otxbc.com",
        "state": "Texas",
        "street": "6548 Comanche Trl Ste 301"
    },
    {
        "id": "58bc0ff5-5ada-4b37-a5c0-325746773116",
        "name": "Oban Bay",
        "brewery_type": "micro",
        "address_1": "60 George Street",
        "address_2": null,
        "address_3": null,
        "city": "Oban",
        "state_province": "Argyll",
        "postal_code": "PA34 5SD",
        "country": "Scotland",
        "longitude": "-5.4725942",
        "latitude": "56.4146637",
        "phone": "1631564492",
        "website_url": "http://obanbaybrewery.co.uk/",
        "state": "Argyll",
        "street": "60 George Street"
    },
    {
        "id": "3d4c07b2-bb81-4da0-b01c-3dbb529792ff",
        "name": "Obec Brewing",
        "brewery_type": "micro",
        "address_1": "1144 NW 52nd St",
        "address_2": null,
        "address_3": null,
        "city": "Seattle",
        "state_province": "Washington",
        "postal_code": "98107-5129",
        "country": "United States",
        "longitude": "-122.3725178",
        "latitude": "47.6666586",
        "phone": "2066590082",
        "website_url": "http://www.obecbrewing.com",
        "state": "Washington",
        "street": "1144 NW 52nd St"
    },
    {
        "id": "29534279-4d68-4740-98b0-c02948f24fcc",
        "name": "Obed & Isaac's",
        "brewery_type": "micro",
        "address_1": "500 S 6th St",
        "address_2": null,
        "address_3": null,
        "city": "Springfield",
        "state_province": "Illinois",
        "postal_code": "62701-1810",
        "country": "United States",
        "longitude": "-89.647885",
        "latitude": "39.797079",
        "phone": "2176700627",
        "website_url": "http://www.connhospitalitygroup.com",
        "state": "Illinois",
        "street": "500 S 6th St"
    },
    {
        "id": "10b8d072-1ccc-45ab-93e4-08cfd8134d67",
        "name": "Obed & Isaac's Microbrewery and Eatery - Peoria",
        "brewery_type": "brewpub",
        "address_1": "321 NE Madison Ave",
        "address_2": null,
        "address_3": null,
        "city": "Peoria",
        "state_province": "Illinois",
        "postal_code": "61603",
        "country": "United States",
        "longitude": "-89.58865914",
        "latitude": "40.69577241",
        "phone": "3093060190",
        "website_url": null,
        "state": "Illinois",
        "street": "321 NE Madison Ave"
    },
    {
        "id": "59312c81-d887-4e24-a35b-a9d04075d490",
        "name": "Ober Brewing, LLC.",
        "brewery_type": "micro",
        "address_1": "1443 Lakeside Cir",
        "address_2": null,
        "address_3": null,
        "city": "Salem",
        "state_province": "Virginia",
        "postal_code": "24153-4144",
        "country": "United States",
        "longitude": "-80.03027545",
        "latitude": "37.30474414",
        "phone": "5403925418",
        "website_url": "http://www.oberbrewing.com",
        "state": "Virginia",
        "street": "1443 Lakeside Cir"
    },
    {
        "id": "d24860e3-dfb2-4a38-b861-8a472326e7ac",
        "name": "Oblivion Brewing Co",
        "brewery_type": "micro",
        "address_1": "63027 Plateau Dr Ste 4",
        "address_2": null,
        "address_3": null,
        "city": "Bend",
        "state_province": "Oregon",
        "postal_code": "97701-3855",
        "country": "United States",
        "longitude": "-121.2933829",
        "latitude": "44.08881821",
        "phone": "5417283509",
        "website_url": "http://www.oblivionbrewingco.com",
        "state": "Oregon",
        "street": "63027 Plateau Dr Ste 4"
    },
    {
        "id": "1f49e95a-580d-4f3c-896d-d1ad0e3691e1",
        "name": "Obscurity",
        "brewery_type": "planning",
        "address_1": null,
        "address_2": null,
        "address_3": null,
        "city": "Elburn",
        "state_province": "Illinois",
        "postal_code": "60119-7012",
        "country": "United States",
        "longitude": null,
        "latitude": null,
        "phone": null,
        "website_url": "http://www.drinkobscurity.com",
        "state": "Illinois",
        "street": null
    },
    {
        "id": "c1385831-5303-4caf-bd9f-1ecd253e6936",
        "name": "Occidental Brewing",
        "brewery_type": "brewpub",
        "address_1": "865 S Rock Blvd",
        "address_2": null,
        "address_3": null,
        "city": "Sparks",
        "state_province": "Nevada",
        "postal_code": "89431",
        "country": "United States",
        "longitude": "-119.7600161",
        "latitude": "39.50114854",
        "phone": "7753984200",
        "website_url": null,
        "state": "Nevada",
        "street": "865 S Rock Blvd"
    },
    {
        "id": "7277f89e-0dc3-45a8-b943-a1decdf91a9e",
        "name": "Occidental Brewing",
        "brewery_type": "micro",
        "address_1": "6635 N Baltimore Ave Ste 100",
        "address_2": null,
        "address_3": null,
        "city": "Portland",
        "state_province": "Oregon",
        "postal_code": "97203-5465",
        "country": "United States",
        "longitude": "-122.760861",
        "latitude": "45.588728",
        "phone": "5037197102",
        "website_url": "http://www.occidentalbrewing.com",
        "state": "Oregon",
        "street": "6635 N Baltimore Ave Ste 100"
    },
    {
        "id": "11f1fe94-506f-4117-b2b7-47346d9f094d",
        "name": "Ocean Beach Brewery",
        "brewery_type": "brewpub",
        "address_1": "5041 Newport Ave",
        "address_2": null,
        "address_3": null,
        "city": "San Diego",
        "state_province": "California",
        "postal_code": "92107-3009",
        "country": "United States",
        "longitude": "-117.252024",
        "latitude": "32.747109",
        "phone": "6199558053",
        "website_url": null,
        "state": "California",
        "street": "5041 Newport Ave"
    },
    {
        "id": "9d9fecf0-04a2-4fdb-bb1f-3d50e8a79427",
        "name": "Ocean City Brewing Company",
        "brewery_type": "brewpub",
        "address_1": "5509 Coastal Hwy",
        "address_2": null,
        "address_3": null,
        "city": "Ocean City",
        "state_province": "Maryland",
        "postal_code": "21842-3144",
        "country": "United States",
        "longitude": "-75.06838761",
        "latitude": "38.37965759",
        "phone": "4436646842",
        "website_url": "http://www.ocbrewingcompany.com",
        "state": "Maryland",
        "street": "5509 Coastal Hwy"
    },
    {
        "id": "872b17f6-785d-4116-93af-a1144865ed17",
        "name": "Ocean Sun Brewing",
        "brewery_type": "micro",
        "address_1": "3030 Curry Ford Road",
        "address_2": null,
        "address_3": null,
        "city": "Orlando",
        "state_province": "Florida",
        "postal_code": "32806-3376",
        "country": "United States",
        "longitude": "-81.3249533",
        "latitude": "28.5243367",
        "phone": "4077455551",
        "website_url": null,
        "state": "Florida",
        "street": "3030 Curry Ford Road"
    },
    {
        "id": "b891398a-d135-40b8-a824-58dcaa31048d",
        "name": "Ocean View Community Brewing Co.",
        "brewery_type": "planning",
        "address_1": null,
        "address_2": null,
        "address_3": null,
        "city": "Norfolk",
        "state_province": "Virginia",
        "postal_code": "23503-4838",
        "country": "United States",
        "longitude": null,
        "latitude": null,
        "phone": "7576514170",
        "website_url": null,
        "state": "Virginia",
        "street": null
    },
    {
        "id": "673bb920-1816-468a-a4dc-1d869a7adb69",
        "name": "Oceanside Ale Works",
        "brewery_type": "micro",
        "address_1": "1800 Ord Way",
        "address_2": null,
        "address_3": null,
        "city": "Oceanside",
        "state_province": "California",
        "postal_code": "92056-1502",
        "country": "United States",
        "longitude": "-117.2727432",
        "latitude": "33.21200937",
        "phone": "7607214253",
        "website_url": "http://www.oceansidealeworks.net",
        "state": "California",
        "street": "1800 Ord Way"
    },
    {
        "id": "64f90c02-c3f8-4dec-a7c1-ea176b161d88",
        "name": "Oceanside Brewing Company",
        "brewery_type": "micro",
        "address_1": "312 Via Del Norte",
        "address_2": null,
        "address_3": null,
        "city": "Oceanside",
        "state_province": "California",
        "postal_code": "92058-1232",
        "country": "United States",
        "longitude": "-117.3529573",
        "latitude": "33.21369735",
        "phone": "7604537900",
        "website_url": "http://www.oceansidebrewingco.com",
        "state": "California",
        "street": "312 Via Del Norte"
    },
    {
        "id": "197b6b80-0643-419f-a39e-6b70b0113f40",
        "name": "Ocelot Brewing Co",
        "brewery_type": "micro",
        "address_1": "23600 Overland Dr Ste 180",
        "address_2": null,
        "address_3": null,
        "city": "Dulles",
        "state_province": "Virginia",
        "postal_code": "20166-4441",
        "country": "United States",
        "longitude": null,
        "latitude": null,
        "phone": "7036652146",
        "website_url": "http://www.ocelotbrewing.com",
        "state": "Virginia",
        "street": "23600 Overland Dr Ste 180"
    },
    {
        "id": "74626ac8-014e-43ff-948d-32bea22ed086",
        "name": "Ochoco Brewing Co",
        "brewery_type": "micro",
        "address_1": "380 N Main St",
        "address_2": null,
        "address_3": null,
        "city": "Prineville",
        "state_province": "Oregon",
        "postal_code": "97754-1852",
        "country": "United States",
        "longitude": "-120.8469675",
        "latitude": "44.30359041",
        "phone": "5412330883",
        "website_url": "http://www.ochocobrewing.com",
        "state": "Oregon",
        "street": "380 N Main St"
    },
    {
        "id": "7028c787-cdf8-4eea-8d31-a7481eacd912",
        "name": "Ocmulgee Brewpub",
        "brewery_type": "brewpub",
        "address_1": "484 2nd St",
        "address_2": null,
        "address_3": null,
        "city": "Macon",
        "state_province": "Georgia",
        "postal_code": "31201-2734",
        "country": "United States",
        "longitude": "-83.62932833",
        "latitude": "32.8360763",
        "phone": "4782542848",
        "website_url": "http://www.ocmulgeebrewpub.com",
        "state": "Georgia",
        "street": "484 2nd St"
    },
    {
        "id": "93d43473-5c16-454b-ba92-4586a4e22abc",
        "name": "Oconee Brewing Company",
        "brewery_type": "micro",
        "address_1": "202 N West St",
        "address_2": null,
        "address_3": null,
        "city": "Greensboro",
        "state_province": "Georgia",
        "postal_code": "30642-1124",
        "country": "United States",
        "longitude": null,
        "latitude": null,
        "phone": "7069201177",
        "website_url": "http://www.oconeebrewingco.com",
        "state": "Georgia",
        "street": "202 N West St"
    },
    {
        "id": "c9edf2c6-268f-459c-9223-f41fcf2a710c",
        "name": "Octopi Brewing / Untitled Art",
        "brewery_type": "micro",
        "address_1": "1131 Uniek Dr",
        "address_2": null,
        "address_3": null,
        "city": "Waunakee",
        "state_province": "Wisconsin",
        "postal_code": "53597-8947",
        "country": "United States",
        "longitude": "-89.4223579",
        "latitude": "43.1858364",
        "phone": "6086204705",
        "website_url": "http://www.octopibrewing.com",
        "state": "Wisconsin",
        "street": "1131 Uniek Dr"
    },
    {
        "id": "0f063272-e447-4b7a-84d2-125dac5482cd",
        "name": "Oda Restaurant",
        "brewery_type": "brewpub",
        "address_1": "1500 Owens St",
        "address_2": null,
        "address_3": null,
        "city": "San Francisco",
        "state_province": "California",
        "postal_code": "94158-2334",
        "country": "United States",
        "longitude": "-122.3954096",
        "latitude": "37.7687392",
        "phone": "4155589450",
        "website_url": "http://www.barodasf.com",
        "state": "California",
        "street": "1500 Owens St"
    },
    {
        "id": "78b74aa2-7f5e-4ce4-96ad-f36ffd789fe5",
        "name": "Odd Alewives Farm Brewery",
        "brewery_type": "micro",
        "address_1": "99 Old Rte One",
        "address_2": null,
        "address_3": null,
        "city": "Waldoboro",
        "state_province": "Maine",
        "postal_code": "04572",
        "country": "United States",
        "longitude": null,
        "latitude": null,
        "phone": "2077908406",
        "website_url": "http://www.oddalewives.com",
        "state": "Maine",
        "street": "99 Old Rte One"
    },
    {
        "id": "bd90a960-3620-4563-98d1-4b77f5c69a62",
        "name": "Odd Breed Wild Ales",
        "brewery_type": "micro",
        "address_1": "50 NE 1st St",
        "address_2": null,
        "address_3": null,
        "city": "Pompano Beach",
        "state_province": "Florida",
        "postal_code": "33060-6602",
        "country": "United States",
        "longitude": "-80.124792",
        "latitude": "26.23234049",
        "phone": "8646506210",
        "website_url": "http://www.oddbreed.com",
        "state": "Florida",
        "street": "50 NE 1st St"
    },
    {
        "id": "52a1d246-495c-4d4a-9166-5fed18ae10f0",
        "name": "Odd Man Rush",
        "brewery_type": "micro",
        "address_1": "10930 Mausel St Ste A1",
        "address_2": null,
        "address_3": null,
        "city": "Eagle River",
        "state_province": "Alaska",
        "postal_code": "99577-8095",
        "country": "United States",
        "longitude": "-149.580902",
        "latitude": "61.320013",
        "phone": "9076962337",
        "website_url": "http://www.oddmanrushbrewing.com",
        "state": "Alaska",
        "street": "10930 Mausel St Ste A1"
    },
    {
        "id": "e96f54c0-fca8-4a58-8cc6-8b538b18b55a",
        "name": "Odd Otter Brewing Company",
        "brewery_type": "micro",
        "address_1": "716 Pacific Ave",
        "address_2": null,
        "address_3": null,
        "city": "Tacoma",
        "state_province": "Washington",
        "postal_code": "98402-5208",
        "country": "United States",
        "longitude": "-122.437927",
        "latitude": "47.250289",
        "phone": "2532794871",
        "website_url": "http://www.oddotterbrewing.com",
        "state": "Washington",
        "street": "716 Pacific Ave"
    },
    {
        "id": "3718d688-1dab-4e58-835d-b76ed69ba1cb",
        "name": "Odd Side Ales",
        "brewery_type": "micro",
        "address_1": "41 Washington Ave Ste 160",
        "address_2": null,
        "address_3": null,
        "city": "Grand Haven",
        "state_province": "Michigan",
        "postal_code": "49417-1392",
        "country": "United States",
        "longitude": null,
        "latitude": null,
        "phone": "6169357326",
        "website_url": "http://www.oddsideales.com",
        "state": "Michigan",
        "street": "41 Washington Ave Ste 160"
    },
    {
        "id": "dc89cfaa-5024-46ca-b73f-ef654ed15a16",
        "name": "Odd Side Ales Production Facility",
        "brewery_type": "micro",
        "address_1": "1810 Industrial Dr",
        "address_2": null,
        "address_3": null,
        "city": "Grand Haven",
        "state_province": "Michigan",
        "postal_code": "49417-8930",
        "country": "United States",
        "longitude": "-86.1983973",
        "latitude": "43.03124408",
        "phone": null,
        "website_url": null,
        "state": "Michigan",
        "street": "1810 Industrial Dr"
    },
    {
        "id": "b257714f-ad0b-4898-a9bc-3c6e29dc70a1",
        "name": "Odd13 Brewing Inc",
        "brewery_type": "micro",
        "address_1": "301 E Simpson St",
        "address_2": null,
        "address_3": null,
        "city": "Lafayette",
        "state_province": "Colorado",
        "postal_code": "80026-2325",
        "country": "United States",
        "longitude": "-105.0878839",
        "latitude": "39.9983626",
        "phone": "3039974164",
        "website_url": "http://www.odd13brewing.com",
        "state": "Colorado",
        "street": "301 E Simpson St"
    },
    {
        "id": "ec524746-888e-4384-9f87-f8dc1af6428e",
        "name": "Odd13 Production Facility",
        "brewery_type": "micro",
        "address_1": "505 Stacy Ct Ste D",
        "address_2": null,
        "address_3": null,
        "city": "Lafayette",
        "state_province": "Colorado",
        "postal_code": "80026",
        "country": "United States",
        "longitude": null,
        "latitude": null,
        "phone": null,
        "website_url": null,
        "state": "Colorado",
        "street": "505 Stacy Ct Ste D"
    },
    {
        "id": "3d6ce7c7-5481-48c6-afd7-4b68dccec4dc",
        "name": "Oddball Brewing",
        "brewery_type": "micro",
        "address_1": "6 Glass St",
        "address_2": null,
        "address_3": null,
        "city": "Suncook",
        "state_province": "New Hampshire",
        "postal_code": "03275-1512",
        "country": "United States",
        "longitude": "-71.45239635",
        "latitude": "43.1308185",
        "phone": "6032105654",
        "website_url": "http://www.oddballbrewingnh.com",
        "state": "New Hampshire",
        "street": "6 Glass St"
    },
    {
        "id": "d496c903-0a57-4e47-a859-3dd0aed44a71",
        "name": "OddPitch Brewing Co.",
        "brewery_type": "planning",
        "address_1": null,
        "address_2": null,
        "address_3": null,
        "city": "Missoula",
        "state_province": "Montana",
        "postal_code": "59801-4473",
        "country": "United States",
        "longitude": null,
        "latitude": null,
        "phone": "4063605363",
        "website_url": "http://www.oddpitch.com",
        "state": "Montana",
        "street": null
    },
    {
        "id": "2f6b7d0c-9a11-46bf-ab17-7bc72f9868a0",
        "name": "Oddstory Brewing Co",
        "brewery_type": "micro",
        "address_1": "336 E Mlk",
        "address_2": null,
        "address_3": null,
        "city": "Chattanooga",
        "state_province": "Tennessee",
        "postal_code": "37403-4121",
        "country": "United States",
        "longitude": null,
        "latitude": null,
        "phone": "2563097208",
        "website_url": "http://www.oddstorybrewing.co",
        "state": "Tennessee",
        "street": "336 E Mlk"
    },
    {
        "id": "c922d09e-1c59-44c2-906e-1cd7493b5867",
        "name": "Oddwood Ales",
        "brewery_type": "brewpub",
        "address_1": "3108 Manor Rd",
        "address_2": null,
        "address_3": null,
        "city": "Austin",
        "state_province": "Texas",
        "postal_code": "78723-5719",
        "country": "United States",
        "longitude": null,
        "latitude": null,
        "phone": null,
        "website_url": "http://www.oddwoodales.com",
        "state": "Texas",
        "street": "3108 Manor Rd"
    },
    {
        "id": "be4c4685-fff4-40c5-9b6a-96e25f809c09",
        "name": "Ode Brewing Co.",
        "brewery_type": "brewpub",
        "address_1": "3233 N Mesa St Spot 301",
        "address_2": null,
        "address_3": null,
        "city": "El Paso",
        "state_province": "Texas",
        "postal_code": "79902-2337",
        "country": "United States",
        "longitude": null,
        "latitude": null,
        "phone": "9153514377",
        "website_url": null,
        "state": "Texas",
        "street": "3233 N Mesa St Spot 301"
    },
    {
        "id": "63fd2c11-5530-4de9-8fe2-8fbf65e3a49f",
        "name": "Odell Brewing Co",
        "brewery_type": "regional",
        "address_1": "800 E Lincoln Ave",
        "address_2": null,
        "address_3": null,
        "city": "Fort Collins",
        "state_province": "Colorado",
        "postal_code": "80524-2507",
        "country": "United States",
        "longitude": "-105.0633327",
        "latitude": "40.5895239",
        "phone": "9704989070",
        "website_url": "http://www.odellbrewing.com",
        "state": "Colorado",
        "street": "800 E Lincoln Ave"
    },
    {
        "id": "504a4dee-ca0d-49cf-87dc-259504ae153c",
        "name": "Odell Brewing Co - Denver",
        "brewery_type": "micro",
        "address_1": "2945 Larimer St",
        "address_2": null,
        "address_3": null,
        "city": "Denver",
        "state_province": "Colorado",
        "postal_code": "80205-2308",
        "country": "United States",
        "longitude": "-104.9810078",
        "latitude": "39.7621447",
        "phone": null,
        "website_url": null,
        "state": "Colorado",
        "street": "2945 Larimer St"
    },
    {
        "id": "ed47cd56-6311-47e5-9905-eb5ecca339ff",
        "name": "Odin Brewing Co",
        "brewery_type": "brewpub",
        "address_1": "402 Baker Blvd",
        "address_2": null,
        "address_3": null,
        "city": "Tukwila",
        "state_province": "Washington",
        "postal_code": "98188-2905",
        "country": "United States",
        "longitude": "-122.2520643",
        "latitude": "47.4586237",
        "phone": "2062432363",
        "website_url": "http://www.odinbrewing.com",
        "state": "Washington",
        "street": "402 Baker Blvd"
    },
    {
        "id": "4520147b-3286-4029-bbc7-c6faf486a166",
        "name": "Odra Barrels",
        "brewery_type": "micro",
        "address_1": "Mi\u0119dzyleska 2/4",
        "address_2": null,
        "address_3": null,
        "city": "Wroc\u0142aw",
        "state_province": "dolno\u015bl\u0105skie",
        "postal_code": "50-514",
        "country": "Poland",
        "longitude": "17.0706993",
        "latitude": "51.0817502",
        "phone": null,
        "website_url": null,
        "state": "dolno\u015bl\u0105skie",
        "street": "Mi\u0119dzyleska 2/4"
    },
    {
        "id": "319af5ac-111d-487e-81d2-0b25f910602d",
        "name": "Odyssey Beerwerks",
        "brewery_type": "micro",
        "address_1": "5535 W 56th Ave Ste 107",
        "address_2": null,
        "address_3": null,
        "city": "Arvada",
        "state_province": "Colorado",
        "postal_code": "80002-2806",
        "country": "United States",
        "longitude": null,
        "latitude": null,
        "phone": "3034210772",
        "website_url": "http://www.odysseybeerwerks.com",
        "state": "Colorado",
        "street": "5535 W 56th Ave Ste 107"
    },
    {
        "id": "36e353c7-895b-4ebd-ba43-01ce7b083c94",
        "name": "OEC Brewing",
        "brewery_type": "micro",
        "address_1": "7 Fox Hollow Rd",
        "address_2": null,
        "address_3": null,
        "city": "Oxford",
        "state_province": "Connecticut",
        "postal_code": "06478-3162",
        "country": "United States",
        "longitude": null,
        "latitude": null,
        "phone": "2032952831",
        "website_url": "http://www.oecbrewing.com",
        "state": "Connecticut",
        "street": "7 Fox Hollow Rd"
    },
    {
        "id": "e81874e0-d418-4c9e-aaf6-6420272a1796",
        "name": "Off Camber Brewing",
        "brewery_type": "micro",
        "address_1": "6506 114th Avenue Ct E",
        "address_2": null,
        "address_3": null,
        "city": "Puyallup",
        "state_province": "Washington",
        "postal_code": "98372-2811",
        "country": "United States",
        "longitude": "-122.2772454",
        "latitude": "47.1989594",
        "phone": "2533128796",
        "website_url": "https://www.offcamberbrewing.com",
        "state": "Washington",
        "street": "6506 114th Avenue Ct E"
    },
    {
        "id": "c8e69ab9-60b6-44b9-8188-cf3d719b8d82",
        "name": "Off Color Brewing",
        "brewery_type": "micro",
        "address_1": "3925 W Dickens Ave",
        "address_2": null,
        "address_3": null,
        "city": "Chicago",
        "state_province": "Illinois",
        "postal_code": "60647-3453",
        "country": "United States",
        "longitude": "-87.72538437",
        "latitude": "41.91892697",
        "phone": null,
        "website_url": "http://www.offcolorbrewing.com",
        "state": "Illinois",
        "street": "3925 W Dickens Ave"
    },
    {
        "id": "970d787c-1b48-4cf7-a213-0c1845db1391",
        "name": "Off Main Brewing",
        "brewery_type": "planning",
        "address_1": null,
        "address_2": null,
        "address_3": null,
        "city": "Davidson",
        "state_province": "North Carolina",
        "postal_code": "28036-6945",
        "country": "United States",
        "longitude": null,
        "latitude": null,
        "phone": "5124153075",
        "website_url": "http://OffMainBrewing.com",
        "state": "North Carolina",
        "street": null
    },
    {
        "id": "89cd06c5-f8ec-4d6a-9156-420f49bd1d2a",
        "name": "Off Square Brewing",
        "brewery_type": "brewpub",
        "address_1": "11000 Delaware Pkwy",
        "address_2": null,
        "address_3": null,
        "city": "Crown Point",
        "state_province": "Indiana",
        "postal_code": "46307-7895",
        "country": "United States",
        "longitude": "-87.329728",
        "latitude": "41.417636",
        "phone": "2193108898",
        "website_url": "http://www.offsquarebrewing.com",
        "state": "Indiana",
        "street": "11000 Delaware Pkwy"
    },
    {
        "id": "3208af9a-4b72-4023-827c-8f41336a6227",
        "name": "Off The Cuff Brewing Company",
        "brewery_type": "planning",
        "address_1": null,
        "address_2": null,
        "address_3": null,
        "city": "West Brookfield",
        "state_province": "Massachusetts",
        "postal_code": "01585-6023",
        "country": "United States",
        "longitude": null,
        "latitude": null,
        "phone": "4132810525",
        "website_url": null,
        "state": "Massachusetts",
        "street": null
    },
    {
        "id": "ff0367d9-f73e-4002-b6ff-1fafb6649c86",
        "name": "Off the Grid Brewing Co",
        "brewery_type": "micro",
        "address_1": "13615 John Glenn Rd Ste A",
        "address_2": null,
        "address_3": null,
        "city": "Apple Valley",
        "state_province": "California",
        "postal_code": "92308-5730",
        "country": "United States",
        "longitude": "-117.1827885",
        "latitude": "34.49900885",
        "phone": "7602475600",
        "website_url": "http://www.otgbrew.com",
        "state": "California",
        "street": "13615 John Glenn Rd Ste A"
    },
    {
        "id": "cf1aec2c-18d4-42cc-a4e2-f8407b060607",
        "name": "Off Track Brewing Company",
        "brewery_type": "micro",
        "address_1": "227 Stark Street",
        "address_2": null,
        "address_3": null,
        "city": "Cincinnati",
        "state_province": "Ohio",
        "postal_code": "45214",
        "country": "United States",
        "longitude": "-84.522243",
        "latitude": "39.118674",
        "phone": "5136044527",
        "website_url": "http://www.OffTrackBrewingCompany.com",
        "state": "Ohio",
        "street": "227 Stark Street"
    },
    {
        "id": "0a92f902-3d1d-4ef8-9351-5352615cc749",
        "name": "Off-Kilter Brewing",
        "brewery_type": "micro",
        "address_1": "15810 Carbrey Ave",
        "address_2": null,
        "address_3": null,
        "city": "South Beloit",
        "state_province": "Illinois",
        "postal_code": "61080",
        "country": "United States",
        "longitude": "-89.06082453",
        "latitude": "42.48966938",
        "phone": null,
        "website_url": "http://www.OffKilterBrewing.com",
        "state": "Illinois",
        "street": "15810 Carbrey Ave"
    },
    {
        "id": "7f85506d-f2bc-4377-9c88-43d519059151",
        "name": "Offshoot Beer Co.",
        "brewery_type": "micro",
        "address_1": "737 Dunn Way",
        "address_2": null,
        "address_3": null,
        "city": "Placentia",
        "state_province": "California",
        "postal_code": "92870",
        "country": "United States",
        "longitude": "-117.880182",
        "latitude": "33.86112597",
        "phone": "7149966258",
        "website_url": "http://www.offshootbeer.com",
        "state": "California",
        "street": "737 Dunn Way"
    },
    {
        "id": "9e3524ee-a548-4089-8de2-7a82c9cd767f",
        "name": "Offshore Ale Co",
        "brewery_type": "brewpub",
        "address_1": "30 Kennebec Ave",
        "address_2": null,
        "address_3": null,
        "city": "Oak Bluffs",
        "state_province": "Massachusetts",
        "postal_code": "02557",
        "country": "United States",
        "longitude": "-70.55790959",
        "latitude": "41.45488324",
        "phone": "5086932626",
        "website_url": "http://www.offshoreale.com",
        "state": "Massachusetts",
        "street": "30 Kennebec Ave"
    },
    {
        "id": "9716ba4a-bd0b-47b0-93c9-4c18bd2afaec",
        "name": "Oggi's Sports Brewhouse Pizza - Apple Valley",
        "brewery_type": "brewpub",
        "address_1": "19201 Bear Valley Rd Ste D",
        "address_2": null,
        "address_3": null,
        "city": "Apple Valley",
        "state_province": "California",
        "postal_code": "92308-2704",
        "country": "United States",
        "longitude": "-117.2449244",
        "latitude": "34.47042728",
        "phone": "7607922622",
        "website_url": "http://www.oggis.com",
        "state": "California",
        "street": "19201 Bear Valley Rd Ste D"
    },
    {
        "id": "8c9cf724-6f82-4486-bbd4-d2f1ae91c4d1",
        "name": "Oggi's Sports Brewhouse Pizza - Upland",
        "brewery_type": "brewpub",
        "address_1": "1173 E 19th St",
        "address_2": null,
        "address_3": null,
        "city": "Upland",
        "state_province": "California",
        "postal_code": "91784",
        "country": "United States",
        "longitude": "-117.6351899",
        "latitude": "34.1334924",
        "phone": "9099498868",
        "website_url": "http://www.oggis.com",
        "state": "California",
        "street": "1173 E 19th St"
    },
    {
        "id": "5f5febce-99e7-4d0f-9408-a0d1c1d86270",
        "name": "Oggis Pizza & Brewing Co - Carmel Mountain Ranch",
        "brewery_type": "brewpub",
        "address_1": "10155 Rancho Carmel Dr",
        "address_2": null,
        "address_3": null,
        "city": "San Diego",
        "state_province": "California",
        "postal_code": "92128-3609",
        "country": "United States",
        "longitude": "-117.089795",
        "latitude": "32.965495",
        "phone": "8585927883",
        "website_url": "http://www.oggis.com",
        "state": "California",
        "street": "10155 Rancho Carmel Dr"
    },
    {
        "id": "6bd6516a-7ce7-411f-8cbe-bf77f1d43ab9",
        "name": "Oggis Pizza & Brewing Co - Mission Valley",
        "brewery_type": "brewpub",
        "address_1": "2245 Fenton Pkwy Ste 108 Fenton Marketplace",
        "address_2": null,
        "address_3": null,
        "city": "San Diego",
        "state_province": "California",
        "postal_code": "92108-4737",
        "country": "United States",
        "longitude": "-117.1291243",
        "latitude": "32.78010941",
        "phone": "6196401072",
        "website_url": "http://www.oggis.com",
        "state": "California",
        "street": "2245 Fenton Pkwy Ste 108 Fenton Marketplace"
    },
    {
        "id": "0b2c7cb1-a556-49d7-b748-3b98c61769b8",
        "name": "Ogopogo Brewing",
        "brewery_type": "micro",
        "address_1": "864 Commercial Ave",
        "address_2": null,
        "address_3": null,
        "city": "San Gabriel",
        "state_province": "California",
        "postal_code": "91776",
        "country": "United States",
        "longitude": "-118.0891476",
        "latitude": "34.096219",
        "phone": null,
        "website_url": "http://www.ogopogobrewco.com",
        "state": "California",
        "street": "864 Commercial Ave"
    },
    {
        "id": "195c9a3a-3c64-4ba9-befb-a94b9b9a9573",
        "name": "Ogres Brewing",
        "brewery_type": "micro",
        "address_1": "7693 Cultus Bay Rd Ste 1",
        "address_2": null,
        "address_3": null,
        "city": "Clinton",
        "state_province": "Washington",
        "postal_code": "98236-9432",
        "country": "United States",
        "longitude": "-122.38990827308668",
        "latitude": "47.93198207120466",
        "phone": "4254189005",
        "website_url": "http://www.ogresbrewing.com",
        "state": "Washington",
        "street": "7693 Cultus Bay Rd Ste 1"
    },
    {
        "id": "c0757e3d-a7d9-485c-8bf2-919886691990",
        "name": "Ohana Brewing Co",
        "brewery_type": "micro",
        "address_1": "1756 E 23rd St",
        "address_2": null,
        "address_3": null,
        "city": "Los Angeles",
        "state_province": "California",
        "postal_code": "90058-1012",
        "country": "United States",
        "longitude": "-118.2415609",
        "latitude": "34.01575629",
        "phone": "6262822337",
        "website_url": "http://www.ohanabrew.com",
        "state": "California",
        "street": "1756 E 23rd St"
    },
    {
        "id": "88ae39de-93d2-4832-97a1-3c28a0457ce8",
        "name": "Ohio Brewing Company",
        "brewery_type": "micro",
        "address_1": "2250 Front St",
        "address_2": null,
        "address_3": null,
        "city": "Cuyahoga Falls",
        "state_province": "Ohio",
        "postal_code": "44221-2510",
        "country": "United States",
        "longitude": "-81.4748217",
        "latitude": "41.1444116",
        "phone": "2342086243",
        "website_url": "http://www.ohiobrewing.com",
        "state": "Ohio",
        "street": "2250 Front St"
    },
    {
        "id": "f40656ab-f140-4a95-8292-6f00c74b2e82",
        "name": "Oil City Beer Company",
        "brewery_type": "micro",
        "address_1": "4155 Legion LN",
        "address_2": null,
        "address_3": null,
        "city": "Casper",
        "state_province": "Wyoming",
        "postal_code": "82609-1946",
        "country": "United States",
        "longitude": "-106.27521659829989",
        "latitude": "42.851373807407484",
        "phone": "3073371177",
        "website_url": "http://www.oilcitybeer.com",
        "state": "Wyoming",
        "street": "4155 Legion LN"
    },
    {
        "id": "4c18e0e2-d6c6-430f-a3aa-3ffecd52e29d",
        "name": "Oil Horse Brewing Company",
        "brewery_type": "micro",
        "address_1": "101 W Tyler St",
        "address_2": null,
        "address_3": null,
        "city": "Longview",
        "state_province": "Texas",
        "postal_code": "75601-6318",
        "country": "United States",
        "longitude": "-94.740354",
        "latitude": "32.495365",
        "phone": "9032203414",
        "website_url": "http://Www.oilhorsebrewing.com",
        "state": "Texas",
        "street": "101 W Tyler St"
    },
    {
        "id": "8afbe041-76da-4532-8b5b-484bb190e998",
        "name": "OK3 Brewing Company",
        "brewery_type": "micro",
        "address_1": "12913 17th Ave",
        "address_2": null,
        "address_3": null,
        "city": "Lemoore",
        "state_province": "California",
        "postal_code": "93245-9485",
        "country": "United States",
        "longitude": "-119.7617855",
        "latitude": "36.28513704",
        "phone": "15598164083",
        "website_url": "http://www.ok3brewing.com",
        "state": "California",
        "street": "12913 17th Ave"
    },
    {
        "id": "81916cf6-f84e-4480-a48c-93ff1e1322ad",
        "name": "Okell & Sons Ltd",
        "brewery_type": "micro",
        "address_1": "Old Castletown Road",
        "address_2": null,
        "address_3": null,
        "city": "Kewaigue",
        "state_province": "Middle",
        "postal_code": "IM2 1QG",
        "country": "Isle of Man",
        "longitude": "-4.506495",
        "latitude": "54.143623",
        "phone": "+441624699400",
        "website_url": "https://www.okells.co.uk/",
        "state": "Middle",
        "street": "Old Castletown Road"
    },
    {
        "id": "eabc841f-1006-44c9-a1bf-1b067946ea0a",
        "name": "Okoboji Brewing Co",
        "brewery_type": "micro",
        "address_1": "3705 Highway 71",
        "address_2": null,
        "address_3": null,
        "city": "Spirit Lake",
        "state_province": "Iowa",
        "postal_code": "51360-7196",
        "country": "United States",
        "longitude": "-95.125984",
        "latitude": "43.405983",
        "phone": "7123303363",
        "website_url": "http://www.brewokoboji.com",
        "state": "Iowa",
        "street": "3705 Highway 71"
    },
    {
        "id": "7b8b7788-ba85-4324-8ed5-44ed0770911b",
        "name": "Ol' Republic Brewery",
        "brewery_type": "micro",
        "address_1": "124 Argall Way",
        "address_2": null,
        "address_3": null,
        "city": "Nevada City",
        "state_province": "California",
        "postal_code": "95959-3002",
        "country": "United States",
        "longitude": "-121.0244602",
        "latitude": "39.25272303",
        "phone": "5302647263",
        "website_url": "http://www.olrepublicbrewery.com",
        "state": "California",
        "street": "124 Argall Way"
    },
    {
        "id": "02ff9941-1dab-4ef3-b713-21f3e095d62b",
        "name": "Ol' Republic Brewery Rancho Cordova",
        "brewery_type": "micro",
        "address_1": "11151 Trade Center Dr Ste 104",
        "address_2": null,
        "address_3": null,
        "city": "Rancho Cordova",
        "state_province": "California",
        "postal_code": "95670",
        "country": "United States",
        "longitude": "-121.2706039",
        "latitude": "38.60219217",
        "phone": "9162158702",
        "website_url": null,
        "state": "California",
        "street": "11151 Trade Center Dr Ste 104"
    },
    {
        "id": "9dc287b2-c3b4-41d9-943f-eb24f2e4ce10",
        "name": "Ol' Shed Brewing Company",
        "brewery_type": "planning",
        "address_1": null,
        "address_2": null,
        "address_3": null,
        "city": "Mathis",
        "state_province": "Texas",
        "postal_code": "78368-1738",
        "country": "United States",
        "longitude": null,
        "latitude": null,
        "phone": null,
        "website_url": null,
        "state": "Texas",
        "street": null
    },
    {
        "id": "74ecf1e8-780b-4fdf-a910-722bb60f8abb",
        "name": "Ola Brew Co.",
        "brewery_type": "micro",
        "address_1": "74-5598 Luhia St Ste A",
        "address_2": null,
        "address_3": null,
        "city": "Kailua Kona",
        "state_province": "Hawaii",
        "postal_code": "96740-3151",
        "country": "United States",
        "longitude": "-155.99806",
        "latitude": "19.646861",
        "phone": "8083393565",
        "website_url": "http://www.olabrewco.com",
        "state": "Hawaii",
        "street": "74-5598 Luhia St Ste A"
    },
    {
        "id": "df551d63-a1b6-4973-b329-999f41e4c337",
        "name": "Old 290 Brewery",
        "brewery_type": "planning",
        "address_1": null,
        "address_2": null,
        "address_3": null,
        "city": "Santa Ana",
        "state_province": "California",
        "postal_code": "92704-7463",
        "country": "United States",
        "longitude": "-117.8732213",
        "latitude": "33.7494951",
        "phone": "7145464255",
        "website_url": null,
        "state": "California",
        "street": null
    },
    {
        "id": "ac5ea286-db7c-47ea-ac22-e13289b39bbf",
        "name": "Old 690 Brewing Co",
        "brewery_type": "brewpub",
        "address_1": "15670 Ashbury Church Rd",
        "address_2": null,
        "address_3": null,
        "city": "Purcellville",
        "state_province": "Virginia",
        "postal_code": "20132-2817",
        "country": "United States",
        "longitude": null,
        "latitude": null,
        "phone": "5406687023",
        "website_url": "http://www.old690.com",
        "state": "Virginia",
        "street": "15670 Ashbury Church Rd"
    },
    {
        "id": "fd94d41b-6d0a-4a93-a700-f042096025da",
        "name": "Old 99 Brewing Co",
        "brewery_type": "micro",
        "address_1": "3750 Hooker Rd Ste A",
        "address_2": null,
        "address_3": null,
        "city": "Roseburg",
        "state_province": "Oregon",
        "postal_code": "97470-4501",
        "country": "United States",
        "longitude": "-123.3532677",
        "latitude": "43.25418612",
        "phone": "5417848012",
        "website_url": "http://www.old99brewing.com",
        "state": "Oregon",
        "street": "3750 Hooker Rd Ste A"
    },
    {
        "id": "78f58f23-0430-49bf-b50b-9371cb7ab9cb",
        "name": "Old Bavarian Brewing Co",
        "brewery_type": "contract",
        "address_1": "1515 Greendale St",
        "address_2": null,
        "address_3": null,
        "city": "Menasha",
        "state_province": "Wisconsin",
        "postal_code": "54952-2620",
        "country": "United States",
        "longitude": "-88.416059",
        "latitude": "44.217357",
        "phone": "9207300202",
        "website_url": "http://www.oldbavarian.com",
        "state": "Wisconsin",
        "street": "1515 Greendale St"
    },
    {
        "id": "af3289a4-80a1-4aaa-872d-3699402bfbe2",
        "name": "Old Bisbee Brewing",
        "brewery_type": "micro",
        "address_1": "23 Brewery Ave",
        "address_2": null,
        "address_3": null,
        "city": "Bisbee",
        "state_province": "Arizona",
        "postal_code": "85603",
        "country": "United States",
        "longitude": "-109.9138438",
        "latitude": "31.44272169",
        "phone": "5204322739",
        "website_url": "http://www.oldbisbeebrewingcompany.com",
        "state": "Arizona",
        "street": "23 Brewery Ave"
    },
    {
        "id": "f684669c-35f3-4626-9f4e-04906fbbfb58",
        "name": "Old Black Bear Brewing",
        "brewery_type": "micro",
        "address_1": "208 Main St",
        "address_2": null,
        "address_3": null,
        "city": "Madison",
        "state_province": "Alabama",
        "postal_code": "35758-1813",
        "country": "United States",
        "longitude": "-86.74922409",
        "latitude": "34.69329345",
        "phone": "2568504639",
        "website_url": null,
        "state": "Alabama",
        "street": "208 Main St"
    },
    {
        "id": "9698719a-2987-488e-aa75-6b1c5ae568fc",
        "name": "Old Boys Brewhouse",
        "brewery_type": "brewpub",
        "address_1": "971 W Savidge St",
        "address_2": null,
        "address_3": null,
        "city": "Spring Lake",
        "state_province": "Michigan",
        "postal_code": "49456-1684",
        "country": "United States",
        "longitude": "-86.21215194",
        "latitude": "43.07642829",
        "phone": "6168509950",
        "website_url": "http://www.oldboysbrewhouse.com",
        "state": "Michigan",
        "street": "971 W Savidge St"
    },
    {
        "id": "60cbbd4a-6323-4ac6-8614-ca4aae338a65",
        "name": "Old Bus Tavern",
        "brewery_type": "brewpub",
        "address_1": "3193 Mission St",
        "address_2": null,
        "address_3": null,
        "city": "San Francisco",
        "state_province": "California",
        "postal_code": "94110-4515",
        "country": "United States",
        "longitude": "-122.4195103",
        "latitude": "37.745701",
        "phone": "4158431938",
        "website_url": "http://www.oldbustavern.com",
        "state": "California",
        "street": "3193 Mission St"
    },
    {
        "id": "14141cf3-5f2e-4179-92b9-a74e83c7aeaa",
        "name": "Old Bust Head Brewing Co.",
        "brewery_type": "micro",
        "address_1": "7134 Lineweaver Rd",
        "address_2": null,
        "address_3": null,
        "city": "Warrenton",
        "state_province": "Virginia",
        "postal_code": "20187-3949",
        "country": "United States",
        "longitude": null,
        "latitude": null,
        "phone": "5403474777",
        "website_url": "http://www.oldbusthead.com",
        "state": "Virginia",
        "street": "7134 Lineweaver Rd"
    },
    {
        "id": "485b439f-0d2d-4106-8859-dbaafd85729b",
        "name": "Old Coast Ales",
        "brewery_type": "micro",
        "address_1": "300 Anastasia Blvd Ste C",
        "address_2": null,
        "address_3": null,
        "city": "Saint Augustine",
        "state_province": "Florida",
        "postal_code": "32080-4759",
        "country": "United States",
        "longitude": null,
        "latitude": null,
        "phone": "9045018575",
        "website_url": "http://www.oldcoastales.com",
        "state": "Florida",
        "street": "300 Anastasia Blvd Ste C"
    },
    {
        "id": "ba6f163e-34ae-4314-9003-59f0720e2197",
        "name": "Old Colony Brewing",
        "brewery_type": "micro",
        "address_1": "605 Bedford St Unit 1",
        "address_2": null,
        "address_3": null,
        "city": "Whitman",
        "state_province": "Massachusetts",
        "postal_code": "02382-2088",
        "country": "United States",
        "longitude": null,
        "latitude": null,
        "phone": "7815237105",
        "website_url": "http://www.oldcolonybrew.com",
        "state": "Massachusetts",
        "street": "605 Bedford St Unit 1"
    },
    {
        "id": "b945d00a-5596-4992-8010-f2313d71dc6b",
        "name": "Old Colorado Brewing Co",
        "brewery_type": "micro",
        "address_1": "8121 First St.",
        "address_2": null,
        "address_3": null,
        "city": "Wellington",
        "state_province": "Colorado",
        "postal_code": "80549",
        "country": "United States",
        "longitude": null,
        "latitude": null,
        "phone": "9702172129",
        "website_url": "http://www.oldcoloradobrewing.com",
        "state": "Colorado",
        "street": "8121 First St."
    },
    {
        "id": "7e345dad-f25e-4817-ac2c-5f941fbe6b3f",
        "name": "Old Country Brewing",
        "brewery_type": "planning",
        "address_1": null,
        "address_2": null,
        "address_3": null,
        "city": "Fairfield",
        "state_province": "California",
        "postal_code": "94533-7790",
        "country": "United States",
        "longitude": "-122.0399663",
        "latitude": "38.2493581",
        "phone": null,
        "website_url": null,
        "state": "California",
        "street": null
    },
    {
        "id": "65c4f76c-6d0e-4e7f-a668-1e0eb8971506",
        "name": "Old Detroit Brewing Co",
        "brewery_type": "planning",
        "address_1": null,
        "address_2": null,
        "address_3": null,
        "city": "Bloomfield Hills",
        "state_province": "Michigan",
        "postal_code": "48304-3817",
        "country": "United States",
        "longitude": null,
        "latitude": null,
        "phone": null,
        "website_url": null,
        "state": "Michigan",
        "street": null
    },
    {
        "id": "1799d0b2-7266-4ad9-a3ca-15cc2e3bf833",
        "name": "Old Dog Alehouse & Brewery",
        "brewery_type": "micro",
        "address_1": "13 W William St",
        "address_2": null,
        "address_3": null,
        "city": "Delaware",
        "state_province": "Ohio",
        "postal_code": "43015",
        "country": "United States",
        "longitude": "-83.0998526",
        "latitude": "40.2984874",
        "phone": "740-990-4506",
        "website_url": "https://www.olddogalehouse.com/menu",
        "state": "Ohio",
        "street": "13 W William St"
    },
    {
        "id": "60ad3e0d-4848-4049-8fc1-1960fe170fbd",
        "name": "Old Ellsworth Brewing Company",
        "brewery_type": "brewpub",
        "address_1": "22005 S Ellsworth Rd",
        "address_2": null,
        "address_3": null,
        "city": "Queen Creek",
        "state_province": "Arizona",
        "postal_code": "85142-8707",
        "country": "United States",
        "longitude": "-111.6343894",
        "latitude": "33.24511285",
        "phone": "4804330651",
        "website_url": "http://www.oldebc.com",
        "state": "Arizona",
        "street": "22005 S Ellsworth Rd"
    },
    {
        "id": "18749797-7047-40a7-915d-feb5edfd5caa",
        "name": "Old Firehouse Brewery",
        "brewery_type": "micro",
        "address_1": "237 W Main St",
        "address_2": null,
        "address_3": null,
        "city": "Williamsburg",
        "state_province": "Ohio",
        "postal_code": "45176-1342",
        "country": "United States",
        "longitude": "-84.05307618",
        "latitude": "39.05398396",
        "phone": "5135369071",
        "website_url": "http://www.oldfirehousebrewery.com",
        "state": "Ohio",
        "street": "237 W Main St"
    },
    {
        "id": "724c81c8-1ab1-47ce-bd14-1bce1e9c02bc",
        "name": "Old Forge Brewing Co",
        "brewery_type": "micro",
        "address_1": "401 Railroad St Ste 104",
        "address_2": null,
        "address_3": null,
        "city": "Danville",
        "state_province": "Pennsylvania",
        "postal_code": "17821-1593",
        "country": "United States",
        "longitude": null,
        "latitude": null,
        "phone": "5702758151",
        "website_url": "http://www.oldforgebrewingcompany.com",
        "state": "Pennsylvania",
        "street": "401 Railroad St Ste 104"
    },
    {
        "id": "49051f65-584d-4045-8a6f-3f55499f9f2a",
        "name": "Old Forge Brewing Co",
        "brewery_type": "brewpub",
        "address_1": "532 Mill St",
        "address_2": null,
        "address_3": null,
        "city": "Danville",
        "state_province": "Pennsylvania",
        "postal_code": "17821-1015",
        "country": "United States",
        "longitude": "-76.61600763",
        "latitude": "40.96547999",
        "phone": "5702758151",
        "website_url": "http://www.oldforgebrewingcompany.com",
        "state": "Pennsylvania",
        "street": "532 Mill St"
    },
    {
        "id": "92732f6c-a628-4eaa-a240-d5534a8ee449",
        "name": "Old Hangtown Beer Works",
        "brewery_type": "micro",
        "address_1": null,
        "address_2": null,
        "address_3": null,
        "city": "Placerville",
        "state_province": "California",
        "postal_code": "95667",
        "country": "United States",
        "longitude": "-120.798546",
        "latitude": "38.7296252",
        "phone": "5309195166",
        "website_url": null,
        "state": "California",
        "street": null
    },
    {
        "id": "baee055a-ed44-4149-bb78-804a064dc3d9",
        "name": "Old Hangtown Beer Works",
        "brewery_type": "micro",
        "address_1": "11327 Trade Center Dr Ste 350",
        "address_2": null,
        "address_3": null,
        "city": "Rancho Cordova",
        "state_province": "California",
        "postal_code": "95742-6285",
        "country": "United States",
        "longitude": "-121.264149",
        "latitude": "38.6075491",
        "phone": "5309195166",
        "website_url": "http://www.oldhangtownbeerworks.com",
        "state": "California",
        "street": "11327 Trade Center Dr Ste 350"
    },
    {
        "id": "c4a47c6d-ab6b-4ac7-9f15-17e830111015",
        "name": "Old House Vineyards",
        "brewery_type": "micro",
        "address_1": "18351 Corkys Ln",
        "address_2": null,
        "address_3": null,
        "city": "Culpeper",
        "state_province": "Virginia",
        "postal_code": "22701",
        "country": "United States",
        "longitude": null,
        "latitude": null,
        "phone": "5404231032",
        "website_url": "http://www.oldhousevineyards.com",
        "state": "Virginia",
        "street": "18351 Corkys Ln"
    },
    {
        "id": "bacebf35-8146-4ec3-abe8-545c53d935a7",
        "name": "Old Irving Brewing Co.",
        "brewery_type": "brewpub",
        "address_1": "4419 W Montrose Ave",
        "address_2": null,
        "address_3": null,
        "city": "Chicago",
        "state_province": "Illinois",
        "postal_code": "60641-2021",
        "country": "United States",
        "longitude": "-87.7394333",
        "latitude": "41.9605751",
        "phone": "7739166421",
        "website_url": "http://www.oldirvingbrewing.com",
        "state": "Illinois",
        "street": "4419 W Montrose Ave"
    },
    {
        "id": "1dc3e29e-702f-42df-9561-aead46dce8f3",
        "name": "Old Ivy Brewery and Taproom",
        "brewery_type": "closed",
        "address_1": "108 W Evergreen Blvd Ste A",
        "address_2": null,
        "address_3": null,
        "city": "Vancouver",
        "state_province": "Washington",
        "postal_code": "98660-3124",
        "country": "United States",
        "longitude": null,
        "latitude": null,
        "phone": "3609931827",
        "website_url": "http://www.oldivybrewery.com",
        "state": "Washington",
        "street": "108 W Evergreen Blvd Ste A"
    },
    {
        "id": "c5aea541-9ffc-402b-bfb5-ab680e8edb1a",
        "name": "Old Kan Beer & Co",
        "brewery_type": "brewpub",
        "address_1": "95 Linden St",
        "address_2": null,
        "address_3": null,
        "city": "Oakland",
        "state_province": "California",
        "postal_code": "94607-2510",
        "country": "United States",
        "longitude": "-122.2879928",
        "latitude": "37.7995945",
        "phone": "5103383965",
        "website_url": "http://www.old-kan.com",
        "state": "California",
        "street": "95 Linden St"
    },
    {
        "id": "08eed67d-4ce8-4871-8b2d-5fb77a2543f7",
        "name": "Old Klaverack Brewery",
        "brewery_type": "micro",
        "address_1": "150 Thielman Rd",
        "address_2": null,
        "address_3": null,
        "city": "Hudson",
        "state_province": "New York",
        "postal_code": "12534-3716",
        "country": "United States",
        "longitude": null,
        "latitude": null,
        "phone": "5189651437",
        "website_url": "http://www.oldklaverackbrewery.com",
        "state": "New York",
        "street": "150 Thielman Rd"
    },
    {
        "id": "1e875480-8642-4d5f-a9b7-d1b582657830",
        "name": "Old Louisville Brewery",
        "brewery_type": "micro",
        "address_1": "625 W Magnolia Ave",
        "address_2": null,
        "address_3": null,
        "city": "Louisville",
        "state_province": "Kentucky",
        "postal_code": "40208-2239",
        "country": "United States",
        "longitude": "-85.76579382",
        "latitude": "38.22970855",
        "phone": "5024985434",
        "website_url": "http://www.oldlouisvillebrewery.com",
        "state": "Kentucky",
        "street": "625 W Magnolia Ave"
    },
    {
        "id": "ee77f852-eeaf-4166-ac21-72afe9810545",
        "name": "Old Majestic Brewing Company",
        "brewery_type": "planning",
        "address_1": null,
        "address_2": null,
        "address_3": null,
        "city": "Mobile",
        "state_province": "Alabama",
        "postal_code": "36602-2404",
        "country": "United States",
        "longitude": "-88.0430541",
        "latitude": "30.6943566",
        "phone": "2514347387",
        "website_url": null,
        "state": "Alabama",
        "street": null
    },
    {
        "id": "9ff19944-bee2-4bc3-8f15-288588c9d1c5",
        "name": "Old Market Pub and Brewery",
        "brewery_type": "brewpub",
        "address_1": "6959 SW Multnomah Blvd",
        "address_2": null,
        "address_3": null,
        "city": "Portland",
        "state_province": "Oregon",
        "postal_code": "97223-3439",
        "country": "United States",
        "longitude": "-122.7486715",
        "latitude": "45.46603555",
        "phone": "5032440450",
        "website_url": "http://www.drinkbeerhere.com",
        "state": "Oregon",
        "street": "6959 SW Multnomah Blvd"
    },
    {
        "id": "632333a1-7c1e-4fde-9e34-145a803be4dc",
        "name": "Old Mill Brewing Company",
        "brewery_type": "micro",
        "address_1": "Convoy Enterprise Centre",
        "address_2": null,
        "address_3": null,
        "city": "Convoy",
        "state_province": "Donegal",
        "postal_code": "F93 X314",
        "country": "Ireland",
        "longitude": "-7.6664472",
        "latitude": "54.8605864",
        "phone": "353833447788",
        "website_url": null,
        "state": "Donegal",
        "street": "Convoy Enterprise Centre"
    },
    {
        "id": "df0d2a61-3905-4340-a0b9-be4bf6bd30ef",
        "name": "Old Mill Brewpub",
        "brewery_type": "brewpub",
        "address_1": "711 E Main St",
        "address_2": null,
        "address_3": null,
        "city": "Lexington",
        "state_province": "South Carolina",
        "postal_code": "29072-3670",
        "country": "United States",
        "longitude": "-81.2298014",
        "latitude": "33.9772343",
        "phone": "8037852337",
        "website_url": "http://www.oldmillbrewpub.net",
        "state": "South Carolina",
        "street": "711 E Main St"
    },
    {
        "id": "fd4d4773-1ead-4f71-9f61-55cdfe620267",
        "name": "Old Mill Brewpub and Grill",
        "brewery_type": "brewpub",
        "address_1": "717 E Bridge St",
        "address_2": null,
        "address_3": null,
        "city": "Plainwell",
        "state_province": "Michigan",
        "postal_code": "49080-1801",
        "country": "United States",
        "longitude": "-85.63224537",
        "latitude": "42.442939",
        "phone": "2692046601",
        "website_url": "http://www.oldmillbrew.com",
        "state": "Michigan",
        "street": "717 E Bridge St"
    },
    {
        "id": "5a9cc7b6-2864-48be-81a8-0a27a48440ac",
        "name": "Old Mill Craft Beer",
        "brewery_type": "micro",
        "address_1": "2376 State Route 850",
        "address_2": null,
        "address_3": null,
        "city": "Bidwell",
        "state_province": "Ohio",
        "postal_code": "45614-9590",
        "country": "United States",
        "longitude": null,
        "latitude": null,
        "phone": "7402459463",
        "website_url": null,
        "state": "Ohio",
        "street": "2376 State Route 850"
    },
    {
        "id": "caf2d686-872a-423f-9593-6ec537c7f13e",
        "name": "Old Nation Brewing Company",
        "brewery_type": "micro",
        "address_1": "1500 W. Grand River Ave",
        "address_2": null,
        "address_3": null,
        "city": "Williamston",
        "state_province": "Michigan",
        "postal_code": "48895-97ND",
        "country": "United States",
        "longitude": "-84.2899561",
        "latitude": "42.6878555",
        "phone": "5176551301",
        "website_url": "http://www.oldnationbrewing.com",
        "state": "Michigan",
        "street": "1500 W. Grand River Ave"
    },
    {
        "id": "b02c0a0c-840d-459e-b9e9-347cd9ebfc44",
        "name": "Old Ox Brewery LLC",
        "brewery_type": "micro",
        "address_1": "44652 Guilford Dr Ste 114",
        "address_2": null,
        "address_3": null,
        "city": "Ashburn",
        "state_province": "Virginia",
        "postal_code": "20147-6006",
        "country": "United States",
        "longitude": "-77.45608031",
        "latitude": "39.02226368",
        "phone": "7037298375",
        "website_url": "http://www.oldoxbrewery.com",
        "state": "Virginia",
        "street": "44652 Guilford Dr Ste 114"
    },
    {
        "id": "2582e5ad-5382-4e33-a5a3-7c0e321b7208",
        "name": "Old Planters Brewing Co.",
        "brewery_type": "micro",
        "address_1": "100 Corning St",
        "address_2": null,
        "address_3": null,
        "city": "Beverly",
        "state_province": "Massachusetts",
        "postal_code": "01915-3837",
        "country": "United States",
        "longitude": "-70.86287139",
        "latitude": "42.55499645",
        "phone": "9785226446",
        "website_url": "http://www.oldplanters.com",
        "state": "Massachusetts",
        "street": "100 Corning St"
    },
    {
        "id": "6ce2c54b-2304-46e8-a50d-ffc84489ed06",
        "name": "Old Possum Brewing Company",
        "brewery_type": "brewpub",
        "address_1": "357 Sutton Pl",
        "address_2": null,
        "address_3": null,
        "city": "Santa Rosa",
        "state_province": "California",
        "postal_code": "95407",
        "country": "United States",
        "longitude": "-122.7252078",
        "latitude": "38.39097419",
        "phone": "7073037177",
        "website_url": "http://www.oldpossumbrewing.com",
        "state": "California",
        "street": "357 Sutton Pl"
    },
    {
        "id": "ebc2f1b3-852f-4e01-b412-09a669cd0c7f",
        "name": "Old Rail Brewing Co",
        "brewery_type": "brewpub",
        "address_1": "639 Girod St",
        "address_2": null,
        "address_3": null,
        "city": "Mandeville",
        "state_province": "Louisiana",
        "postal_code": "70448-5205",
        "country": "United States",
        "longitude": "-90.06386106",
        "latitude": "30.35985466",
        "phone": "9856121828",
        "website_url": "http://www.oldrailbrewing.com",
        "state": "Louisiana",
        "street": "639 Girod St"
    },
    {
        "id": "43e3961c-245d-448b-9745-6be68d5bd105",
        "name": "Old Redwood Brewing Co",
        "brewery_type": "closed",
        "address_1": "9000 Windsor Rd # A",
        "address_2": null,
        "address_3": null,
        "city": "Windsor",
        "state_province": "California",
        "postal_code": "95492-9701",
        "country": "United States",
        "longitude": "-122.8166482",
        "latitude": "38.5475452",
        "phone": "7076577624",
        "website_url": "http://www.oldredwoodbrewing.com",
        "state": "California",
        "street": "9000 Windsor Rd # A"
    },
    {
        "id": "0b2aaada-2557-45f9-a039-b4a41832183f",
        "name": "Old Schoolhouse Brewery",
        "brewery_type": "brewpub",
        "address_1": "155 Riverside Ave",
        "address_2": null,
        "address_3": null,
        "city": "Winthrop",
        "state_province": "Washington",
        "postal_code": "98862-0577",
        "country": "United States",
        "longitude": "-120.1866354",
        "latitude": "48.47814625",
        "phone": "5099963183",
        "website_url": "http://www.oldschoolhousebrewery.com",
        "state": "Washington",
        "street": "155 Riverside Ave"
    },
    {
        "id": "788d873c-70cc-4d9e-94f5-a2675f2c23fa",
        "name": "Old Soul Brewing",
        "brewery_type": "micro",
        "address_1": "10970 S Cleveland Ave Ste 402",
        "address_2": null,
        "address_3": null,
        "city": "Fort Myers",
        "state_province": "Florida",
        "postal_code": "33907-2315",
        "country": "United States",
        "longitude": null,
        "latitude": null,
        "phone": "2393344334",
        "website_url": "http://www.oldsoulbrewcompany.com",
        "state": "Florida",
        "street": "10970 S Cleveland Ave Ste 402"
    },
    {
        "id": "d6dab3d7-38df-41b7-a2f0-21699fcf1a7b",
        "name": "Old Spruce Brewing",
        "brewery_type": "brewpub",
        "address_1": "10 Snowshoe Dr",
        "address_2": null,
        "address_3": null,
        "city": "Snowshoe",
        "state_province": "West Virginia",
        "postal_code": "26209",
        "country": "United States",
        "longitude": "-80.036148",
        "latitude": "38.416222",
        "phone": "3045721020",
        "website_url": "http://www.oldsprucetavern.com",
        "state": "West Virginia",
        "street": "10 Snowshoe Dr"
    },
    {
        "id": "b97ab81e-5190-41da-8107-8014bfa7a4d4",
        "name": "Old Station Brewing Co",
        "brewery_type": "micro",
        "address_1": "140 1st St",
        "address_2": null,
        "address_3": null,
        "city": "Havre",
        "state_province": "Montana",
        "postal_code": "59501-3502",
        "country": "United States",
        "longitude": "-109.6803593",
        "latitude": "48.55367512",
        "phone": "4062650980",
        "website_url": null,
        "state": "Montana",
        "street": "140 1st St"
    },
    {
        "id": "59614bdc-7e99-4f33-be89-3d38e50dbde7",
        "name": "Old Stove Brewing Company",
        "brewery_type": "brewpub",
        "address_1": "1916 Pike Pl Ste 12 # 420",
        "address_2": null,
        "address_3": null,
        "city": "Seattle",
        "state_province": "Washington",
        "postal_code": "98101-1056",
        "country": "United States",
        "longitude": "-122.34284164943051",
        "latitude": "47.610283074605604",
        "phone": "2066602682",
        "website_url": "http://www.oldstove.com",
        "state": "Washington",
        "street": "1916 Pike Pl Ste 12 # 420"
    },
    {
        "id": "0eb7bedd-5067-44f4-b5c5-28997e84b34a",
        "name": "Old Stump Brewery",
        "brewery_type": "micro",
        "address_1": "2896 Metropolitan Pl",
        "address_2": null,
        "address_3": null,
        "city": "Pomona",
        "state_province": "California",
        "postal_code": "91767-1854",
        "country": "United States",
        "longitude": "-117.7541465",
        "latitude": "34.09763808",
        "phone": "9098609052",
        "website_url": "http://www.oldstumpbrewery.com",
        "state": "California",
        "street": "2896 Metropolitan Pl"
    },
    {
        "id": "b16226d8-7fb9-4f93-99b8-055edbb68325",
        "name": "Old Town Abbey Ales",
        "brewery_type": "proprietor",
        "address_1": "125 S Jefferson St Unit 2709",
        "address_2": null,
        "address_3": null,
        "city": "Chicago",
        "state_province": "Illinois",
        "postal_code": "60661-3731",
        "country": "United States",
        "longitude": null,
        "latitude": null,
        "phone": "3126226544",
        "website_url": "http://www.oldtownabbey.com",
        "state": "Illinois",
        "street": "125 S Jefferson St Unit 2709"
    },
    {
        "id": "71e0c30f-3833-4d6c-83b6-ecce06256c93",
        "name": "Old Town Brewhouse",
        "brewery_type": "micro",
        "address_1": "146 Whatley Ave",
        "address_2": null,
        "address_3": null,
        "city": "Lewisville",
        "state_province": "Texas",
        "postal_code": "75057-3961",
        "country": "United States",
        "longitude": "-96.99353141",
        "latitude": "33.044038",
        "phone": "9722212337",
        "website_url": "http://www.cobrabrewingco.com",
        "state": "Texas",
        "street": "146 Whatley Ave"
    },
    {
        "id": "e7f93b89-81e3-411d-8260-e2c6ec60c587",
        "name": "Old Town Brewing",
        "brewery_type": "brewpub",
        "address_1": "5201 NE M L King Blvd",
        "address_2": null,
        "address_3": null,
        "city": "Portland",
        "state_province": "Oregon",
        "postal_code": "97211-3235",
        "country": "United States",
        "longitude": "-122.6639427",
        "latitude": "45.5606811",
        "phone": "5032005988",
        "website_url": "http://www.otbrewing.com",
        "state": "Oregon",
        "street": "5201 NE M L King Blvd"
    },
    {
        "id": "1a23b4af-f4c1-455c-a8d2-37eadf0ba098",
        "name": "Old Trade Brewery",
        "brewery_type": "micro",
        "address_1": "13270 Alanthus Rd",
        "address_2": null,
        "address_3": null,
        "city": "Brandy Station",
        "state_province": "Virginia",
        "postal_code": "22714-1905",
        "country": "United States",
        "longitude": "-77.910796",
        "latitude": "38.523145",
        "phone": "7742188645",
        "website_url": "http://www.oldtradebrewery.com",
        "state": "Virginia",
        "street": "13270 Alanthus Rd"
    },
    {
        "id": "12e7aba5-3cf1-417f-9d75-e35a48398119",
        "name": "Old Tree Brewery",
        "brewery_type": "micro",
        "address_1": "Richmond Place",
        "address_2": null,
        "address_3": null,
        "city": "Brighton",
        "state_province": "East Sussex",
        "postal_code": "BN2 9NA",
        "country": "England",
        "longitude": "-0.134261",
        "latitude": "50.828046",
        "phone": "7413064346",
        "website_url": "https://oldtree.house/",
        "state": "East Sussex",
        "street": "Richmond Place"
    },
    {
        "id": "c5c707c0-4459-4e37-9673-00a58959a74d",
        "name": "Olde Bedford Brewing Company",
        "brewery_type": "micro",
        "address_1": "109 Railroad St",
        "address_2": null,
        "address_3": null,
        "city": "Bedford",
        "state_province": "Pennsylvania",
        "postal_code": "15522-1014",
        "country": "United States",
        "longitude": "-78.5033435",
        "latitude": "40.021898",
        "phone": "9072297942",
        "website_url": "http://www.oldebbc.com",
        "state": "Pennsylvania",
        "street": "109 Railroad St"
    },
    {
        "id": "379400de-0839-4f1e-94f4-b34d888e0f50",
        "name": "Olde Burnside Brewing Co.",
        "brewery_type": "micro",
        "address_1": "776 Tolland St",
        "address_2": null,
        "address_3": null,
        "city": "East Hartford",
        "state_province": "Connecticut",
        "postal_code": "06108-2727",
        "country": "United States",
        "longitude": "-72.60022238",
        "latitude": "41.7850567",
        "phone": "8605282200",
        "website_url": "http://www.oldeburnsidebrewing.com",
        "state": "Connecticut",
        "street": "776 Tolland St"
    },
    {
        "id": "6b3bd021-21d2-4a08-8883-3f22c7df0896",
        "name": "Olde Hickory Brewery - Production",
        "brewery_type": "micro",
        "address_1": "2 3rd St SW",
        "address_2": null,
        "address_3": null,
        "city": "Hickory",
        "state_province": "North Carolina",
        "postal_code": "28602-2941",
        "country": "United States",
        "longitude": "-81.34229502",
        "latitude": "35.7313114",
        "phone": null,
        "website_url": null,
        "state": "North Carolina",
        "street": "2 3rd St SW"
    },
    {
        "id": "538cd69c-0efe-43e1-bef4-a93fac2ae151",
        "name": "Olde Hickory Brewery & Amos Howards",
        "brewery_type": "brewpub",
        "address_1": "2828 US Highway 70 SW",
        "address_2": null,
        "address_3": null,
        "city": "Hickory",
        "state_province": "North Carolina",
        "postal_code": "28602-4645",
        "country": "United States",
        "longitude": null,
        "latitude": null,
        "phone": "8283238753",
        "website_url": "http://www.amoshowards.com",
        "state": "North Carolina",
        "street": "2828 US Highway 70 SW"
    },
    {
        "id": "1abb8651-92a8-4388-89ad-0c62011de017",
        "name": "Olde Main Brewing Co & Restaurant",
        "brewery_type": "closed",
        "address_1": "316 Main St",
        "address_2": null,
        "address_3": null,
        "city": "Ames",
        "state_province": "Iowa",
        "postal_code": "50010",
        "country": "United States",
        "longitude": "-93.61410043",
        "latitude": "42.02503227",
        "phone": "5152320553",
        "website_url": "http://www.oldemainbrewing.com/",
        "state": "Iowa",
        "street": "316 Main St"
    },
    {
        "id": "dd9deed9-dddf-45b9-b439-8a6a4d9be915",
        "name": "Olde Mother Brewing, LLC",
        "brewery_type": "micro",
        "address_1": "911 E Patrick St",
        "address_2": null,
        "address_3": null,
        "city": "Frederick",
        "state_province": "Maryland",
        "postal_code": "21701-3132",
        "country": "United States",
        "longitude": "-77.3912138",
        "latitude": "39.40928",
        "phone": "3016241700",
        "website_url": "http://OldeMother.com",
        "state": "Maryland",
        "street": "911 E Patrick St"
    },
    {
        "id": "f32515b5-61f3-4a83-9c8e-34a05734158a",
        "name": "Olde Peninsula Brewpub and Restaurant",
        "brewery_type": "brewpub",
        "address_1": "200 E Michigan Ave",
        "address_2": null,
        "address_3": null,
        "city": "Kalamazoo",
        "state_province": "Michigan",
        "postal_code": "49007-3961",
        "country": "United States",
        "longitude": "-85.581578",
        "latitude": "42.2916484",
        "phone": "2693432739",
        "website_url": "http://www.oldepeninsula.com",
        "state": "Michigan",
        "street": "200 E Michigan Ave"
    },
    {
        "id": "1d13ecd0-7e01-4919-bae6-eb64f29e53e1",
        "name": "Olde Salem Brewing Company",
        "brewery_type": "micro",
        "address_1": "21 E Main St",
        "address_2": null,
        "address_3": null,
        "city": "Salem",
        "state_province": "Virginia",
        "postal_code": "24153-3806",
        "country": "United States",
        "longitude": "-80.04053168",
        "latitude": "37.29440174",
        "phone": null,
        "website_url": "http://oldesalembrewing.com",
        "state": "Virginia",
        "street": "21 E Main St"
    },
    {
        "id": "24245887-9267-4799-b5a4-82e95deea0c0",
        "name": "Ole Dallas Brewery",
        "brewery_type": "micro",
        "address_1": null,
        "address_2": null,
        "address_3": null,
        "city": "Dallas",
        "state_province": "North Carolina",
        "postal_code": "28034-9793",
        "country": "United States",
        "longitude": null,
        "latitude": null,
        "phone": "7042661472",
        "website_url": "http://www.oledallasbrewery.com",
        "state": "North Carolina",
        "street": null
    },
    {
        "id": "9494d683-de13-4a05-a457-b250a497c54f",
        "name": "Ole Shed Brewing Company",
        "brewery_type": "micro",
        "address_1": "516 E Carroll St",
        "address_2": null,
        "address_3": null,
        "city": "Tullahoma",
        "state_province": "Tennessee",
        "postal_code": "37388-3983",
        "country": "United States",
        "longitude": "-86.19823741",
        "latitude": "35.36075686",
        "phone": "9312124277",
        "website_url": "http://www.oleshedbrewing.com",
        "state": "Tennessee",
        "street": "516 E Carroll St"
    },
    {
        "id": "bf79ba63-583a-4545-bc3c-feddd9123c36",
        "name": "Olentangy River Brewing Company",
        "brewery_type": "micro",
        "address_1": "303 Green Meadows Dr S",
        "address_2": null,
        "address_3": null,
        "city": "Lewis Center",
        "state_province": "Ohio",
        "postal_code": "43035",
        "country": "United States",
        "longitude": "-83.0798709",
        "latitude": "40.1618242",
        "phone": "740-803-1561",
        "website_url": "http://www.olentangybrew.com/",
        "state": "Ohio",
        "street": "303 Green Meadows Dr S"
    },
    {
        "id": "9ee73057-9c01-46b3-b5fd-7900bfbc2eb0",
        "name": "Oliphant Brewing",
        "brewery_type": "micro",
        "address_1": "350 Main St Ste 2",
        "address_2": null,
        "address_3": null,
        "city": "Somerset",
        "state_province": "Wisconsin",
        "postal_code": "54025-9108",
        "country": "United States",
        "longitude": null,
        "latitude": null,
        "phone": "6513077881",
        "website_url": "http://www.oliphantbrewing.com",
        "state": "Wisconsin",
        "street": "350 Main St Ste 2"
    },
    {
        "id": "d5d6202f-bbba-45a5-b363-cf14a1b87ad5",
        "name": "Oliver Brewing Company",
        "brewery_type": "micro",
        "address_1": "4216 Shannon Dr",
        "address_2": null,
        "address_3": null,
        "city": "Baltimore",
        "state_province": "Maryland",
        "postal_code": "21213-2144",
        "country": "United States",
        "longitude": "-76.5531768",
        "latitude": "39.3149018",
        "phone": "4104833302",
        "website_url": "http://www.oliverbrewingco.com",
        "state": "Maryland",
        "street": "4216 Shannon Dr"
    },
    {
        "id": "74ece31f-809b-4139-882a-1e1c9328b7f6",
        "name": "Ology Brewing Co",
        "brewery_type": "micro",
        "address_1": "118 E 6th Ave",
        "address_2": null,
        "address_3": null,
        "city": "Tallahassee",
        "state_province": "Florida",
        "postal_code": "32303",
        "country": "United States",
        "longitude": "-84.2815824",
        "latitude": "30.45646517",
        "phone": "8505662463",
        "website_url": "http://www.ologybrewing.com",
        "state": "Florida",
        "street": "118 E 6th Ave"
    },
    {
        "id": "077b9bc3-e570-4f08-a6c6-87325271424a",
        "name": "Olvalde Farm & Brewing",
        "brewery_type": "micro",
        "address_1": "16557 County Road 25",
        "address_2": null,
        "address_3": null,
        "city": "Rollingstone",
        "state_province": "Minnesota",
        "postal_code": "55969-4046",
        "country": "United States",
        "longitude": null,
        "latitude": null,
        "phone": "5072054969",
        "website_url": "http://www.olvalde.com",
        "state": "Minnesota",
        "street": "16557 County Road 25"
    },
    {
        "id": "a88637ad-825b-415c-b29f-601794f2ecb5",
        "name": "Omaha Brewing Company",
        "brewery_type": "micro",
        "address_1": "265 Brew St",
        "address_2": null,
        "address_3": null,
        "city": "Omaha",
        "state_province": "Georgia",
        "postal_code": "31821-2258",
        "country": "United States",
        "longitude": null,
        "latitude": null,
        "phone": "2298384779",
        "website_url": "http://www.omahabrewingcompany.com",
        "state": "Georgia",
        "street": "265 Brew St"
    },
    {
        "id": "853b4f3f-35bd-48e7-a735-0e3364043a8a",
        "name": "Ombibulous Brewing Company",
        "brewery_type": "planning",
        "address_1": null,
        "address_2": null,
        "address_3": null,
        "city": "Fall Creek",
        "state_province": "Wisconsin",
        "postal_code": "54742-4965",
        "country": "United States",
        "longitude": null,
        "latitude": null,
        "phone": "7155779151",
        "website_url": null,
        "state": "Wisconsin",
        "street": null
    },
    {
        "id": "e5f2f0af-a281-4c82-a065-98689363dd4c",
        "name": "Omega Brewing Experience",
        "brewery_type": "micro",
        "address_1": "115 E. Main St",
        "address_2": null,
        "address_3": null,
        "city": "Omro",
        "state_province": "Wisconsin",
        "postal_code": "54963",
        "country": "United States",
        "longitude": "-88.7441189",
        "latitude": "44.0396052",
        "phone": null,
        "website_url": "https://www.facebook.com/Omega-Brewing-Experience-163883807641712/",
        "state": "Wisconsin",
        "street": "115 E. Main St"
    },
    {
        "id": "670097b2-bf75-4157-b909-e829676a0592",
        "name": "OMNI Brewing Company",
        "brewery_type": "micro",
        "address_1": "9462 Deerwood Ln N",
        "address_2": null,
        "address_3": null,
        "city": "Maple Grove",
        "state_province": "Minnesota",
        "postal_code": "55369-3629",
        "country": "United States",
        "longitude": "-93.42589843",
        "latitude": "45.12605143",
        "phone": "7152229832",
        "website_url": null,
        "state": "Minnesota",
        "street": "9462 Deerwood Ln N"
    },
    {
        "id": "76934d0b-fc8e-4050-8138-2da6a3059081",
        "name": "On Rotation Brewery",
        "brewery_type": "micro",
        "address_1": "7328 Gaston Ave # 110",
        "address_2": null,
        "address_3": null,
        "city": "Dallas",
        "state_province": "Texas",
        "postal_code": "75214-4130",
        "country": "United States",
        "longitude": "-96.731396",
        "latitude": "32.8109335",
        "phone": "9728072588",
        "website_url": "http://www.on-rotation.com",
        "state": "Texas",
        "street": "7328 Gaston Ave # 110"
    },
    {
        "id": "666792cc-8e1e-4db4-8d1d-c59c01356838",
        "name": "On The Fly Brewing Company",
        "brewery_type": "planning",
        "address_1": null,
        "address_2": null,
        "address_3": null,
        "city": "Sunbury",
        "state_province": "Ohio",
        "postal_code": "43074-9022",
        "country": "United States",
        "longitude": null,
        "latitude": null,
        "phone": "6145618735",
        "website_url": "http://www.ontheflybrewing.com",
        "state": "Ohio",
        "street": null
    },
    {
        "id": "a3261795-e389-45f6-9d4f-5ef77392416f",
        "name": "On Tour Brewing Co.",
        "brewery_type": "micro",
        "address_1": "1725 W Hubbard St",
        "address_2": null,
        "address_3": null,
        "city": "Chicago",
        "state_province": "Illinois",
        "postal_code": "60622-6213",
        "country": "United States",
        "longitude": "-87.670578",
        "latitude": "41.8896255",
        "phone": "3127963119",
        "website_url": "http://www.ontourbrewing.com",
        "state": "Illinois",
        "street": "1725 W Hubbard St"
    },
    {
        "id": "460f7adb-fa4e-4c32-aa32-367065e140fc",
        "name": "One Allegiance Brewing",
        "brewery_type": "planning",
        "address_1": null,
        "address_2": null,
        "address_3": null,
        "city": "Chicago Ridge",
        "state_province": "Illinois",
        "postal_code": "60415-1347",
        "country": "United States",
        "longitude": null,
        "latitude": null,
        "phone": null,
        "website_url": "http://www.OneAllegiance.com",
        "state": "Illinois",
        "street": null
    },
    {
        "id": "8aeb41b6-5d7e-4b56-8170-af58e83e6c3d",
        "name": "One Barrel Brewing Company",
        "brewery_type": "micro",
        "address_1": "2001 Atwood Ave",
        "address_2": null,
        "address_3": null,
        "city": "Madison",
        "state_province": "Wisconsin",
        "postal_code": "53704-5324",
        "country": "United States",
        "longitude": "-89.35499479",
        "latitude": "43.09180985",
        "phone": "6086309286",
        "website_url": "http://www.onebarrelbrewing.com",
        "state": "Wisconsin",
        "street": "2001 Atwood Ave"
    },
    {
        "id": "d3794681-04d5-428e-91b4-c700d35e1eef",
        "name": "One Brewing / Harmony Meadows Center",
        "brewery_type": "closed",
        "address_1": "4848 Green Ave Ste B",
        "address_2": null,
        "address_3": null,
        "city": "Manson",
        "state_province": "Washington",
        "postal_code": "98831-9404",
        "country": "United States",
        "longitude": null,
        "latitude": null,
        "phone": "5098882344",
        "website_url": "http://www.harmonymeadowscenter.com",
        "state": "Washington",
        "street": "4848 Green Ave Ste B"
    },
    {
        "id": "bfe4620f-2af2-457c-8465-2d85e6b926bb",
        "name": "One Eye Open Brewing Company",
        "brewery_type": "micro",
        "address_1": "41 Fox Street Shed A",
        "address_2": null,
        "address_3": null,
        "city": "Portland",
        "state_province": "Maine",
        "postal_code": "04101-2538",
        "country": "United States",
        "longitude": null,
        "latitude": null,
        "phone": "2075364176",
        "website_url": "http://www.oeobrewing.com",
        "state": "Maine",
        "street": "41 Fox Street Shed A"
    },
    {
        "id": "6fd50d10-b732-4eb1-9f20-3cd45ff45d21",
        "name": "One Eyed Buffalo Brewing Company LLC",
        "brewery_type": "brewpub",
        "address_1": "528 Broadway St",
        "address_2": null,
        "address_3": null,
        "city": "Thermopolis",
        "state_province": "Wyoming",
        "postal_code": "82443-2718",
        "country": "United States",
        "longitude": "-108.2107883",
        "latitude": "43.64609158",
        "phone": "3078643555",
        "website_url": null,
        "state": "Wyoming",
        "street": "528 Broadway St"
    }
]