[
    {
        "id": "e8875dc6-aa58-4c97-90d5-7b5c4fa07d83",
        "name": "Stained Glass Beerworks",
        "brewery_type": "planning",
        "address_1": null,
        "address_2": null,
        "address_3": null,
        "city": "Houston",
        "state_province": "Texas",
        "postal_code": "77066-2310",
        "country": "United States",
        "longitude": null,
        "latitude": null,
        "phone": "7134529337",
        "website_url": "http://www.stainedglassbeerworks.com",
        "state": "Texas",
        "street": null
    },
    {
        "id": "9b20b1ab-a897-4f76-9cd5-398519aeee86",
        "name": "Standard Brewing",
        "brewery_type": "brewpub",
        "address_1": "2504 S Jackson St Ste C",
        "address_2": null,
        "address_3": null,
        "city": "Seattle",
        "state_province": "Washington",
        "postal_code": "98144-2382",
        "country": "United States",
        "longitude": "-122.29977474611078",
        "latitude": "47.59963962730926",
        "phone": "2065351584",
        "website_url": "http://www.standardbrew.com",
        "state": "Washington",
        "street": "2504 S Jackson St Ste C"
    },
    {
        "id": "ec7a9bb2-e833-4221-a51a-579b5168d4af",
        "name": "Standard Deviant Brewing",
        "brewery_type": "micro",
        "address_1": "280 14th St",
        "address_2": null,
        "address_3": null,
        "city": "San Francisco",
        "state_province": "California",
        "postal_code": "94103-2420",
        "country": "United States",
        "longitude": "-122.4195984",
        "latitude": "37.76837929",
        "phone": "4155902550",
        "website_url": "http://www.standarddeviantbrewing.com",
        "state": "California",
        "street": "280 14th St"
    },
    {
        "id": "3fc5efe8-363a-4251-89e3-520d90075666",
        "name": "Standing Stone Brewing Co",
        "brewery_type": "micro",
        "address_1": "101 Oak St",
        "address_2": null,
        "address_3": null,
        "city": "Ashland",
        "state_province": "Oregon",
        "postal_code": "97520-1802",
        "country": "United States",
        "longitude": "-122.7145793",
        "latitude": "42.1976451",
        "phone": "5414822448",
        "website_url": "http://www.standingstonebrewing.com",
        "state": "Oregon",
        "street": "101 Oak St"
    },
    {
        "id": "58d2b5a4-e234-44fb-b51b-3a4322ab1329",
        "name": "Star B Ranch",
        "brewery_type": "planning",
        "address_1": null,
        "address_2": null,
        "address_3": null,
        "city": "Ramona",
        "state_province": "California",
        "postal_code": "92065-6714",
        "country": "United States",
        "longitude": "-116.8675132",
        "latitude": "33.035378",
        "phone": null,
        "website_url": null,
        "state": "California",
        "street": null
    },
    {
        "id": "121e183d-f8b2-4b24-8d45-a12a318f0629",
        "name": "Star City Brewing Company",
        "brewery_type": "micro",
        "address_1": "319 S 2nd St",
        "address_2": null,
        "address_3": null,
        "city": "Miamisburg",
        "state_province": "Ohio",
        "postal_code": "45342-2926",
        "country": "United States",
        "longitude": "-84.28859645",
        "latitude": "39.6379944",
        "phone": "9377017827",
        "website_url": "http://www.starcitybrewing.com",
        "state": "Ohio",
        "street": "319 S 2nd St"
    },
    {
        "id": "0a1697ea-5f82-4b35-8fe5-c3cd470f04d1",
        "name": "Starboard Brewing Co",
        "brewery_type": "brewpub",
        "address_1": "151 N 3rd Ave",
        "address_2": null,
        "address_3": null,
        "city": "Sturgeon Bay",
        "state_province": "Wisconsin",
        "postal_code": "54235-2415",
        "country": "United States",
        "longitude": "-87.37752984",
        "latitude": "44.83540984",
        "phone": "9208181062",
        "website_url": "http://www.starboardbrewing.com",
        "state": "Wisconsin",
        "street": "151 N 3rd Ave"
    },
    {
        "id": "03667e97-bece-4519-80c1-0aafc0f90403",
        "name": "Stargazer Brewing Company",
        "brewery_type": "planning",
        "address_1": null,
        "address_2": null,
        "address_3": null,
        "city": "Coatesville",
        "state_province": "Pennsylvania",
        "postal_code": "19320",
        "country": "United States",
        "longitude": null,
        "latitude": null,
        "phone": "6102096346",
        "website_url": null,
        "state": "Pennsylvania",
        "street": null
    },
    {
        "id": "9432a764-13ba-4672-83f8-1e2012dd660b",
        "name": "Stark Brewing Company",
        "brewery_type": "brewpub",
        "address_1": "500 North Commercial St",
        "address_2": null,
        "address_3": null,
        "city": "Manchester",
        "state_province": "New Hampshire",
        "postal_code": "03101-1151",
        "country": "United States",
        "longitude": "-71.4676557",
        "latitude": "42.9945554",
        "phone": "6036254444",
        "website_url": "http://www.starkbrewingcompany.com",
        "state": "New Hampshire",
        "street": "500 North Commercial St"
    },
    {
        "id": "dc52c24c-dd41-4c5f-b25f-7969dbc1a035",
        "name": "Starpoint Brewing, LLC",
        "brewery_type": "micro",
        "address_1": "901 Clarence Dr",
        "address_2": null,
        "address_3": null,
        "city": "Chapel Hill",
        "state_province": "North Carolina",
        "postal_code": "27516-3145",
        "country": "United States",
        "longitude": null,
        "latitude": null,
        "phone": "9195232302",
        "website_url": "http://starpointbrewing.com",
        "state": "North Carolina",
        "street": "901 Clarence Dr"
    },
    {
        "id": "a9441b9a-abbf-4b32-ba73-ee112330ecbc",
        "name": "Starpoint Brewing, LLC / Beer Study",
        "brewery_type": "micro",
        "address_1": "2501 University Dr Ste 4",
        "address_2": null,
        "address_3": null,
        "city": "Chapel Hill",
        "state_province": "North Carolina",
        "postal_code": "22707",
        "country": "United States",
        "longitude": null,
        "latitude": null,
        "phone": "9842197538",
        "website_url": "http://www.drinkdurham.com",
        "state": "North Carolina",
        "street": "2501 University Dr Ste 4"
    },
    {
        "id": "c483ea80-d10a-497f-9f02-47e8a4b23861",
        "name": "Starr Brothers Brewing Co.",
        "brewery_type": "brewpub",
        "address_1": "5700 San Antonio Dr NE Ste B1",
        "address_2": null,
        "address_3": null,
        "city": "Albuquerque",
        "state_province": "New Mexico",
        "postal_code": "87109-4179",
        "country": "United States",
        "longitude": null,
        "latitude": null,
        "phone": "5054922752",
        "website_url": "http://starrbrothersbrewing.com",
        "state": "New Mexico",
        "street": "5700 San Antonio Dr NE Ste B1"
    },
    {
        "id": "87832f67-9efa-4d30-9a10-f52fce61d062",
        "name": "Starr Hill Brewery LLC",
        "brewery_type": "regional",
        "address_1": "5391 Three Notch D Rd",
        "address_2": null,
        "address_3": null,
        "city": "Crozet",
        "state_province": "Virginia",
        "postal_code": "22932-3181",
        "country": "United States",
        "longitude": null,
        "latitude": null,
        "phone": "4348235671",
        "website_url": "http://www.starrhill.com",
        "state": "Virginia",
        "street": "5391 Three Notch D Rd"
    },
    {
        "id": "7c9fbe58-ea1a-4dd3-bb0f-f1ae386357bd",
        "name": "Starr Hill Pilot Brewery & Side Stage",
        "brewery_type": "micro",
        "address_1": "6 Old Whitmore Ave SE",
        "address_2": null,
        "address_3": null,
        "city": "Roanoke",
        "state_province": "Virginia",
        "postal_code": "24016-1212",
        "country": "United States",
        "longitude": null,
        "latitude": null,
        "phone": "4348235671",
        "website_url": null,
        "state": "Virginia",
        "street": "6 Old Whitmore Ave SE"
    },
    {
        "id": "11c5fe19-a115-4284-bae8-b24ba3841f35",
        "name": "Starry Eyed Brewing Company",
        "brewery_type": "micro",
        "address_1": "16757 11th St NE",
        "address_2": null,
        "address_3": null,
        "city": "Little Falls",
        "state_province": "Minnesota",
        "postal_code": "56345-2203",
        "country": "United States",
        "longitude": "-94.3451474",
        "latitude": "45.9831733",
        "phone": "3202320382",
        "website_url": "http://www.starryeyedbrewing.com",
        "state": "Minnesota",
        "street": "16757 11th St NE"
    },
    {
        "id": "851420af-9b77-498f-ac1b-43daddc03941",
        "name": "Start Line Brewing Company",
        "brewery_type": "micro",
        "address_1": "151R Hayden Rowe St",
        "address_2": null,
        "address_3": null,
        "city": "Hopkinton",
        "state_province": "Massachusetts",
        "postal_code": "01748-2511",
        "country": "United States",
        "longitude": "-71.51323676",
        "latitude": "42.21031634",
        "phone": "5087612044",
        "website_url": "http://www.startlinebrewing.com",
        "state": "Massachusetts",
        "street": "151R Hayden Rowe St"
    },
    {
        "id": "481a0ead-5e95-451e-a431-ba8972b7e5ea",
        "name": "Starving Artist Brewing",
        "brewery_type": "micro",
        "address_1": "634 S Stiles Rd",
        "address_2": null,
        "address_3": null,
        "city": "Ludington",
        "state_province": "Michigan",
        "postal_code": "49431-9311",
        "country": "United States",
        "longitude": null,
        "latitude": null,
        "phone": "2317941399",
        "website_url": "http://starvingartist.beer",
        "state": "Michigan",
        "street": "634 S Stiles Rd"
    },
    {
        "id": "91420d9d-1087-4602-b078-780f33fa6f05",
        "name": "Stash Brewing Co",
        "brewery_type": "closed",
        "address_1": "3782 Winding Creek Ln",
        "address_2": null,
        "address_3": null,
        "city": "Garden Valley",
        "state_province": "California",
        "postal_code": "95633-9773",
        "country": "United States",
        "longitude": "-120.8784951",
        "latitude": "38.8402775",
        "phone": "4156804181",
        "website_url": "http://stashbrewingco.com",
        "state": "California",
        "street": "3782 Winding Creek Ln"
    },
    {
        "id": "436846b7-4538-4d89-b919-2396c7f00ab8",
        "name": "State 48 Barrel and Lager House",
        "brewery_type": "planning",
        "address_1": null,
        "address_2": null,
        "address_3": null,
        "city": "Scottsdale",
        "state_province": "Arizona",
        "postal_code": "85260-1924",
        "country": "United States",
        "longitude": "-111.8992365",
        "latitude": "33.5091215",
        "phone": null,
        "website_url": null,
        "state": "Arizona",
        "street": null
    },
    {
        "id": "6260eac2-6949-4c19-aec9-739c2cdcf849",
        "name": "State 48 Brewery",
        "brewery_type": "planning",
        "address_1": null,
        "address_2": null,
        "address_3": null,
        "city": "Phoenix",
        "state_province": "Arizona",
        "postal_code": "85003-1626",
        "country": "United States",
        "longitude": "-112.0773456",
        "latitude": "33.4485866",
        "phone": null,
        "website_url": null,
        "state": "Arizona",
        "street": null
    },
    {
        "id": "733fcd37-636e-469f-b8fa-6b928d009d89",
        "name": "State 48 Brewery",
        "brewery_type": "brewpub",
        "address_1": "13823 W Bell Rd",
        "address_2": null,
        "address_3": null,
        "city": "Surprise",
        "state_province": "Arizona",
        "postal_code": "85374-3873",
        "country": "United States",
        "longitude": "-112.3578138",
        "latitude": "33.63822125",
        "phone": "6235841095",
        "website_url": null,
        "state": "Arizona",
        "street": "13823 W Bell Rd"
    },
    {
        "id": "1f1449bb-4f21-4fa7-b542-625e13ad02d5",
        "name": "State Brewing Co LLC",
        "brewery_type": "closed",
        "address_1": "1237 W 134th St Ste 2",
        "address_2": null,
        "address_3": null,
        "city": "Gardena",
        "state_province": "California",
        "postal_code": "90247-1962",
        "country": "United States",
        "longitude": "-118.2978732",
        "latitude": "33.91111274",
        "phone": "3108198179",
        "website_url": "http://www.statebrewingco.com",
        "state": "California",
        "street": "1237 W 134th St Ste 2"
    },
    {
        "id": "f72d12e9-ae13-4184-952c-3ea501798e94",
        "name": "State Room Brewery",
        "brewery_type": "brewpub",
        "address_1": "1132 4th St",
        "address_2": null,
        "address_3": null,
        "city": "San Rafael",
        "state_province": "California",
        "postal_code": "94901-3007",
        "country": "United States",
        "longitude": "-122.5286585",
        "latitude": "37.97327448",
        "phone": "4152957929",
        "website_url": "http://stateroombrewery.com",
        "state": "California",
        "street": "1132 4th St"
    },
    {
        "id": "aa3e7b92-9943-4fc3-ab99-0c68e8045088",
        "name": "Stateline Brewery",
        "brewery_type": "brewpub",
        "address_1": "4118 Lake Tahoe Blvd Ste 1",
        "address_2": null,
        "address_3": null,
        "city": "South Lake Tahoe",
        "state_province": "California",
        "postal_code": "96150-6990",
        "country": "United States",
        "longitude": "-119.9424674",
        "latitude": "38.95801631",
        "phone": "5305429000",
        "website_url": "http://www.statelinebrewery.com",
        "state": "California",
        "street": "4118 Lake Tahoe Blvd Ste 1"
    },
    {
        "id": "d04514b9-1c70-4e28-a603-cb7a70da3045",
        "name": "Staten Island Beer Company",
        "brewery_type": "micro",
        "address_1": "20 Kinsey Pl",
        "address_2": null,
        "address_3": null,
        "city": "Staten Island",
        "state_province": "New York",
        "postal_code": "10303-1427",
        "country": "United States",
        "longitude": "-74.17033729",
        "latitude": "40.62874743",
        "phone": "7183908445",
        "website_url": "http://www.sibeerco.com",
        "state": "New York",
        "street": "20 Kinsey Pl"
    },
    {
        "id": "11977488-1872-4b1b-9e28-f9c68f9db873",
        "name": "Station 26 Brewing Co",
        "brewery_type": "micro",
        "address_1": "7045 E 38th Ave",
        "address_2": null,
        "address_3": null,
        "city": "Denver",
        "state_province": "Colorado",
        "postal_code": "80207-1541",
        "country": "United States",
        "longitude": "-104.9062608",
        "latitude": "39.76935335",
        "phone": null,
        "website_url": "http://www.station26brewing.co",
        "state": "Colorado",
        "street": "7045 E 38th Ave"
    },
    {
        "id": "d11fa007-74a5-456a-b508-bce3dfe51414",
        "name": "Stats Brewpub",
        "brewery_type": "brewpub",
        "address_1": "300 Marietta St NW",
        "address_2": null,
        "address_3": null,
        "city": "Atlanta",
        "state_province": "Georgia",
        "postal_code": "30313-1632",
        "country": "United States",
        "longitude": "-84.3964736",
        "latitude": "33.7615549",
        "phone": "7705700160",
        "website_url": "http://StatsATL.com",
        "state": "Georgia",
        "street": "300 Marietta St NW"
    },
    {
        "id": "1cebb6fc-f76e-432e-a55d-a58c3d1dbffd",
        "name": "Staunton River Brewing Company",
        "brewery_type": "micro",
        "address_1": "1571 Mount Calvary Rd",
        "address_2": null,
        "address_3": null,
        "city": "Brookneal",
        "state_province": "Virginia",
        "postal_code": "24528-3156",
        "country": "United States",
        "longitude": null,
        "latitude": null,
        "phone": "4343769463",
        "website_url": "http://www.stauntonriverbrewing.com",
        "state": "Virginia",
        "street": "1571 Mount Calvary Rd"
    },
    {
        "id": "ae5ab620-975f-4ee3-8625-07b93d9ff0f6",
        "name": "Steadfast Beer Co",
        "brewery_type": "contract",
        "address_1": "1756 Western Ave Rear",
        "address_2": null,
        "address_3": null,
        "city": "Albany",
        "state_province": "New York",
        "postal_code": "12203-4414",
        "country": "United States",
        "longitude": null,
        "latitude": null,
        "phone": null,
        "website_url": "http://www.steadfastbeer.com",
        "state": "New York",
        "street": "1756 Western Ave Rear"
    },
    {
        "id": "e4fcbf74-5b11-4e1b-8e90-854a041b5bda",
        "name": "Steady Habit Brewing Company",
        "brewery_type": "closed",
        "address_1": "95 Bridge Rd",
        "address_2": null,
        "address_3": null,
        "city": "Haddam",
        "state_province": "Connecticut",
        "postal_code": "06438-1354",
        "country": "United States",
        "longitude": null,
        "latitude": null,
        "phone": "8607775041",
        "website_url": null,
        "state": "Connecticut",
        "street": "95 Bridge Rd"
    },
    {
        "id": "fb49c03e-5117-4969-87ad-4ae6f1b71831",
        "name": "Steam Bell Beer Works",
        "brewery_type": "micro",
        "address_1": "1717 Oak Lake Blvd E",
        "address_2": null,
        "address_3": null,
        "city": "Midlothian",
        "state_province": "Virginia",
        "postal_code": "23112-3995",
        "country": "United States",
        "longitude": null,
        "latitude": null,
        "phone": "8047281876",
        "website_url": "http://www.steambell.beer",
        "state": "Virginia",
        "street": "1717 Oak Lake Blvd E"
    },
    {
        "id": "8de57d40-c837-4d77-9275-e827ddc43675",
        "name": "Steam Donkey Brewing Co",
        "brewery_type": "micro",
        "address_1": "101 E Wishkah St",
        "address_2": null,
        "address_3": null,
        "city": "Aberdeen",
        "state_province": "Washington",
        "postal_code": "98520-6503",
        "country": "United States",
        "longitude": "-123.81773",
        "latitude": "46.974242",
        "phone": "3606379431",
        "website_url": "http://Steamdonkeybrewing.com",
        "state": "Washington",
        "street": "101 E Wishkah St"
    },
    {
        "id": "f0ccfae1-90ea-44bb-8b23-9c57fb4aa836",
        "name": "Steam Plant Grill",
        "brewery_type": "brewpub",
        "address_1": "159 S Lincoln St Ste 1",
        "address_2": null,
        "address_3": null,
        "city": "Spokane",
        "state_province": "Washington",
        "postal_code": "99201-4409",
        "country": "United States",
        "longitude": "-117.42472914426047",
        "latitude": "47.655376934489944",
        "phone": "5097773900",
        "website_url": "http://www.steamplantspokane.com",
        "state": "Washington",
        "street": "159 S Lincoln St Ste 1"
    },
    {
        "id": "c04f39d4-df5f-48d4-9645-148072eeb9f5",
        "name": "Steam Theory Brewing Co",
        "brewery_type": "planning",
        "address_1": null,
        "address_2": null,
        "address_3": null,
        "city": "Dallas",
        "state_province": "Texas",
        "postal_code": "75212-4101",
        "country": "United States",
        "longitude": null,
        "latitude": null,
        "phone": null,
        "website_url": "http://www.steamtheorybrewing.com",
        "state": "Texas",
        "street": null
    },
    {
        "id": "279c975d-899d-45a9-9655-ab335b6ebf60",
        "name": "Steampunk Brew Works",
        "brewery_type": "micro",
        "address_1": "231 Lamp and Lantern Vlg",
        "address_2": null,
        "address_3": null,
        "city": "Chesterfield",
        "state_province": "Missouri",
        "postal_code": "63017-8209",
        "country": "United States",
        "longitude": "-90.517873",
        "latitude": "38.625963",
        "phone": "6362308277",
        "website_url": "http://www.steampunkbrewworks.com",
        "state": "Missouri",
        "street": "231 Lamp and Lantern Vlg"
    },
    {
        "id": "a6d2caab-e4de-42dc-8ff0-8daceeb843f5",
        "name": "Steamworks Brewing Co",
        "brewery_type": "brewpub",
        "address_1": "801 E 2nd Ave",
        "address_2": null,
        "address_3": null,
        "city": "Durango",
        "state_province": "Colorado",
        "postal_code": "81301-5425",
        "country": "United States",
        "longitude": "-107.87979",
        "latitude": "37.272176",
        "phone": "9702599200",
        "website_url": "http://www.steamworksbrewing.com",
        "state": "Colorado",
        "street": "801 E 2nd Ave"
    },
    {
        "id": "e1bcecf4-738e-41e0-a2c8-c0fca901a0e2",
        "name": "Steel Bender Brewyard",
        "brewery_type": "brewpub",
        "address_1": "8305 2nd St NW",
        "address_2": null,
        "address_3": null,
        "city": "Los Ranchos de Albuquerque",
        "state_province": "New Mexico",
        "postal_code": "87114-1038",
        "country": "United States",
        "longitude": null,
        "latitude": null,
        "phone": "5054333537",
        "website_url": "http://www.steelbenderbrewyard.com",
        "state": "New Mexico",
        "street": "8305 2nd St NW"
    },
    {
        "id": "4c64c6ac-e0aa-4b2b-bec9-121539fc21ec",
        "name": "Steel Bonnet Brewing Co",
        "brewery_type": "micro",
        "address_1": "20 Victor Sq Ste B",
        "address_2": null,
        "address_3": null,
        "city": "Scotts Valley",
        "state_province": "California",
        "postal_code": "95066-3518",
        "country": "United States",
        "longitude": "-122.0061729",
        "latitude": "37.06188758",
        "phone": "8314548429",
        "website_url": "http://www.steelbon.net",
        "state": "California",
        "street": "20 Victor Sq Ste B"
    },
    {
        "id": "259c6bad-d77b-4e96-99ba-78873517c6ca",
        "name": "Steel Hands Brewing",
        "brewery_type": "planning",
        "address_1": null,
        "address_2": null,
        "address_3": null,
        "city": "Cayce",
        "state_province": "South Carolina",
        "postal_code": "29033-3439",
        "country": "United States",
        "longitude": null,
        "latitude": null,
        "phone": "8039200592",
        "website_url": null,
        "state": "South Carolina",
        "street": null
    },
    {
        "id": "1638e0aa-5017-4c87-9b60-4de2a5b4d8f4",
        "name": "Steel Squared Brewing Company",
        "brewery_type": "contract",
        "address_1": "1597 Tiffany Ct",
        "address_2": null,
        "address_3": null,
        "city": "de Pere",
        "state_province": "Wisconsin",
        "postal_code": "54115-9042",
        "country": "United States",
        "longitude": null,
        "latitude": null,
        "phone": null,
        "website_url": null,
        "state": "Wisconsin",
        "street": "1597 Tiffany Ct"
    },
    {
        "id": "8016ba19-ba7a-4ea1-bd8f-86203aa8fa08",
        "name": "Steel String Craft Brewery",
        "brewery_type": "brewpub",
        "address_1": "106 S Greensboro St Ste A",
        "address_2": null,
        "address_3": null,
        "city": "Carrboro",
        "state_province": "North Carolina",
        "postal_code": "27510-2266",
        "country": "United States",
        "longitude": null,
        "latitude": null,
        "phone": "9192407215",
        "website_url": "http://www.steelstringbrewery.com",
        "state": "North Carolina",
        "street": "106 S Greensboro St Ste A"
    },
    {
        "id": "d469044a-3e41-4b21-8112-582d47a656a7",
        "name": "Steel Toe Brewing",
        "brewery_type": "micro",
        "address_1": "4848 W 35th St",
        "address_2": null,
        "address_3": null,
        "city": "St Louis Park",
        "state_province": "Minnesota",
        "postal_code": "55416-2610",
        "country": "United States",
        "longitude": "-93.34180586",
        "latitude": "44.94042645",
        "phone": "9529559965",
        "website_url": "http://www.steeltoebrewing.com",
        "state": "Minnesota",
        "street": "4848 W 35th St"
    },
    {
        "id": "15971ca8-5993-4fb0-8fe3-f68f2860d00a",
        "name": "Steele and Hops Public House",
        "brewery_type": "brewpub",
        "address_1": "1901 Mendocino Ave",
        "address_2": null,
        "address_3": null,
        "city": "Santa Rosa",
        "state_province": "California",
        "postal_code": "95401",
        "country": "United States",
        "longitude": "-122.717258",
        "latitude": "38.459216",
        "phone": "7075232201",
        "website_url": "http://www.steeleandhops.com",
        "state": "California",
        "street": "1901 Mendocino Ave"
    },
    {
        "id": "7a9a8bce-cd3d-4518-9647-82f6b4408abb",
        "name": "SteelHead Aleworks",
        "brewery_type": "micro",
        "address_1": null,
        "address_2": null,
        "address_3": null,
        "city": "Mukwonago",
        "state_province": "Wisconsin",
        "postal_code": "53149",
        "country": "United States",
        "longitude": null,
        "latitude": null,
        "phone": null,
        "website_url": "http://www.stealheadaleworks.com",
        "state": "Wisconsin",
        "street": null
    },
    {
        "id": "49822141-1c9d-4fd3-8218-6315d80d0c9f",
        "name": "Steelhead Brewing Co - Burlingame Station",
        "brewery_type": "brewpub",
        "address_1": "333 California Dr",
        "address_2": null,
        "address_3": null,
        "city": "Burlingame",
        "state_province": "California",
        "postal_code": "94010-4114",
        "country": "United States",
        "longitude": "-122.3462607",
        "latitude": "37.5799728",
        "phone": "6503446050",
        "website_url": "http://www.steelheadbrewery.com",
        "state": "California",
        "street": "333 California Dr"
    },
    {
        "id": "41226f84-764d-4250-9993-2ef81a7472d9",
        "name": "Steens Mountain Brewing Company",
        "brewery_type": "micro",
        "address_1": "673 B W Monroe St",
        "address_2": null,
        "address_3": null,
        "city": "Burns",
        "state_province": "Oregon",
        "postal_code": "97720",
        "country": "United States",
        "longitude": "-119.060813",
        "latitude": "43.585639",
        "phone": "5415891159",
        "website_url": null,
        "state": "Oregon",
        "street": "673 B W Monroe St"
    },
    {
        "id": "9164b9c4-f14f-41ef-851f-994b79502e3d",
        "name": "Steeple Brewing Co",
        "brewery_type": "micro",
        "address_1": "717 W 1st St",
        "address_2": null,
        "address_3": null,
        "city": "Hastings",
        "state_province": "Nebraska",
        "postal_code": "68901",
        "country": "United States",
        "longitude": "-98.39024973",
        "latitude": "40.58418233",
        "phone": "4025194205",
        "website_url": "http://www.steeplebrewing.com",
        "state": "Nebraska",
        "street": "717 W 1st St"
    },
    {
        "id": "7bfc0b84-5f81-4277-80ee-ea3633c6d1d4",
        "name": "Stein Brewing Company",
        "brewery_type": "micro",
        "address_1": "2516 49th St",
        "address_2": null,
        "address_3": null,
        "city": "Boulder",
        "state_province": "Colorado",
        "postal_code": "80301-2455",
        "country": "United States",
        "longitude": "-105.2378323",
        "latitude": "40.0238083",
        "phone": "3033960384",
        "website_url": "http://www.jwellsbrewery.com",
        "state": "Colorado",
        "street": "2516 49th St"
    },
    {
        "id": "4142b73a-3079-4c57-ac64-9577f134a13b",
        "name": "Stein Brewing Company",
        "brewery_type": "planning",
        "address_1": null,
        "address_2": null,
        "address_3": null,
        "city": "Mount Vernon",
        "state_province": "Ohio",
        "postal_code": "43050-3323",
        "country": "United States",
        "longitude": null,
        "latitude": null,
        "phone": null,
        "website_url": "http://www.SteinBrewCo.com",
        "state": "Ohio",
        "street": null
    },
    {
        "id": "061fff88-4a8a-4a81-8a99-2ac2d203732c",
        "name": "Steinhardt Brewing Company",
        "brewery_type": "micro",
        "address_1": "5710 Jefferson Blvd",
        "address_2": null,
        "address_3": null,
        "city": "Frederick",
        "state_province": "Maryland",
        "postal_code": "21703-6947",
        "country": "United States",
        "longitude": "-77.512519",
        "latitude": "39.391045",
        "phone": null,
        "website_url": "http://www.steinhardtbrewing.com",
        "state": "Maryland",
        "street": "5710 Jefferson Blvd"
    },
    {
        "id": "17086f05-6d04-4e38-8924-8b16ad921480",
        "name": "Stellwagen Beer Company",
        "brewery_type": "planning",
        "address_1": null,
        "address_2": null,
        "address_3": null,
        "city": "Marshfield",
        "state_province": "Massachusetts",
        "postal_code": "02050",
        "country": "United States",
        "longitude": null,
        "latitude": null,
        "phone": "7817899162",
        "website_url": "http://www.stellwagenbeer.com",
        "state": "Massachusetts",
        "street": null
    },
    {
        "id": "0d1246aa-303a-4e8f-83a8-bf1410ec1279",
        "name": "Stemma Brewing Co",
        "brewery_type": "micro",
        "address_1": "2039 Moore St.",
        "address_2": null,
        "address_3": null,
        "city": "Bellingham",
        "state_province": "Washington",
        "postal_code": "98229",
        "country": "United States",
        "longitude": "-122.46103",
        "latitude": "48.75759",
        "phone": "3607468385",
        "website_url": "https://www.stemmabrewing.com/",
        "state": "Washington",
        "street": "2039 Moore St."
    },
    {
        "id": "c4e6598e-6254-4585-9294-66cbdcbc4b79",
        "name": "Stereo Brewing Co",
        "brewery_type": "micro",
        "address_1": "950 S Via Rodeo",
        "address_2": null,
        "address_3": null,
        "city": "Placentia",
        "state_province": "California",
        "postal_code": "92870-6775",
        "country": "United States",
        "longitude": "-117.8200802",
        "latitude": "33.86330957",
        "phone": "7149933390",
        "website_url": "http://www.stereobrewing.com",
        "state": "California",
        "street": "950 S Via Rodeo"
    },
    {
        "id": "2119dc54-184b-4f1e-ada6-f085576e3760",
        "name": "Sterling Beer Co.",
        "brewery_type": "contract",
        "address_1": "3214 Preston Hwy",
        "address_2": null,
        "address_3": null,
        "city": "Louisville",
        "state_province": "Kentucky",
        "postal_code": "40213-1330",
        "country": "United States",
        "longitude": "-85.7347014",
        "latitude": "38.2019083",
        "phone": "5022338485",
        "website_url": "http://www.sterlingbeer.com",
        "state": "Kentucky",
        "street": "3214 Preston Hwy"
    },
    {
        "id": "a47291a8-90f1-4b37-b517-e857fbf66b5f",
        "name": "Sterling Pig Brewery",
        "brewery_type": "brewpub",
        "address_1": "609 W State St",
        "address_2": null,
        "address_3": null,
        "city": "Media",
        "state_province": "Pennsylvania",
        "postal_code": "19063-2641",
        "country": "United States",
        "longitude": "-75.3949477",
        "latitude": "39.918688",
        "phone": "4844442526",
        "website_url": "http://www.sterlingpigbrewery.com",
        "state": "Pennsylvania",
        "street": "609 W State St"
    },
    {
        "id": "c91229a8-b327-4d38-94e9-473265759cb1",
        "name": "Stesti Brewing Company",
        "brewery_type": "micro",
        "address_1": "1314 FM 2915",
        "address_2": null,
        "address_3": null,
        "city": "Lovelady",
        "state_province": "Texas",
        "postal_code": "75851",
        "country": "United States",
        "longitude": null,
        "latitude": null,
        "phone": "9362046858",
        "website_url": null,
        "state": "Texas",
        "street": "1314 FM 2915"
    },
    {
        "id": "8e78d6ea-2ed7-4489-b050-cb3b0456cea1",
        "name": "Steuben Brewing Company",
        "brewery_type": "micro",
        "address_1": "10286 Judson Rd",
        "address_2": null,
        "address_3": null,
        "city": "Hammondsport",
        "state_province": "New York",
        "postal_code": "14840-9668",
        "country": "United States",
        "longitude": null,
        "latitude": null,
        "phone": "6072798874",
        "website_url": "http://www.steubenbrewingcompany.com",
        "state": "New York",
        "street": "10286 Judson Rd"
    },
    {
        "id": "608d1bd1-4164-484d-851a-8b83f958a211",
        "name": "Stevens Point Brewery",
        "brewery_type": "regional",
        "address_1": "2617 Water St",
        "address_2": null,
        "address_3": null,
        "city": "Stevens Point",
        "state_province": "Wisconsin",
        "postal_code": "54481-5248",
        "country": "United States",
        "longitude": "-89.57398078",
        "latitude": "44.51026271",
        "phone": "7153449310",
        "website_url": "http://www.pointbeer.com",
        "state": "Wisconsin",
        "street": "2617 Water St"
    },
    {
        "id": "2c73a4ad-8953-4e91-8d3c-bf9f1cb2d807",
        "name": "Stewart's Brewing Co",
        "brewery_type": "brewpub",
        "address_1": "219 Governors Pl",
        "address_2": null,
        "address_3": null,
        "city": "Bear",
        "state_province": "Delaware",
        "postal_code": "19701-3026",
        "country": "United States",
        "longitude": null,
        "latitude": null,
        "phone": "3028362739",
        "website_url": "http://www.stewartsbrewingcompany.com",
        "state": "Delaware",
        "street": "219 Governors Pl"
    },
    {
        "id": "5d48eb13-35d2-4724-be47-4095fd49426a",
        "name": "Stewbum",
        "brewery_type": "brewpub",
        "address_1": "96 N King St",
        "address_2": null,
        "address_3": null,
        "city": "Honolulu",
        "state_province": "Hawaii",
        "postal_code": "96817-5109",
        "country": "United States",
        "longitude": "-157.8634762",
        "latitude": "21.31171513",
        "phone": "8086646684",
        "website_url": "http://www.stewbumandstonewall.com",
        "state": "Hawaii",
        "street": "96 N King St"
    },
    {
        "id": "180b2f4c-3d94-4ca2-af1f-709f0df12923",
        "name": "Stick City Brewing Company",
        "brewery_type": "micro",
        "address_1": "109 Irvine ST",
        "address_2": null,
        "address_3": null,
        "city": "Mars",
        "state_province": "Pennsylvania",
        "postal_code": "16046-0372",
        "country": "United States",
        "longitude": "-80.0095235",
        "latitude": "40.69553485",
        "phone": "7247897849",
        "website_url": "http://www.stickcitybeer.com",
        "state": "Pennsylvania",
        "street": "109 Irvine ST"
    },
    {
        "id": "7287c68d-4f90-4fd7-b695-2410de8a3781",
        "name": "Stickman Brews",
        "brewery_type": "micro",
        "address_1": "326 N Lewis Rd # 240",
        "address_2": null,
        "address_3": null,
        "city": "Royersford",
        "state_province": "Pennsylvania",
        "postal_code": "19468-1509",
        "country": "United States",
        "longitude": "-75.53755464",
        "latitude": "40.2000606",
        "phone": "4849385900",
        "website_url": "http://www.stickmanbrews.com",
        "state": "Pennsylvania",
        "street": "326 N Lewis Rd # 240"
    },
    {
        "id": "d4ccc2fc-b6a8-4a24-bb52-eb9ecea3aaa4",
        "name": "Stickmen Brewery",
        "brewery_type": "brewpub",
        "address_1": "40 N State St",
        "address_2": null,
        "address_3": null,
        "city": "Lake Oswego",
        "state_province": "Oregon",
        "postal_code": "97034-3926",
        "country": "United States",
        "longitude": "-122.6638277",
        "latitude": "45.4161533",
        "phone": null,
        "website_url": null,
        "state": "Oregon",
        "street": "40 N State St"
    },
    {
        "id": "9a678cf5-99b6-4877-bf49-d5b7bc268386",
        "name": "Stiggs Brewery & Kitchen",
        "brewery_type": "brewpub",
        "address_1": "112 S Park St",
        "address_2": null,
        "address_3": null,
        "city": "Boyne City",
        "state_province": "Michigan",
        "postal_code": "49712-1251",
        "country": "United States",
        "longitude": null,
        "latitude": null,
        "phone": "2314976100",
        "website_url": "http://www.stiggsbrewingcompany.com",
        "state": "Michigan",
        "street": "112 S Park St"
    },
    {
        "id": "dda7d07a-9bae-4183-9291-506712c78750",
        "name": "Still HIll Brewery LLC",
        "brewery_type": "micro",
        "address_1": "1275 Cromwell Ave Ste C8 Unit 9",
        "address_2": null,
        "address_3": null,
        "city": "Rocky Hill",
        "state_province": "Connecticut",
        "postal_code": "06067-3430",
        "country": "United States",
        "longitude": null,
        "latitude": null,
        "phone": "8604366368",
        "website_url": "http://www.stillhillbrewery.com",
        "state": "Connecticut",
        "street": "1275 Cromwell Ave Ste C8 Unit 9"
    },
    {
        "id": "51406172-17ff-49ec-a1ec-218756528dd4",
        "name": "Still River Brewery",
        "brewery_type": "micro",
        "address_1": "121 Clinton Shore Dr.",
        "address_2": null,
        "address_3": null,
        "city": "Still River",
        "state_province": "Massachusetts",
        "postal_code": "01467-0157",
        "country": "United States",
        "longitude": null,
        "latitude": null,
        "phone": null,
        "website_url": null,
        "state": "Massachusetts",
        "street": "121 Clinton Shore Dr."
    },
    {
        "id": "a8a67e73-3473-4323-88c3-ab3ca4ed5f32",
        "name": "Stillmank Brewing Company",
        "brewery_type": "micro",
        "address_1": "215 N Henry St",
        "address_2": null,
        "address_3": null,
        "city": "Green Bay",
        "state_province": "Wisconsin",
        "postal_code": "54302-2613",
        "country": "United States",
        "longitude": "-87.97838833",
        "latitude": "44.5044596",
        "phone": "9207852337",
        "website_url": "http://www.stillmankbrewery.com",
        "state": "Wisconsin",
        "street": "215 N Henry St"
    },
    {
        "id": "47b9435c-a74e-47ed-887d-6c0830648d6d",
        "name": "Stillwater Artisanal Ales",
        "brewery_type": "contract",
        "address_1": "720 S Conkling St",
        "address_2": null,
        "address_3": null,
        "city": "Baltimore",
        "state_province": "Maryland",
        "postal_code": "21224-4301",
        "country": "United States",
        "longitude": "-76.56726435",
        "latitude": "39.28408355",
        "phone": "4436685255",
        "website_url": null,
        "state": "Maryland",
        "street": "720 S Conkling St"
    },
    {
        "id": "94a2e9ac-ed3d-406c-8686-b5faa0de915b",
        "name": "StillWest Brewery & Grill",
        "brewery_type": "brewpub",
        "address_1": "45 E Snow King Ave",
        "address_2": null,
        "address_3": null,
        "city": "Jackson",
        "state_province": "Wyoming",
        "postal_code": "83001-8668",
        "country": "United States",
        "longitude": "-110.76144961340363",
        "latitude": "43.473609412413026",
        "phone": "3072015955",
        "website_url": "https://www.stillwestbreweryandgrill.com",
        "state": "Wyoming",
        "street": "45 E Snow King Ave"
    },
    {
        "id": "08279a5f-e91d-4233-aa86-b79c58f45644",
        "name": "Stilt House Brewery",
        "brewery_type": "micro",
        "address_1": "625 US 19 Alt",
        "address_2": null,
        "address_3": null,
        "city": "Palm Harbor",
        "state_province": "Florida",
        "postal_code": "34683",
        "country": "United States",
        "longitude": null,
        "latitude": null,
        "phone": "8138911693",
        "website_url": "http://www.stilthousebrewery.com",
        "state": "Florida",
        "street": "625 US 19 Alt"
    },
    {
        "id": "fb72269a-fe00-40ad-989e-a4878bd4bc1c",
        "name": "Stitch House Brewery",
        "brewery_type": "brewpub",
        "address_1": "829 North Market Street",
        "address_2": null,
        "address_3": null,
        "city": "Wilmington",
        "state_province": "Delaware",
        "postal_code": "19801",
        "country": "United States",
        "longitude": "-75.54908716",
        "latitude": "39.7438473",
        "phone": "3022504280",
        "website_url": "http://www.stitchhousebrewery.com",
        "state": "Delaware",
        "street": "829 North Market Street"
    },
    {
        "id": "e44f1b26-d801-452b-a1f0-fddaf35f3948",
        "name": "Stockholms Vardshus",
        "brewery_type": "brewpub",
        "address_1": "306 W State St",
        "address_2": null,
        "address_3": null,
        "city": "Geneva",
        "state_province": "Illinois",
        "postal_code": "60134-2103",
        "country": "United States",
        "longitude": "-88.30735303",
        "latitude": "41.88776869",
        "phone": "6302081400",
        "website_url": "http://www.stockholmsbrewpub.com",
        "state": "Illinois",
        "street": "306 W State St"
    },
    {
        "id": "b632b81c-fc78-4789-a37a-0e77d6c483f7",
        "name": "Stockyards Brewing Company",
        "brewery_type": "micro",
        "address_1": "1600 Genessee St Ste 100",
        "address_2": null,
        "address_3": null,
        "city": "Kansas City",
        "state_province": "Missouri",
        "postal_code": "64102-1044",
        "country": "United States",
        "longitude": "-94.605113",
        "latitude": "39.094436",
        "phone": "8168958880",
        "website_url": "http://www.stockyardsbrewing.com",
        "state": "Missouri",
        "street": "1600 Genessee St Ste 100"
    },
    {
        "id": "5e44f9ac-ec1e-4143-a21e-b7af8c507e40",
        "name": "Stoic Brewing",
        "brewery_type": "contract",
        "address_1": "667 Robinett Rd",
        "address_2": null,
        "address_3": null,
        "city": "Waxahachie",
        "state_province": "Texas",
        "postal_code": "75165-6343",
        "country": "United States",
        "longitude": null,
        "latitude": null,
        "phone": "5128884843",
        "website_url": "http://stoicbrewing.com",
        "state": "Texas",
        "street": "667 Robinett Rd"
    },
    {
        "id": "5edf4546-8f83-48c9-8d15-52899b67a2b4",
        "name": "Stoik Beer Company",
        "brewery_type": "planning",
        "address_1": null,
        "address_2": null,
        "address_3": null,
        "city": "Delta",
        "state_province": "Colorado",
        "postal_code": "81416",
        "country": "United States",
        "longitude": null,
        "latitude": null,
        "phone": null,
        "website_url": "http://www.stoikbeer.com",
        "state": "Colorado",
        "street": null
    },
    {
        "id": "a93eb7a0-8cfe-4d36-9368-115a290c47c9",
        "name": "Stoker's Brewing Company",
        "brewery_type": "planning",
        "address_1": null,
        "address_2": null,
        "address_3": null,
        "city": "Tamaqua",
        "state_province": "Pennsylvania",
        "postal_code": "18252-1405",
        "country": "United States",
        "longitude": null,
        "latitude": null,
        "phone": null,
        "website_url": null,
        "state": "Pennsylvania",
        "street": null
    },
    {
        "id": "985764fc-a5cf-4634-8bf3-e89dde5e6531",
        "name": "Stone Barrel Brewing Company",
        "brewery_type": "regional",
        "address_1": "Bluebell Avenue",
        "address_2": "Bluebell Industrial Estate",
        "address_3": "Dublin 12",
        "city": "Dublin",
        "state_province": "Dublin",
        "postal_code": "D12 NPF9",
        "country": "Ireland",
        "longitude": "-6.3506651",
        "latitude": "53.3308805",
        "phone": "353862381267",
        "website_url": "http://www.stonebarrelbrewing.ie/",
        "state": "Dublin",
        "street": "Bluebell Avenue"
    },
    {
        "id": "d955991a-9377-4f2c-baf3-b561a72bf895",
        "name": "Stone Brewing Co",
        "brewery_type": "regional",
        "address_1": "2120 Harmony Grove Rd",
        "address_2": null,
        "address_3": null,
        "city": "Escondido",
        "state_province": "California",
        "postal_code": "92029-2053",
        "country": "United States",
        "longitude": "-117.11565",
        "latitude": "33.109969",
        "phone": "7602947866",
        "website_url": "http://www.stonebrewing.com",
        "state": "California",
        "street": "2120 Harmony Grove Rd"
    },
    {
        "id": "444ce3b3-4111-485a-9158-e54d61909650",
        "name": "Stone Brewing Co- Richmond",
        "brewery_type": "regional",
        "address_1": "4300 Williamsburg Ave",
        "address_2": null,
        "address_3": null,
        "city": "Richmond",
        "state_province": "Virginia",
        "postal_code": "23231-1225",
        "country": "United States",
        "longitude": "-77.414763",
        "latitude": "37.5241103",
        "phone": "8044895902",
        "website_url": "http://www.stonebrewing.com/visit/outposts/richmond",
        "state": "Virginia",
        "street": "4300 Williamsburg Ave"
    },
    {
        "id": "273491b7-30e3-4ee4-ac6e-f1cfb9194b93",
        "name": "Stone Brewing Napa",
        "brewery_type": "closed",
        "address_1": "920-930 Third Street",
        "address_2": null,
        "address_3": null,
        "city": "Napa",
        "state_province": "California",
        "postal_code": "94559",
        "country": "United States",
        "longitude": "-122.2829683",
        "latitude": "38.29896704",
        "phone": "7602947899",
        "website_url": null,
        "state": "California",
        "street": "920-930 Third Street"
    },
    {
        "id": "770c8d54-dcf1-456b-a864-84a4cf0071e1",
        "name": "Stone Brewing World Bistro & Gardens- Liberty Station",
        "brewery_type": "brewpub",
        "address_1": "2816 Historic Decatur Rd Ste 116",
        "address_2": null,
        "address_3": null,
        "city": "San Diego",
        "state_province": "California",
        "postal_code": "92106-6164",
        "country": "United States",
        "longitude": "-117.21157",
        "latitude": "32.7405237",
        "phone": "6192692200",
        "website_url": "http://www.stonelibertystation.com",
        "state": "California",
        "street": "2816 Historic Decatur Rd Ste 116"
    },
    {
        "id": "73832571-cba1-4383-bd2d-d72ef2e0a053",
        "name": "Stone Cellar Brewpub / Stone Arch Brew House",
        "brewery_type": "brewpub",
        "address_1": "1004 S Olde Oneida St Uppr",
        "address_2": null,
        "address_3": null,
        "city": "Appleton",
        "state_province": "Wisconsin",
        "postal_code": "54915-1753",
        "country": "United States",
        "longitude": null,
        "latitude": null,
        "phone": "9207313322",
        "website_url": "http://www.stonecellarbrewpub.com",
        "state": "Wisconsin",
        "street": "1004 S Olde Oneida St Uppr"
    },
    {
        "id": "9916848b-15ac-44f9-90a5-81ad7b53fde5",
        "name": "Stone Church Brewing",
        "brewery_type": "micro",
        "address_1": "2785 Cabot Dr Ste 160",
        "address_2": null,
        "address_3": null,
        "city": "Corona",
        "state_province": "California",
        "postal_code": "92883-7388",
        "country": "United States",
        "longitude": "-117.5046237",
        "latitude": "33.8131807",
        "phone": "3105676582",
        "website_url": "http://www.stonechurchbrewing.com",
        "state": "California",
        "street": "2785 Cabot Dr Ste 160"
    },
    {
        "id": "d2e1b8ab-b0e2-409a-9faa-9ca571815a02",
        "name": "Stone Church Pizza & Brewpub",
        "brewery_type": "brewpub",
        "address_1": "600 S Hermitage Rd",
        "address_2": null,
        "address_3": null,
        "city": "Hermitage",
        "state_province": "Pennsylvania",
        "postal_code": "16148-3629",
        "country": "United States",
        "longitude": "-80.451969",
        "latitude": "41.225649",
        "phone": "7243087770",
        "website_url": "http://www.stonechurchbrewpub.com",
        "state": "Pennsylvania",
        "street": "600 S Hermitage Rd"
    },
    {
        "id": "b02a3dcf-6e21-4ae4-9c14-efdd618b42d6",
        "name": "Stone Corral Brewery",
        "brewery_type": "micro",
        "address_1": "83 Huntington Rd Unit 1",
        "address_2": null,
        "address_3": null,
        "city": "Richmond",
        "state_province": "Vermont",
        "postal_code": "05477-9839",
        "country": "United States",
        "longitude": null,
        "latitude": null,
        "phone": "8024345787",
        "website_url": "http://stonecorral.com",
        "state": "Vermont",
        "street": "83 Huntington Rd Unit 1"
    },
    {
        "id": "28e04f1d-11f9-4ea9-b67c-a155e8c88b81",
        "name": "Stone Cow Brewery",
        "brewery_type": "micro",
        "address_1": "500 West St (Route 122)",
        "address_2": null,
        "address_3": null,
        "city": "Barre",
        "state_province": "Massachusetts",
        "postal_code": "01005",
        "country": "United States",
        "longitude": null,
        "latitude": null,
        "phone": "4135526048",
        "website_url": null,
        "state": "Massachusetts",
        "street": "500 West St (Route 122)"
    },
    {
        "id": "e0a66be0-edf0-405e-b6cb-44dcff79fac5",
        "name": "Stone Hollow Brewing Company",
        "brewery_type": "micro",
        "address_1": "301 Court Street",
        "address_2": null,
        "address_3": null,
        "city": "Beatrice",
        "state_province": "Nebraska",
        "postal_code": "68310",
        "country": "United States",
        "longitude": "-96.7506365",
        "latitude": "40.265751",
        "phone": "4028064664",
        "website_url": "https://www.stonehollowbrewing.com",
        "state": "Nebraska",
        "street": "301 Court Street"
    },
    {
        "id": "780e7ec6-7c19-46d4-90b4-875fc9cfa207",
        "name": "Stone's Throw Brewing",
        "brewery_type": "brewpub",
        "address_1": "402 E 9th St",
        "address_2": null,
        "address_3": null,
        "city": "Little Rock",
        "state_province": "Arkansas",
        "postal_code": "72202-3914",
        "country": "United States",
        "longitude": "-92.26806633",
        "latitude": "34.7397885",
        "phone": "5012449154",
        "website_url": "http://www.stonesthrowbeer.com",
        "state": "Arkansas",
        "street": "402 E 9th St"
    },
    {
        "id": "84278f35-1caf-4c58-8446-4f6af8a17661",
        "name": "Stonecloud Brewing Co.",
        "brewery_type": "micro",
        "address_1": "1012 NW 1st St Ste 101",
        "address_2": null,
        "address_3": null,
        "city": "Oklahoma City",
        "state_province": "Oklahoma",
        "postal_code": "73106-7642",
        "country": "United States",
        "longitude": "-97.529142",
        "latitude": "35.468613",
        "phone": "4056023966",
        "website_url": "http://stonecloudbrewing.com",
        "state": "Oklahoma",
        "street": "1012 NW 1st St Ste 101"
    },
    {
        "id": "06fd21ca-1d18-4d79-a8ab-407d74c55cb7",
        "name": "Stoneface Brewing Co",
        "brewery_type": "micro",
        "address_1": "436 Shattuck Way Ste 6",
        "address_2": null,
        "address_3": null,
        "city": "Newington",
        "state_province": "New Hampshire",
        "postal_code": "03801-7838",
        "country": "United States",
        "longitude": null,
        "latitude": null,
        "phone": null,
        "website_url": "http://www.stonefacebrewing.com",
        "state": "New Hampshire",
        "street": "436 Shattuck Way Ste 6"
    },
    {
        "id": "0330697d-08ce-4f09-948c-9928532c5755",
        "name": "Stonehome Brewing Company",
        "brewery_type": "brewpub",
        "address_1": "1601 N 12th St",
        "address_2": null,
        "address_3": null,
        "city": "Bismarck",
        "state_province": "North Dakota",
        "postal_code": "58501-2713",
        "country": "United States",
        "longitude": "-100.773737",
        "latitude": "46.82365579",
        "phone": "7017511445",
        "website_url": "http://www.stonehomebrewing.com",
        "state": "North Dakota",
        "street": "1601 N 12th St"
    },
    {
        "id": "86b7e9cb-6267-4f6b-a5da-6293aae28ced",
        "name": "Stonehome Brewing Company",
        "brewery_type": "brewpub",
        "address_1": "313 Fox Hills Pkwy N",
        "address_2": null,
        "address_3": null,
        "city": "Watford City",
        "state_province": "North Dakota",
        "postal_code": "58854",
        "country": "United States",
        "longitude": "-103.2580566",
        "latitude": "47.8821014",
        "phone": "7014442337",
        "website_url": "http://www.stonehomebrewing.com",
        "state": "North Dakota",
        "street": "313 Fox Hills Pkwy N"
    },
    {
        "id": "772310d2-06d3-42c6-b494-7622dc87b15d",
        "name": "Stoneman Brewery",
        "brewery_type": "micro",
        "address_1": "20 Stetson Bros Rd",
        "address_2": null,
        "address_3": null,
        "city": "Colrain",
        "state_province": "Massachusetts",
        "postal_code": "01340-9733",
        "country": "United States",
        "longitude": null,
        "latitude": null,
        "phone": "4136245195",
        "website_url": null,
        "state": "Massachusetts",
        "street": "20 Stetson Bros Rd"
    },
    {
        "id": "e4a8b737-6725-4ec2-b635-e43f8fcb1de4",
        "name": "Stones Throw Brewery",
        "brewery_type": "micro",
        "address_1": "1009 Larrabee Ave",
        "address_2": null,
        "address_3": null,
        "city": "Bellingham",
        "state_province": "Washington",
        "postal_code": "98225-7338",
        "country": "United States",
        "longitude": "-122.497165",
        "latitude": "48.718516",
        "phone": "3603625058",
        "website_url": "http://www.stonesthrowbrewco.com",
        "state": "Washington",
        "street": "1009 Larrabee Ave"
    },
    {
        "id": "259107e5-6645-48b5-a986-80d207d43aa0",
        "name": "Stoney Acres Farm",
        "brewery_type": "brewpub",
        "address_1": "7002 Rangeline Rd",
        "address_2": null,
        "address_3": null,
        "city": "Athens",
        "state_province": "Wisconsin",
        "postal_code": "54411",
        "country": "United States",
        "longitude": null,
        "latitude": null,
        "phone": "7154326285",
        "website_url": "http://www.stoneyacresfarm.net",
        "state": "Wisconsin",
        "street": "7002 Rangeline Rd"
    },
    {
        "id": "58092f14-3cd5-47c0-8077-7f11c1ef9e96",
        "name": "Stoneyard Brewing Company",
        "brewery_type": "brewpub",
        "address_1": "48 Merchant St",
        "address_2": null,
        "address_3": null,
        "city": "Brockport",
        "state_province": "New York",
        "postal_code": "14420",
        "country": "United States",
        "longitude": null,
        "latitude": null,
        "phone": "5856373390",
        "website_url": "http://www.stoneyardbrewingcompany.com",
        "state": "New York",
        "street": "48 Merchant St"
    },
    {
        "id": "572461d6-ab19-4469-b9c8-937a98b37941",
        "name": "StoneyHead Brewing LLC",
        "brewery_type": "micro",
        "address_1": "5301 Longley Ln Ste 84C",
        "address_2": null,
        "address_3": null,
        "city": "Reno",
        "state_province": "Nevada",
        "postal_code": "89511-1873",
        "country": "United States",
        "longitude": null,
        "latitude": null,
        "phone": "7758292337",
        "website_url": "http://www.stoneyheadbrewing.com",
        "state": "Nevada",
        "street": "5301 Longley Ln Ste 84C"
    },
    {
        "id": "b1b259ea-a03c-4836-80eb-c222770dacf3",
        "name": "Stony Creek Brewery",
        "brewery_type": "regional",
        "address_1": "5 Indian Neck Ave",
        "address_2": null,
        "address_3": null,
        "city": "Branford",
        "state_province": "Connecticut",
        "postal_code": "06405-4615",
        "country": "United States",
        "longitude": "-72.81330366",
        "latitude": "41.27475355",
        "phone": "2034334545",
        "website_url": "http://www.stonycreekbeer.com",
        "state": "Connecticut",
        "street": "5 Indian Neck Ave"
    },
    {
        "id": "667f8870-c7eb-4b5d-8d80-3fa37f7e1de7",
        "name": "Stony Creek Brewery At Foxwoods Resort Casino",
        "brewery_type": "planning",
        "address_1": null,
        "address_2": null,
        "address_3": null,
        "city": "Mashantucket",
        "state_province": "Connecticut",
        "postal_code": "06338-3830",
        "country": "United States",
        "longitude": null,
        "latitude": null,
        "phone": "8603123000",
        "website_url": null,
        "state": "Connecticut",
        "street": null
    },
    {
        "id": "2540a41e-870c-4298-b711-e9b1da63bc2d",
        "name": "Stony Lake Brewing Company",
        "brewery_type": "micro",
        "address_1": "447 E Michigan Ave",
        "address_2": null,
        "address_3": null,
        "city": "Saline",
        "state_province": "Michigan",
        "postal_code": "48176-1547",
        "country": "United States",
        "longitude": "-83.7735354",
        "latitude": "42.17041729",
        "phone": "7343167919",
        "website_url": "http://www.stonylakebrewing.com",
        "state": "Michigan",
        "street": "447 E Michigan Ave"
    },
    {
        "id": "37181ee1-680d-41f3-811a-34b4abab22d4",
        "name": "Storm Peak Brewing Company",
        "brewery_type": "micro",
        "address_1": "1885 Elk River Plz Unit 4",
        "address_2": null,
        "address_3": null,
        "city": "Steamboat Springs",
        "state_province": "Colorado",
        "postal_code": "80487-5237",
        "country": "United States",
        "longitude": null,
        "latitude": null,
        "phone": "9708791999",
        "website_url": "http://www.stormpeakbrewing.com",
        "state": "Colorado",
        "street": "1885 Elk River Plz Unit 4"
    },
    {
        "id": "e39addf7-becb-4b3c-b5b2-e682bcb1b72f",
        "name": "StormBreaker Brewing",
        "brewery_type": "brewpub",
        "address_1": "832 N Beech St",
        "address_2": null,
        "address_3": null,
        "city": "Portland",
        "state_province": "Oregon",
        "postal_code": "97227-1215",
        "country": "United States",
        "longitude": "-122.6751573",
        "latitude": "45.54943475",
        "phone": null,
        "website_url": null,
        "state": "Oregon",
        "street": "832 N Beech St"
    },
    {
        "id": "2f2fe265-6ef9-4a72-8aae-ca7cb81eb561",
        "name": "StormBreaker Brewing St. Johns",
        "brewery_type": "brewpub",
        "address_1": "8409 N Lombard St",
        "address_2": null,
        "address_3": null,
        "city": "Portland",
        "state_province": "Oregon",
        "postal_code": "97203",
        "country": "United States",
        "longitude": "-122.753038",
        "latitude": "45.58988575",
        "phone": "9712551481",
        "website_url": "http://www.stormbreakerbrewing.com",
        "state": "Oregon",
        "street": "8409 N Lombard St"
    },
    {
        "id": "906c9e56-8260-4ea5-ade4-4d73e3dd7246",
        "name": "Stormcloud Brewing Company",
        "brewery_type": "brewpub",
        "address_1": "303 Main St",
        "address_2": null,
        "address_3": null,
        "city": "Frankfort",
        "state_province": "Michigan",
        "postal_code": "49635-9047",
        "country": "United States",
        "longitude": "-86.24100175",
        "latitude": "44.63290605",
        "phone": "2316519080",
        "website_url": "http://www.stormcloudbrewing.com",
        "state": "Michigan",
        "street": "303 Main St"
    },
    {
        "id": "3ba0c759-64a6-4c73-8f41-d5d2317ce86d",
        "name": "Stormcloud Brewing Company Production Facility",
        "brewery_type": "micro",
        "address_1": "366 Parkview Ln",
        "address_2": null,
        "address_3": null,
        "city": "Frankfort",
        "state_province": "Michigan",
        "postal_code": "49635",
        "country": "United States",
        "longitude": "-86.2218117",
        "latitude": "44.6373933",
        "phone": null,
        "website_url": null,
        "state": "Michigan",
        "street": "366 Parkview Ln"
    },
    {
        "id": "ceb125ad-7b11-4aed-8e34-db02e618d3ba",
        "name": "Stormy Mountain Brewing Company",
        "brewery_type": "brewpub",
        "address_1": "133 E Woodin Ave",
        "address_2": null,
        "address_3": null,
        "city": "Chelan",
        "state_province": "Washington",
        "postal_code": "98816-",
        "country": "United States",
        "longitude": "-120.0177327",
        "latitude": "47.8401295",
        "phone": "5098885665",
        "website_url": "http://www.stormymountainbrewing.com",
        "state": "Washington",
        "street": "133 E Woodin Ave"
    },
    {
        "id": "5be36509-b0db-42b2-89ac-09b98b7062f3",
        "name": "Storybook Brewing",
        "brewery_type": "micro",
        "address_1": "3121 N El Paso St Ste A",
        "address_2": null,
        "address_3": null,
        "city": "Colorado Springs",
        "state_province": "Colorado",
        "postal_code": "80907-5469",
        "country": "United States",
        "longitude": null,
        "latitude": null,
        "phone": "7196336266",
        "website_url": "http://www.storybookbrewing.com",
        "state": "Colorado",
        "street": "3121 N El Paso St Ste A"
    },
    {
        "id": "e9659928-655c-42e1-bf69-bf9a3fcb673f",
        "name": "Storytellers Brewery and Meet House, LLC",
        "brewery_type": "planning",
        "address_1": null,
        "address_2": null,
        "address_3": null,
        "city": "Corona",
        "state_province": "California",
        "postal_code": "92880-1798",
        "country": "United States",
        "longitude": "-117.5664449",
        "latitude": "33.8752945",
        "phone": "9092475710",
        "website_url": "http://www.storytellersbrewery.com",
        "state": "California",
        "street": null
    },
    {
        "id": "1e5f9366-7e38-443f-87a2-77278d845c12",
        "name": "Stoudts Brewing Co",
        "brewery_type": "micro",
        "address_1": "\u00c2\u00a0Rt. 272 2800 North Reading Road",
        "address_2": null,
        "address_3": null,
        "city": "Adamstown",
        "state_province": "Pennsylvania",
        "postal_code": "19501",
        "country": "United States",
        "longitude": null,
        "latitude": null,
        "phone": "7174844386",
        "website_url": "http://www.stoudtsbeer.com",
        "state": "Pennsylvania",
        "street": "\u00c2\u00a0Rt. 272 2800 North Reading Road"
    },
    {
        "id": "9626985c-e888-4370-8bf1-6096ddaf1df8",
        "name": "Stoup Brewing",
        "brewery_type": "micro",
        "address_1": "1108 NW 52nd St",
        "address_2": null,
        "address_3": null,
        "city": "Seattle",
        "state_province": "Washington",
        "postal_code": "98107-5129",
        "country": "United States",
        "longitude": "-122.3711883",
        "latitude": "47.6666399",
        "phone": "2064575524",
        "website_url": "http://www.stoupbrewing.com",
        "state": "Washington",
        "street": "1108 NW 52nd St"
    },
    {
        "id": "bbe40deb-da31-4fe6-aee8-f7cfd40c5416",
        "name": "Stout Beard Brewing Company",
        "brewery_type": "brewpub",
        "address_1": "1153 W Fayette St Ste 102",
        "address_2": null,
        "address_3": null,
        "city": "Syracuse",
        "state_province": "New York",
        "postal_code": "13204-2740",
        "country": "United States",
        "longitude": null,
        "latitude": null,
        "phone": "3153993016",
        "website_url": "http://www.stoutbeardbrewery.com",
        "state": "New York",
        "street": "1153 W Fayette St Ste 102"
    },
    {
        "id": "5623e30f-2e4e-44ba-924b-52e4c4551609",
        "name": "Stover Brewing",
        "brewery_type": "planning",
        "address_1": null,
        "address_2": null,
        "address_3": null,
        "city": "San Diego",
        "state_province": "California",
        "postal_code": "92124-1426",
        "country": "United States",
        "longitude": "-117.1627714",
        "latitude": "32.7174209",
        "phone": "6193634677",
        "website_url": "http://www.stoverbrewing.com",
        "state": "California",
        "street": null
    },
    {
        "id": "a85eb847-20ed-421e-b887-0a040f71a0b1",
        "name": "Straight Shot Brewing",
        "brewery_type": "planning",
        "address_1": null,
        "address_2": null,
        "address_3": null,
        "city": "Poquoson",
        "state_province": "Virginia",
        "postal_code": "23662-0000",
        "country": "United States",
        "longitude": null,
        "latitude": null,
        "phone": null,
        "website_url": null,
        "state": "Virginia",
        "street": null
    },
    {
        "id": "b88fe606-1632-4efd-bd71-3ce087044d3d",
        "name": "Straight to Ale",
        "brewery_type": "micro",
        "address_1": "2610 Clinton Ave W",
        "address_2": null,
        "address_3": null,
        "city": "Huntsville",
        "state_province": "Alabama",
        "postal_code": "35805-3046",
        "country": "United States",
        "longitude": "-86.5932014",
        "latitude": "34.7277523",
        "phone": "2566039096",
        "website_url": "http://www.straighttoale.com",
        "state": "Alabama",
        "street": "2610 Clinton Ave W"
    },
    {
        "id": "618e8707-d2ef-4e27-9fd9-ef3a01daf7cb",
        "name": "Strand Brewery",
        "brewery_type": "brewpub",
        "address_1": "93415 County Road 690",
        "address_2": null,
        "address_3": null,
        "city": "Dowagiac",
        "state_province": "Michigan",
        "postal_code": "49047-9025",
        "country": "United States",
        "longitude": null,
        "latitude": null,
        "phone": "2694247500",
        "website_url": "http://www.strandbrewery.com",
        "state": "Michigan",
        "street": "93415 County Road 690"
    },
    {
        "id": "4fe4470b-c860-48e7-8c9b-aa1ddc204498",
        "name": "Strand Brewing Co",
        "brewery_type": "micro",
        "address_1": "2201 Dominguez St",
        "address_2": null,
        "address_3": null,
        "city": "Torrance",
        "state_province": "California",
        "postal_code": "90501-1418",
        "country": "United States",
        "longitude": "-118.3240401",
        "latitude": "33.8414814",
        "phone": "3105170900",
        "website_url": "http://www.strandbrewing.com",
        "state": "California",
        "street": "2201 Dominguez St"
    },
    {
        "id": "58d3c116-e6ca-42f7-b20d-f30b97b34a64",
        "name": "Strange Craft Beer Co",
        "brewery_type": "micro",
        "address_1": "1330 Zuni St Ste M",
        "address_2": null,
        "address_3": null,
        "city": "Denver",
        "state_province": "Colorado",
        "postal_code": "80204-2328",
        "country": "United States",
        "longitude": null,
        "latitude": null,
        "phone": "7209852337",
        "website_url": "http://www.strangecraft.com",
        "state": "Colorado",
        "street": "1330 Zuni St Ste M"
    },
    {
        "id": "494b4e52-242c-4bf4-bd7d-8717602538ae",
        "name": "Strange Days Brewing Co",
        "brewery_type": "micro",
        "address_1": "316 Oak St",
        "address_2": null,
        "address_3": null,
        "city": "Kansas City",
        "state_province": "Missouri",
        "postal_code": "64106",
        "country": "United States",
        "longitude": "-94.57994512",
        "latitude": "39.1100614",
        "phone": "8164695321",
        "website_url": "http://www.strangedaysbrewing.com",
        "state": "Missouri",
        "street": "316 Oak St"
    },
    {
        "id": "0aa2b16d-c58f-4577-94ac-5b70d28b94d6",
        "name": "Strange Days Brewing Company",
        "brewery_type": "micro",
        "address_1": "316 Oak St",
        "address_2": null,
        "address_3": null,
        "city": "Kansas City",
        "state_province": "Missouri",
        "postal_code": "64106",
        "country": "United States",
        "longitude": "-94.57994512",
        "latitude": "39.1100614",
        "phone": "9134336232",
        "website_url": "http://www.strangedaysbrewing.com",
        "state": "Missouri",
        "street": "316 Oak St"
    },
    {
        "id": "e16701b2-c0f1-4a14-934f-7e51fa99cc3c",
        "name": "Strange Land Brewery",
        "brewery_type": "micro",
        "address_1": "5904 Bee Cave Road",
        "address_2": null,
        "address_3": null,
        "city": "Austin",
        "state_province": "Texas",
        "postal_code": "78746",
        "country": "United States",
        "longitude": null,
        "latitude": null,
        "phone": "5122762295",
        "website_url": "http://www.strangelandbrewery.com",
        "state": "Texas",
        "street": "5904 Bee Cave Road"
    },
    {
        "id": "83007a0a-a4d4-4bdf-9f74-b215b2309125",
        "name": "Strange Roots Experimental Ales",
        "brewery_type": "micro",
        "address_1": "4399 Gibsonia Road",
        "address_2": null,
        "address_3": null,
        "city": "Gibsonia",
        "state_province": "Pennsylvania",
        "postal_code": "15044-9343",
        "country": "United States",
        "longitude": "-79.9709659",
        "latitude": "40.6301186",
        "phone": "4124072506",
        "website_url": "http://www.strangerootsbeer.com",
        "state": "Pennsylvania",
        "street": "4399 Gibsonia Road"
    },
    {
        "id": "22c0044e-28f9-4ac5-a8f6-7f1390bccb63",
        "name": "Strange Roots Experimental Ales",
        "brewery_type": "micro",
        "address_1": "501 E Ohio St",
        "address_2": null,
        "address_3": null,
        "city": "Pittsburgh",
        "state_province": "Pennsylvania",
        "postal_code": "15209-2671",
        "country": "United States",
        "longitude": "-79.9951469",
        "latitude": "40.4546063",
        "phone": "4124072506",
        "website_url": "http://www.strangerootsbeer.com",
        "state": "Pennsylvania",
        "street": "501 E Ohio St"
    },
    {
        "id": "50932c46-8dd8-4915-a0ed-8073fb25323d",
        "name": "Strangebird Beer",
        "brewery_type": "micro",
        "address_1": "62 Marshall Street",
        "address_2": null,
        "address_3": null,
        "city": "Rochester",
        "state_province": "New York",
        "postal_code": "14607",
        "country": "United States",
        "longitude": "-77.601928",
        "latitude": "43.15127745",
        "phone": "5855058700",
        "website_url": "https://www.strangebirdbeer.com",
        "state": "New York",
        "street": "62 Marshall Street"
    },
    {
        "id": "9c0a83ee-575b-471a-9871-ea540065bb1c",
        "name": "Strangeways Brewing - FXBG",
        "brewery_type": "micro",
        "address_1": "350 Lansdowne Rd",
        "address_2": null,
        "address_3": null,
        "city": "Fredericksburg",
        "state_province": "Virginia",
        "postal_code": "22401-7351",
        "country": "United States",
        "longitude": "-77.45625316",
        "latitude": "38.27297555",
        "phone": "8043034336",
        "website_url": null,
        "state": "Virginia",
        "street": "350 Lansdowne Rd"
    },
    {
        "id": "b2c8d268-7e99-4428-b31b-6eb2f6fe24dd",
        "name": "Strangeways Brewing - RVA",
        "brewery_type": "micro",
        "address_1": "2277 Dabney Rd Ste A",
        "address_2": null,
        "address_3": null,
        "city": "Richmond",
        "state_province": "Virginia",
        "postal_code": "23230-3335",
        "country": "United States",
        "longitude": null,
        "latitude": null,
        "phone": "8043034336",
        "website_url": "http://strangewaysbrewing.com/",
        "state": "Virginia",
        "street": "2277 Dabney Rd Ste A"
    },
    {
        "id": "2ee45c72-c744-46b3-a8b1-500cf7531e7d",
        "name": "Strap Tank Brewing Co.",
        "brewery_type": "brewpub",
        "address_1": "596 S 1750 W",
        "address_2": null,
        "address_3": null,
        "city": "Springville",
        "state_province": "Utah",
        "postal_code": "84663-3088",
        "country": "United States",
        "longitude": "-111.641975",
        "latitude": "40.159405",
        "phone": "3853250262",
        "website_url": "https://straptankbrewery.com",
        "state": "Utah",
        "street": "596 S 1750 W"
    },
    {
        "id": "d2d86e25-5932-4c58-b430-f8ea60e9e72f",
        "name": "Straub Brewery",
        "brewery_type": "regional",
        "address_1": "303 Sorg St",
        "address_2": null,
        "address_3": null,
        "city": "Saint Marys",
        "state_province": "Pennsylvania",
        "postal_code": "15857-1592",
        "country": "United States",
        "longitude": "-78.55352821",
        "latitude": "41.42586622",
        "phone": "8143356518",
        "website_url": "http://www.straubbeer.com",
        "state": "Pennsylvania",
        "street": "303 Sorg St"
    },
    {
        "id": "18cb8551-92d3-4c8c-934f-51daef9f7b53",
        "name": "Strawberry Alley Ale Works",
        "brewery_type": "brewpub",
        "address_1": "103 Strawberry Aly",
        "address_2": null,
        "address_3": null,
        "city": "Clarksville",
        "state_province": "Tennessee",
        "postal_code": "37040-4267",
        "country": "United States",
        "longitude": "-87.36026635",
        "latitude": "36.5280248",
        "phone": "9319194777",
        "website_url": "http://www.saaleworks.com",
        "state": "Tennessee",
        "street": "103 Strawberry Aly"
    },
    {
        "id": "b2f096d6-1297-43d7-bf20-429cbbc3ddf7",
        "name": "Strawn Brewing Co",
        "brewery_type": "micro",
        "address_1": "27 Word St",
        "address_2": null,
        "address_3": null,
        "city": "Fairburn",
        "state_province": "Georgia",
        "postal_code": "30213-1545",
        "country": "United States",
        "longitude": "-84.58368873",
        "latitude": "33.56062198",
        "phone": "6785453775",
        "website_url": "http://www.strawnbrewing.com",
        "state": "Georgia",
        "street": "27 Word St"
    },
    {
        "id": "31ea7b52-41bb-42de-9287-dffb127d273a",
        "name": "Streetcar 82 Brewing Co.",
        "brewery_type": "micro",
        "address_1": "4824 Rhode Island Ave",
        "address_2": null,
        "address_3": null,
        "city": "Hyattsville",
        "state_province": "Maryland",
        "postal_code": "20781-2034",
        "country": "United States",
        "longitude": "-76.9430028",
        "latitude": "38.9493263",
        "phone": "2407820152",
        "website_url": "http://www.streetcar82brewing.com",
        "state": "Maryland",
        "street": "4824 Rhode Island Ave"
    },
    {
        "id": "1068e771-b1ba-47d0-960b-03ef44043ecd",
        "name": "Streetside Brewery",
        "brewery_type": "micro",
        "address_1": "4003 Eastern Ave",
        "address_2": null,
        "address_3": null,
        "city": "Cincinnati",
        "state_province": "Ohio",
        "postal_code": "45226-1747",
        "country": "United States",
        "longitude": "-84.43295078",
        "latitude": "39.10919541",
        "phone": "5136155877",
        "website_url": null,
        "state": "Ohio",
        "street": "4003 Eastern Ave"
    },
    {
        "id": "be63195b-5f3a-4f31-949a-12f59086c6dd",
        "name": "Strike Brewing Co",
        "brewery_type": "micro",
        "address_1": "2099 S 10th St Unit 30",
        "address_2": null,
        "address_3": null,
        "city": "San Jose",
        "state_province": "California",
        "postal_code": "95112-4116",
        "country": "United States",
        "longitude": "-121.8582561",
        "latitude": "37.31067385",
        "phone": "6507146983",
        "website_url": "http://www.strikebrewingco.com",
        "state": "California",
        "street": "2099 S 10th St Unit 30"
    },
    {
        "id": "4e84c26e-4850-4bee-898d-fcdffd88b881",
        "name": "Strikhedonia Brewing Company LLC",
        "brewery_type": "planning",
        "address_1": null,
        "address_2": null,
        "address_3": null,
        "city": "Saint Charles",
        "state_province": "Illinois",
        "postal_code": "60174-4591",
        "country": "United States",
        "longitude": null,
        "latitude": null,
        "phone": null,
        "website_url": null,
        "state": "Illinois",
        "street": null
    },
    {
        "id": "d6639eb1-44cd-4b0e-a08c-c3a3143d695b",
        "name": "Strong Brewing",
        "brewery_type": "micro",
        "address_1": "7 Rope Ferry Rd",
        "address_2": null,
        "address_3": null,
        "city": "Sedgwick",
        "state_province": "Maine",
        "postal_code": "04676-3409",
        "country": "United States",
        "longitude": null,
        "latitude": null,
        "phone": "2073598722",
        "website_url": "http://strongbrewing.com/",
        "state": "Maine",
        "street": "7 Rope Ferry Rd"
    },
    {
        "id": "94772c9e-dff5-4404-8f15-6572633b0307",
        "name": "Strong Rope Brewery",
        "brewery_type": "micro",
        "address_1": "574A President St",
        "address_2": null,
        "address_3": null,
        "city": "Brooklyn",
        "state_province": "New York",
        "postal_code": "11215-1019",
        "country": "United States",
        "longitude": "-73.9840898",
        "latitude": "40.6769023",
        "phone": "5857033010",
        "website_url": "http://www.strongropebrewery.com",
        "state": "New York",
        "street": "574A President St"
    },
    {
        "id": "99deb304-2fa2-4236-a1cb-81524c7492ce",
        "name": "Stronghouse Brewery",
        "brewery_type": "planning",
        "address_1": null,
        "address_2": null,
        "address_3": null,
        "city": "Telluride",
        "state_province": "Colorado",
        "postal_code": "81435",
        "country": "United States",
        "longitude": null,
        "latitude": null,
        "phone": null,
        "website_url": null,
        "state": "Colorado",
        "street": null
    },
    {
        "id": "37c008fe-71cf-4cf9-9c38-1f7be73a7da6",
        "name": "Structures Brewing",
        "brewery_type": "micro",
        "address_1": "1420 N State St",
        "address_2": null,
        "address_3": null,
        "city": "Bellingham",
        "state_province": "Washington",
        "postal_code": "98225-4513",
        "country": "United States",
        "longitude": "-122.4744507",
        "latitude": "48.74988055",
        "phone": "3605827475",
        "website_url": "http://www.structuresbrewing.com",
        "state": "Washington",
        "street": "1420 N State St"
    },
    {
        "id": "182c933b-f3e9-477b-906b-b0ca5344c27b",
        "name": "Strum Brewing Company",
        "brewery_type": "micro",
        "address_1": "235 S Campus Ave",
        "address_2": null,
        "address_3": null,
        "city": "Ontario",
        "state_province": "California",
        "postal_code": "91761-1736",
        "country": "United States",
        "longitude": "-117.6412505",
        "latitude": "34.06156086",
        "phone": "9096786935",
        "website_url": "http://www.strumbrewing.com",
        "state": "California",
        "street": "235 S Campus Ave"
    },
    {
        "id": "36a608ec-8a91-4964-ba78-8b39ebbf4321",
        "name": "Stubborn Beauty Brewing",
        "brewery_type": "micro",
        "address_1": "180 Johnson St",
        "address_2": null,
        "address_3": null,
        "city": "Middletown",
        "state_province": "Connecticut",
        "postal_code": "06457-2247",
        "country": "United States",
        "longitude": "-72.65990742",
        "latitude": "41.57233253",
        "phone": "8608747459",
        "website_url": "http://www.stubbornbeauty.com",
        "state": "Connecticut",
        "street": "180 Johnson St"
    },
    {
        "id": "8deff2ef-1885-4ff2-b3d7-08dfcadb04e4",
        "name": "Stubborn German Brewing Co",
        "brewery_type": "micro",
        "address_1": "119 S Main St",
        "address_2": null,
        "address_3": null,
        "city": "Waterloo",
        "state_province": "Illinois",
        "postal_code": "62298-1323",
        "country": "United States",
        "longitude": "-90.15032876",
        "latitude": "38.33531994",
        "phone": "6185042444",
        "website_url": "http://www.stubborngermanbrewing.com",
        "state": "Illinois",
        "street": "119 S Main St"
    },
    {
        "id": "6b730aef-f353-4f27-94c4-b45a2db292c6",
        "name": "Studebaker Brewing Company",
        "brewery_type": "planning",
        "address_1": null,
        "address_2": null,
        "address_3": null,
        "city": "South Bend",
        "state_province": "Indiana",
        "postal_code": "46601",
        "country": "United States",
        "longitude": null,
        "latitude": null,
        "phone": "5742349077",
        "website_url": "http://www.studebakerbrewingco.com",
        "state": "Indiana",
        "street": null
    },
    {
        "id": "685316d4-623d-4b81-a0a8-1549e8247c3c",
        "name": "Studio Brew",
        "brewery_type": "brewpub",
        "address_1": "221 Moore St",
        "address_2": null,
        "address_3": null,
        "city": "Bristol",
        "state_province": "Virginia",
        "postal_code": "24201-4302",
        "country": "United States",
        "longitude": "-82.18231373",
        "latitude": "36.59862808",
        "phone": "4233603258",
        "website_url": "http://www.studiobrew.beer",
        "state": "Virginia",
        "street": "221 Moore St"
    },
    {
        "id": "e5ea4994-015e-43d1-a748-630b1cf68cc1",
        "name": "Stumblefoot Brewing",
        "brewery_type": "micro",
        "address_1": "1784 La Costa Meadows Dr Ste 103",
        "address_2": null,
        "address_3": null,
        "city": "San Marcos",
        "state_province": "California",
        "postal_code": "92078-5174",
        "country": "United States",
        "longitude": "-117.2194838",
        "latitude": "33.10419694",
        "phone": "7605663668",
        "website_url": "http://www.stumblefoot.com",
        "state": "California",
        "street": "1784 La Costa Meadows Dr Ste 103"
    },
    {
        "id": "b022972f-6576-4453-823d-96fe18987454",
        "name": "Stumblin' Monkey Brewing Co",
        "brewery_type": "micro",
        "address_1": "61 School St Ste G",
        "address_2": null,
        "address_3": null,
        "city": "Victor",
        "state_province": "New York",
        "postal_code": "14564-1420",
        "country": "United States",
        "longitude": null,
        "latitude": null,
        "phone": "5853988189",
        "website_url": "http://www.stumblinmonkeybeer.com",
        "state": "New York",
        "street": "61 School St Ste G"
    },
    {
        "id": "15dd2469-e167-42af-8e72-ef36bdd41376",
        "name": "Stump City Brewing LLC",
        "brewery_type": "micro",
        "address_1": "521 W Fulton Street Ext",
        "address_2": null,
        "address_3": null,
        "city": "Gloversville",
        "state_province": "New York",
        "postal_code": "12078-6309",
        "country": "United States",
        "longitude": null,
        "latitude": null,
        "phone": "5188310722",
        "website_url": "http://www.stumpcitybrewing.com",
        "state": "New York",
        "street": "521 W Fulton Street Ext"
    },
    {
        "id": "24bea67c-fd27-4e48-968e-14e46f842203",
        "name": "Stumptown Ales",
        "brewery_type": "micro",
        "address_1": "390 William Ave",
        "address_2": null,
        "address_3": null,
        "city": "Davis",
        "state_province": "West Virginia",
        "postal_code": "26260",
        "country": "United States",
        "longitude": "-79.4646754",
        "latitude": "39.12899878",
        "phone": "3042595570",
        "website_url": "http://www.stumptownales.com",
        "state": "West Virginia",
        "street": "390 William Ave"
    },
    {
        "id": "b78739c5-4815-42ad-8161-9e5d52a975ce",
        "name": "Stumptown Brewery",
        "brewery_type": "brewpub",
        "address_1": "15045 River Rd",
        "address_2": null,
        "address_3": null,
        "city": "Guerneville",
        "state_province": "California",
        "postal_code": "95446-8043",
        "country": "United States",
        "longitude": "-122.9838017",
        "latitude": "38.51320677",
        "phone": "7078690705",
        "website_url": null,
        "state": "California",
        "street": "15045 River Rd"
    },
    {
        "id": "0301809c-bbd8-48c4-99c8-515de50999fd",
        "name": "Suarez Family Brewery",
        "brewery_type": "micro",
        "address_1": "2278 RT. 9",
        "address_2": null,
        "address_3": null,
        "city": "Hudson",
        "state_province": "New York",
        "postal_code": "12534-4701",
        "country": "United States",
        "longitude": null,
        "latitude": null,
        "phone": "5185376464",
        "website_url": "http://www.suarezfamilybrewery.com",
        "state": "New York",
        "street": "2278 RT. 9"
    },
    {
        "id": "ed99535c-e134-4d94-8962-f04aad4386c6",
        "name": "Sub Noir Brewing Company",
        "brewery_type": "micro",
        "address_1": "2039 Progress Ct",
        "address_2": null,
        "address_3": null,
        "city": "Raleigh",
        "state_province": "North Carolina",
        "postal_code": "27608-2761",
        "country": "United States",
        "longitude": "-78.6231748",
        "latitude": "35.8091103",
        "phone": "9194802337",
        "website_url": "http://www.subnoir.net",
        "state": "North Carolina",
        "street": "2039 Progress Ct"
    },
    {
        "id": "e4bb4eb0-1d37-488b-b2d0-ced76345059d",
        "name": "Sublime Brewing Company",
        "brewery_type": "micro",
        "address_1": "5 Route 25",
        "address_2": null,
        "address_3": null,
        "city": "Plymouth",
        "state_province": "New Hampshire",
        "postal_code": "03264-3141",
        "country": "United States",
        "longitude": "-71.776669",
        "latitude": "43.781015",
        "phone": "6032366850",
        "website_url": null,
        "state": "New Hampshire",
        "street": "5 Route 25"
    },
    {
        "id": "81dbf6d0-af4c-4848-8dc3-a2e505352f63",
        "name": "Suds Brothers Brewing Co",
        "brewery_type": "brewpub",
        "address_1": "1012 Main St",
        "address_2": null,
        "address_3": null,
        "city": "Evanston",
        "state_province": "Wyoming",
        "postal_code": "82930-3443",
        "country": "United States",
        "longitude": "-110.9660936",
        "latitude": "41.26798687",
        "phone": "3074447837",
        "website_url": "http://www.sudsbrothersbrewery.com",
        "state": "Wyoming",
        "street": "1012 Main St"
    },
    {
        "id": "8f532649-1d2e-4711-9177-28ffed122dac",
        "name": "Suds Brothers Brewing Co #2",
        "brewery_type": "brewpub",
        "address_1": "127 E Aspen Ave",
        "address_2": null,
        "address_3": null,
        "city": "Fruita",
        "state_province": "Colorado",
        "postal_code": "81521-2543",
        "country": "United States",
        "longitude": "-108.7326881",
        "latitude": "39.1591622",
        "phone": "9708581571",
        "website_url": "http://www.sudsbrothers2fruita.com",
        "state": "Colorado",
        "street": "127 E Aspen Ave"
    },
    {
        "id": "2c32c721-36b2-4610-b315-17d328a75cdd",
        "name": "Suds Monkey Brewing",
        "brewery_type": "micro",
        "address_1": "1032 Canyon Bend Dr Suite A",
        "address_2": null,
        "address_3": null,
        "city": "Dripping Springs",
        "state_province": "Texas",
        "postal_code": "78620-5355",
        "country": "United States",
        "longitude": null,
        "latitude": null,
        "phone": "5122223893",
        "website_url": "http://www.sudsmonkeybrew.com",
        "state": "Texas",
        "street": "1032 Canyon Bend Dr Suite A"
    },
    {
        "id": "41b6b89d-0a76-4a46-8091-e3632ec527f5",
        "name": "Sudwerk Brewing Co",
        "brewery_type": "micro",
        "address_1": "2001 2nd St",
        "address_2": null,
        "address_3": null,
        "city": "Davis",
        "state_province": "California",
        "postal_code": "95618-5474",
        "country": "United States",
        "longitude": "-121.726084",
        "latitude": "38.546614",
        "phone": "5307562739",
        "website_url": "http://www.sudwerkbrew.com",
        "state": "California",
        "street": "2001 2nd St"
    },
    {
        "id": "b725651d-1d0c-4d4f-94f2-0b1be19ce2b7",
        "name": "Sufferfest Beer Company",
        "brewery_type": "proprietor",
        "address_1": "1770 UNION STREET",
        "address_2": null,
        "address_3": null,
        "city": "San Francisco",
        "state_province": "California",
        "postal_code": "94123-3404",
        "country": "United States",
        "longitude": "-122.4283947",
        "latitude": "37.79807486",
        "phone": "4152386431",
        "website_url": "http://www.sufferfestbeer.com",
        "state": "California",
        "street": "1770 UNION STREET"
    },
    {
        "id": "ced563fa-0fc3-4c4c-bd16-2b9b7717f28a",
        "name": "Sugar Creek Brewing Co.",
        "brewery_type": "micro",
        "address_1": "215 Southside Dr",
        "address_2": null,
        "address_3": null,
        "city": "Charlotte",
        "state_province": "North Carolina",
        "postal_code": "28217-1727",
        "country": "United States",
        "longitude": "-80.88045065",
        "latitude": "35.18571693",
        "phone": "7044082021",
        "website_url": "http://www.sugarcreekbrewing.com",
        "state": "North Carolina",
        "street": "215 Southside Dr"
    },
    {
        "id": "71d53ada-6c4f-4840-a28d-f1386505671e",
        "name": "Sugar Hill Brewing Company",
        "brewery_type": "brewpub",
        "address_1": "16622 Broad St",
        "address_2": null,
        "address_3": null,
        "city": "Saint Paul",
        "state_province": "Virginia",
        "postal_code": "24283-",
        "country": "United States",
        "longitude": "-82.3106732",
        "latitude": "36.90512687",
        "phone": "2767381088",
        "website_url": "http://www.sugarhillbrewing.com",
        "state": "Virginia",
        "street": "16622 Broad St"
    },
    {
        "id": "390e3daa-7276-4370-a45c-31eb41baa18b",
        "name": "Sugarfoot Saloon",
        "brewery_type": "brewpub",
        "address_1": "4997 S Good Harbor Trl",
        "address_2": null,
        "address_3": null,
        "city": "Cedar",
        "state_province": "Michigan",
        "postal_code": "49621-8543",
        "country": "United States",
        "longitude": "-85.79625698",
        "latitude": "44.90785082",
        "phone": "2312286166",
        "website_url": null,
        "state": "Michigan",
        "street": "4997 S Good Harbor Trl"
    },
    {
        "id": "339e0d58-5766-4c4f-ab24-d3a3477f42ad",
        "name": "Sullivan's Brewing Company",
        "brewery_type": "regional",
        "address_1": "15 John Street Lower",
        "address_2": "Collegepark",
        "address_3": null,
        "city": "Kilkenny",
        "state_province": "Kilkenny",
        "postal_code": "R95 H2CE",
        "country": "Ireland",
        "longitude": "-7.2511279",
        "latitude": "52.652832",
        "phone": "353567797980",
        "website_url": "https://www.sullivansbrewingcompany.com/",
        "state": "Kilkenny",
        "street": "15 John Street Lower"
    },
    {
        "id": "5034932b-6a76-4aa1-b929-76eedea825e1",
        "name": "Sumerian Brewing Company",
        "brewery_type": "closed",
        "address_1": "15510 Woodinville Redmond Rd NE Ste E110",
        "address_2": null,
        "address_3": null,
        "city": "Woodinville",
        "state_province": "Washington",
        "postal_code": "98072-6979",
        "country": "United States",
        "longitude": null,
        "latitude": null,
        "phone": "4254865330",
        "website_url": "http://www.sumerianbrewingco.com",
        "state": "Washington",
        "street": "15510 Woodinville Redmond Rd NE Ste E110"
    },
    {
        "id": "4920c9af-770b-4850-adb2-68e368d0cf34",
        "name": "Summerhill Brewing LLC",
        "brewery_type": "micro",
        "address_1": "384 Champlin Rd N. Cayuga County",
        "address_2": null,
        "address_3": null,
        "city": "Groton",
        "state_province": "New York",
        "postal_code": "13073-3212",
        "country": "United States",
        "longitude": "-76.29601824",
        "latitude": "42.63594387",
        "phone": "6075916148",
        "website_url": "http://www.facebook.com/Summerhill.brewing/",
        "state": "New York",
        "street": "384 Champlin Rd N. Cayuga County"
    },
    {
        "id": "e436d990-d5b4-4771-ba9b-a77531a5b0c1",
        "name": "Summit Brewing Co",
        "brewery_type": "regional",
        "address_1": "910 Montreal Cir",
        "address_2": null,
        "address_3": null,
        "city": "Saint Paul",
        "state_province": "Minnesota",
        "postal_code": "55102-4246",
        "country": "United States",
        "longitude": "-93.13959808",
        "latitude": "44.91398765",
        "phone": "6512657800",
        "website_url": "http://www.summitbrewing.com",
        "state": "Minnesota",
        "street": "910 Montreal Cir"
    },
    {
        "id": "834de8fa-bbd5-4dfc-a665-c1fc43781157",
        "name": "Summit City Brwerks",
        "brewery_type": "brewpub",
        "address_1": "1501 E Berry #106",
        "address_2": null,
        "address_3": null,
        "city": "Fort Wayne",
        "state_province": "Indiana",
        "postal_code": "46803",
        "country": "United States",
        "longitude": null,
        "latitude": null,
        "phone": "2604150782",
        "website_url": "http://www.summitcitybrewerks.com",
        "state": "Indiana",
        "street": "1501 E Berry #106"
    },
    {
        "id": "7d30c320-5116-4f48-8f4f-a07fb5559832",
        "name": "Sun Brewing Co.",
        "brewery_type": "brewpub",
        "address_1": "101 Canutillo La Union Ave",
        "address_2": null,
        "address_3": null,
        "city": "Canutillo",
        "state_province": "Texas",
        "postal_code": "79835-6001",
        "country": "United States",
        "longitude": "-106.6011179",
        "latitude": "31.9151882",
        "phone": "9154333048",
        "website_url": "http://sunbrewingco.com",
        "state": "Texas",
        "street": "101 Canutillo La Union Ave"
    },
    {
        "id": "55bbec01-c1da-421a-9721-39d33b554f39",
        "name": "Sun King Brewery",
        "brewery_type": "micro",
        "address_1": "7848 E 96th St",
        "address_2": null,
        "address_3": null,
        "city": "Fishers",
        "state_province": "Indiana",
        "postal_code": "46037-9629",
        "country": "United States",
        "longitude": "-86.0242557",
        "latitude": "39.9282185",
        "phone": "3174361926",
        "website_url": null,
        "state": "Indiana",
        "street": "7848 E 96th St"
    },
    {
        "id": "120a1b1e-f09a-4e2f-8f10-2b9a7342d3bd",
        "name": "Sun King Brewing Co",
        "brewery_type": "planning",
        "address_1": null,
        "address_2": null,
        "address_3": null,
        "city": "Fishers",
        "state_province": "Indiana",
        "postal_code": "46037",
        "country": "United States",
        "longitude": null,
        "latitude": null,
        "phone": null,
        "website_url": null,
        "state": "Indiana",
        "street": null
    },
    {
        "id": "3e2d9646-099d-4b01-b619-d40d3a45fdbe",
        "name": "Sun King Brewing Co",
        "brewery_type": "regional",
        "address_1": "135 N College Ave",
        "address_2": null,
        "address_3": null,
        "city": "Indianapolis",
        "state_province": "Indiana",
        "postal_code": "46202-3801",
        "country": "United States",
        "longitude": "-86.1449174",
        "latitude": "39.8095687",
        "phone": "3176023702",
        "website_url": null,
        "state": "Indiana",
        "street": "135 N College Ave"
    },
    {
        "id": "44dbdaea-02c1-4459-b259-0605a7a219b8",
        "name": "Sun Up Brewing Co.",
        "brewery_type": "brewpub",
        "address_1": "322 E Camelback Rd",
        "address_2": null,
        "address_3": null,
        "city": "Phoenix",
        "state_province": "Arizona",
        "postal_code": "85012-1614",
        "country": "United States",
        "longitude": "-112.0687773",
        "latitude": "33.50950925",
        "phone": "6026708924",
        "website_url": "http://sunup.beer",
        "state": "Arizona",
        "street": "322 E Camelback Rd"
    },
    {
        "id": "64203bc5-a848-4d03-a025-01b0df322b3b",
        "name": "Sun Up Brewing Company 330",
        "brewery_type": "planning",
        "address_1": null,
        "address_2": null,
        "address_3": null,
        "city": "Phoenix",
        "state_province": "Arizona",
        "postal_code": "85012",
        "country": "United States",
        "longitude": "-112.0773456",
        "latitude": "33.4485866",
        "phone": null,
        "website_url": null,
        "state": "Arizona",
        "street": null
    },
    {
        "id": "e088534c-396b-4a55-b7d7-0c51ab0ce03a",
        "name": "Sun Valley Brewing Co",
        "brewery_type": "brewpub",
        "address_1": "202 N Main St",
        "address_2": null,
        "address_3": null,
        "city": "Hailey",
        "state_province": "Idaho",
        "postal_code": "83333-8413",
        "country": "United States",
        "longitude": "-114.316365",
        "latitude": "43.5210689",
        "phone": "2087885777",
        "website_url": null,
        "state": "Idaho",
        "street": "202 N Main St"
    },
    {
        "id": "acd12d74-76fe-4c74-ad0a-977b67f6d4f7",
        "name": "Suncreek Brewery",
        "brewery_type": "planning",
        "address_1": null,
        "address_2": null,
        "address_3": null,
        "city": "Clermont",
        "state_province": "Florida",
        "postal_code": "34711-2135",
        "country": "United States",
        "longitude": null,
        "latitude": null,
        "phone": "4078508810",
        "website_url": "http://www.suncreekbrewery.com",
        "state": "Florida",
        "street": null
    },
    {
        "id": "44f6bbcc-42ee-4ead-8f3d-3216d6f60698",
        "name": "Sunday River Brewing Company",
        "brewery_type": "brewpub",
        "address_1": "29 Sunday River Rd",
        "address_2": null,
        "address_3": null,
        "city": "Bethel",
        "state_province": "Maine",
        "postal_code": "04217-4623",
        "country": "United States",
        "longitude": "-70.8096128",
        "latitude": "44.4483482",
        "phone": "2078244253",
        "website_url": "http://www.sundayriverbrewingcompany.com",
        "state": "Maine",
        "street": "29 Sunday River Rd"
    },
    {
        "id": "26b040cb-d50d-47e2-af07-5e7cabc94559",
        "name": "Sundowner Brewing Co.",
        "brewery_type": "micro",
        "address_1": "30961 Agoura Rd Ste 321",
        "address_2": null,
        "address_3": null,
        "city": "Westlake Village",
        "state_province": "California",
        "postal_code": "91361-5686",
        "country": "United States",
        "longitude": "-118.796231",
        "latitude": "34.14489484",
        "phone": "8185979463",
        "website_url": "http://www.malibusundowner.com",
        "state": "California",
        "street": "30961 Agoura Rd Ste 321"
    },
    {
        "id": "8a71cfb0-1ac7-42f1-8968-f5690ce41994",
        "name": "Sunken City Brewing Co",
        "brewery_type": "micro",
        "address_1": "40 Brewery Dr",
        "address_2": null,
        "address_3": null,
        "city": "Hardy",
        "state_province": "Virginia",
        "postal_code": "24101-1100",
        "country": "United States",
        "longitude": null,
        "latitude": null,
        "phone": "5404200476",
        "website_url": "http://www.sunkencitybeer.com",
        "state": "Virginia",
        "street": "40 Brewery Dr"
    },
    {
        "id": "fe5b48e5-b691-4e22-8a69-34c6f5ab3a0b",
        "name": "SunRift Beer Company",
        "brewery_type": "micro",
        "address_1": "55 1st Ave WN",
        "address_2": null,
        "address_3": null,
        "city": "Kalispell",
        "state_province": "Montana",
        "postal_code": "59901",
        "country": "United States",
        "longitude": "-114.3181197",
        "latitude": "48.2059559",
        "phone": "4068712567",
        "website_url": "http://www.sunriftbeer.com",
        "state": "Montana",
        "street": "55 1st Ave WN"
    },
    {
        "id": "0ce36ed5-632f-4734-a374-0b51ba123bd5",
        "name": "Sunriver Brewing",
        "brewery_type": "micro",
        "address_1": "56840 Venture Ln",
        "address_2": null,
        "address_3": null,
        "city": "Sunriver",
        "state_province": "Oregon",
        "postal_code": "97707-2100",
        "country": "United States",
        "longitude": "-121.4366616",
        "latitude": "43.87300007",
        "phone": "5413065188",
        "website_url": "http://www.sunriverbrewingcompany.com",
        "state": "Oregon",
        "street": "56840 Venture Ln"
    },
    {
        "id": "30f497b4-b12e-4a3d-a14f-ef0439f2ccd6",
        "name": "Sunset Reservoir Brewing Company",
        "brewery_type": "brewpub",
        "address_1": "1735 Noriega St",
        "address_2": null,
        "address_3": null,
        "city": "San Francisco",
        "state_province": "California",
        "postal_code": "94122-4307",
        "country": "United States",
        "longitude": "-122.4823594",
        "latitude": "37.7538314",
        "phone": "4155718452",
        "website_url": "http://www.sunsetbeersf.com",
        "state": "California",
        "street": "1735 Noriega St"
    },
    {
        "id": "b76e442b-6c7e-442f-aeac-b40a7e321b41",
        "name": "Sunshine Brewing Company",
        "brewery_type": "micro",
        "address_1": "121 S Main St",
        "address_2": null,
        "address_3": null,
        "city": "Lake Mills",
        "state_province": "Wisconsin",
        "postal_code": "53551-1613",
        "country": "United States",
        "longitude": "-88.91296397",
        "latitude": "43.0791731",
        "phone": "9206508579",
        "website_url": "http://www.sunshinebrewco.com",
        "state": "Wisconsin",
        "street": "121 S Main St"
    },
    {
        "id": "47c31369-8b35-4cac-bfb3-db39daf73ea5",
        "name": "Super Brewing Company LLC",
        "brewery_type": "planning",
        "address_1": null,
        "address_2": null,
        "address_3": null,
        "city": "Portland",
        "state_province": "Oregon",
        "postal_code": "97202",
        "country": "United States",
        "longitude": null,
        "latitude": null,
        "phone": "5037193435",
        "website_url": null,
        "state": "Oregon",
        "street": null
    },
    {
        "id": "f69603de-05b8-45b0-8212-38a36c45b432",
        "name": "Super Fun Time Brewing Company",
        "brewery_type": "planning",
        "address_1": null,
        "address_2": null,
        "address_3": null,
        "city": "Bangor",
        "state_province": "Pennsylvania",
        "postal_code": "18013-9244",
        "country": "United States",
        "longitude": null,
        "latitude": null,
        "phone": "6105974402",
        "website_url": null,
        "state": "Pennsylvania",
        "street": null
    },
    {
        "id": "630ad4e1-8625-4e4b-a45f-6c56c7b9712c",
        "name": "Super Owl Brewing",
        "brewery_type": "micro",
        "address_1": "1260 Lake Blvd Ste 121",
        "address_2": null,
        "address_3": null,
        "city": "Davis",
        "state_province": "California",
        "postal_code": "95616-5669",
        "country": "United States",
        "longitude": "-121.787547",
        "latitude": "38.55363515",
        "phone": "5307465992",
        "website_url": "http://www.superowlbrewing.com",
        "state": "California",
        "street": "1260 Lake Blvd Ste 121"
    },
    {
        "id": "e0441d23-cadb-4947-a679-bc2704a83390",
        "name": "Superior Bathhouse Brewery",
        "brewery_type": "brewpub",
        "address_1": "329 Central Ave",
        "address_2": null,
        "address_3": null,
        "city": "Hot Springs National Park",
        "state_province": "Arkansas",
        "postal_code": "71901-3525",
        "country": "United States",
        "longitude": null,
        "latitude": null,
        "phone": "5016242337",
        "website_url": "http://www.superiorbathhouse.com",
        "state": "Arkansas",
        "street": "329 Central Ave"
    },
    {
        "id": "a7cd132d-aa7b-4d28-8495-e8660cb6b708",
        "name": "Superior Coast Brewery / Karls Cuisine Winery and Brewery",
        "brewery_type": "brewpub",
        "address_1": "447 W Portage Ave",
        "address_2": null,
        "address_3": null,
        "city": "Sault Sainte Marie",
        "state_province": "Michigan",
        "postal_code": "49783-1989",
        "country": "United States",
        "longitude": "-84.35344671",
        "latitude": "46.50179396",
        "phone": "9062531900",
        "website_url": "http://www.karlscuisine.com",
        "state": "Michigan",
        "street": "447 W Portage Ave"
    },
    {
        "id": "c41ca19d-93e3-4489-9bec-cc59208fa451",
        "name": "Surf Brewery",
        "brewery_type": "closed",
        "address_1": "4561 Market St Ste A",
        "address_2": null,
        "address_3": null,
        "city": "Ventura",
        "state_province": "California",
        "postal_code": "93003-6483",
        "country": "United States",
        "longitude": "-119.2319648",
        "latitude": "34.25776561",
        "phone": "8056442739",
        "website_url": "http://www.surfbrewery.com",
        "state": "California",
        "street": "4561 Market St Ste A"
    },
    {
        "id": "3be10da6-c43b-4b9f-b9c9-ce43299ded2d",
        "name": "Surfridge Brewing Company",
        "brewery_type": "planning",
        "address_1": null,
        "address_2": null,
        "address_3": null,
        "city": "El Segundo",
        "state_province": "California",
        "postal_code": "90245-4209",
        "country": "United States",
        "longitude": "-118.383179",
        "latitude": "33.912594",
        "phone": "3108470283",
        "website_url": "http://www.surfridgebrewery.com",
        "state": "California",
        "street": null
    },
    {
        "id": "c54d9149-0b2f-45f0-bf12-36860e56a1da",
        "name": "Surly Brewing Company",
        "brewery_type": "regional",
        "address_1": "4811 Dusharme Dr",
        "address_2": null,
        "address_3": null,
        "city": "Brooklyn Ctr",
        "state_province": "Minnesota",
        "postal_code": "55429-3940",
        "country": "United States",
        "longitude": "-93.32438943",
        "latitude": "45.04294225",
        "phone": "7635353330",
        "website_url": "http://www.surlybrewing.com",
        "state": "Minnesota",
        "street": "4811 Dusharme Dr"
    },
    {
        "id": "f187921a-c59d-47f2-a40a-b1d3bfccc0e0",
        "name": "Surly Brewing Company",
        "brewery_type": "regional",
        "address_1": "520 Malcolm Ave SE",
        "address_2": null,
        "address_3": null,
        "city": "Minneapolis",
        "state_province": "Minnesota",
        "postal_code": "55414-3312",
        "country": "United States",
        "longitude": null,
        "latitude": null,
        "phone": "7635353330",
        "website_url": null,
        "state": "Minnesota",
        "street": "520 Malcolm Ave SE"
    },
    {
        "id": "e6ca2c99-2803-45b8-8b31-ad9f654d9a91",
        "name": "Suspended Brewing Co",
        "brewery_type": "micro",
        "address_1": "912 Washington Blvd",
        "address_2": null,
        "address_3": null,
        "city": "Baltimore",
        "state_province": "Maryland",
        "postal_code": "21230-2318",
        "country": "United States",
        "longitude": "-76.63148921",
        "latitude": "39.2831169",
        "phone": "3016466359",
        "website_url": "http://www.suspendedbrewing.com",
        "state": "Maryland",
        "street": "912 Washington Blvd"
    },
    {
        "id": "84cb4e3a-34b1-4259-916a-9c5c170d4c23",
        "name": "Susquehanna Brewing Co",
        "brewery_type": "micro",
        "address_1": "635 S Main St",
        "address_2": null,
        "address_3": null,
        "city": "Pittston",
        "state_province": "Pennsylvania",
        "postal_code": "18640-3215",
        "country": "United States",
        "longitude": "-75.7912216",
        "latitude": "41.321577",
        "phone": "5706543557",
        "website_url": "http://www.sbcbeer.com",
        "state": "Pennsylvania",
        "street": "635 S Main St"
    },
    {
        "id": "f7233986-f1d7-4799-8d63-0f3d6df70384",
        "name": "Sutter Buttes Brewing",
        "brewery_type": "brewpub",
        "address_1": "421 Center St",
        "address_2": null,
        "address_3": null,
        "city": "Yuba City",
        "state_province": "California",
        "postal_code": "95991-4505",
        "country": "United States",
        "longitude": "-121.6149147",
        "latitude": "39.13723286",
        "phone": "5307907999",
        "website_url": "http://www.sutterbuttesbrewing.com",
        "state": "California",
        "street": "421 Center St"
    },
    {
        "id": "4780994b-3b4b-4e12-ab6b-6d1dd4018722",
        "name": "Svendale Brewing Co",
        "brewery_type": "micro",
        "address_1": null,
        "address_2": null,
        "address_3": null,
        "city": "Millerton",
        "state_province": "New York",
        "postal_code": "12546-4553",
        "country": "United States",
        "longitude": null,
        "latitude": null,
        "phone": "9177039873",
        "website_url": "http://svendale.com",
        "state": "New York",
        "street": null
    },
    {
        "id": "5094a403-c71f-45ed-8547-552734799d2a",
        "name": "Swamp Cabbage Brewing Company",
        "brewery_type": "micro",
        "address_1": "921 Brookwood Dr",
        "address_2": null,
        "address_3": null,
        "city": "Columbia",
        "state_province": "South Carolina",
        "postal_code": "29201-4609",
        "country": "United States",
        "longitude": null,
        "latitude": null,
        "phone": "8039392589",
        "website_url": "http://www.swampcabbagebrewing.com",
        "state": "South Carolina",
        "street": "921 Brookwood Dr"
    },
    {
        "id": "3f8790cd-03b9-4172-99c9-f88940c731a0",
        "name": "Swamp Head Brewery",
        "brewery_type": "micro",
        "address_1": "3650 SW 42nd Ave",
        "address_2": null,
        "address_3": null,
        "city": "Gainesville",
        "state_province": "Florida",
        "postal_code": "32608-2598",
        "country": "United States",
        "longitude": "-82.3736302",
        "latitude": "29.6142515",
        "phone": "3525053035",
        "website_url": "http://www.swamphead.com",
        "state": "Florida",
        "street": "3650 SW 42nd Ave"
    },
    {
        "id": "dcc661e0-ef04-4bba-8c05-120cfed64613",
        "name": "Swamp Rabbit Brewery and Taproom",
        "brewery_type": "micro",
        "address_1": "26 S Main St",
        "address_2": null,
        "address_3": null,
        "city": "Travelers Rest",
        "state_province": "South Carolina",
        "postal_code": "29690-1810",
        "country": "United States",
        "longitude": "-82.44227639",
        "latitude": "34.9666585",
        "phone": "8646102424",
        "website_url": "http://www.theswamprabbitbrewery.com",
        "state": "South Carolina",
        "street": "26 S Main St"
    },
    {
        "id": "8aa90b99-32fa-4727-b14a-324db6f758f6",
        "name": "Swan Brewing",
        "brewery_type": "micro",
        "address_1": "115 W. Pine St.",
        "address_2": null,
        "address_3": null,
        "city": "Lakeland",
        "state_province": "Florida",
        "postal_code": "33815",
        "country": "United States",
        "longitude": "-81.95746167",
        "latitude": "28.04600888",
        "phone": "8637030472",
        "website_url": "http://www.swanbrewing.com",
        "state": "Florida",
        "street": "115 W. Pine St."
    },
    {
        "id": "6992bfe1-3a44-40fc-af3c-55c22ef97a87",
        "name": "Swashbuckler Brewing Co",
        "brewery_type": "micro",
        "address_1": "2775 Lebanon Rd",
        "address_2": null,
        "address_3": null,
        "city": "Manheim",
        "state_province": "Pennsylvania",
        "postal_code": "17545-8711",
        "country": "United States",
        "longitude": null,
        "latitude": null,
        "phone": "7176657021",
        "website_url": "http://www.parenfaire.com",
        "state": "Pennsylvania",
        "street": "2775 Lebanon Rd"
    },
    {
        "id": "51a67223-d853-4316-bf42-eb38eca9121f",
        "name": "Sweet Mercy Brewing Co.",
        "brewery_type": "planning",
        "address_1": null,
        "address_2": null,
        "address_3": null,
        "city": "Miami",
        "state_province": "Florida",
        "postal_code": "33143",
        "country": "United States",
        "longitude": null,
        "latitude": null,
        "phone": "3057999260",
        "website_url": "http://www.sweetmercybrewing.com",
        "state": "Florida",
        "street": null
    },
    {
        "id": "a5800400-36c4-47f2-b289-1eff24c0218f",
        "name": "Sweet Thursday Beer Co",
        "brewery_type": "planning",
        "address_1": null,
        "address_2": null,
        "address_3": null,
        "city": "Brooklyn",
        "state_province": "New York",
        "postal_code": "11215-6020",
        "country": "United States",
        "longitude": null,
        "latitude": null,
        "phone": "9176133980",
        "website_url": "http://www.sweetthursdaybeer.com",
        "state": "New York",
        "street": null
    },
    {
        "id": "f015b19a-40c0-48e9-b310-faa577b03406",
        "name": "Sweet Union Brewing",
        "brewery_type": "micro",
        "address_1": "13717 E Independence Blvd",
        "address_2": null,
        "address_3": null,
        "city": "Indian Trail",
        "state_province": "North Carolina",
        "postal_code": "28079-7600",
        "country": "United States",
        "longitude": null,
        "latitude": null,
        "phone": "7046285211",
        "website_url": "http://www.sweetunionbrewing.com",
        "state": "North Carolina",
        "street": "13717 E Independence Blvd"
    },
    {
        "id": "fe331f63-1c49-4cf2-91a7-b2403023b1e0",
        "name": "Sweeten Creek Brewing",
        "brewery_type": "brewpub",
        "address_1": "1127 Sweeten Creek Rd",
        "address_2": null,
        "address_3": null,
        "city": "Asheville",
        "state_province": "North Carolina",
        "postal_code": "28803-1728",
        "country": "United States",
        "longitude": "-82.520631",
        "latitude": "35.5139103",
        "phone": "8285752785",
        "website_url": "http://www.sweetencreekbrewing.com",
        "state": "North Carolina",
        "street": "1127 Sweeten Creek Rd"
    }
]