[
    {
        "id": "90ab9e5b-da24-4624-aabf-4c7ffcb52f91",
        "name": "Five Wits Brewing Co.",
        "brewery_type": "planning",
        "address_1": null,
        "address_2": null,
        "address_3": null,
        "city": "Chattanooga",
        "state_province": "Tennessee",
        "postal_code": "37408",
        "country": "United States",
        "longitude": null,
        "latitude": null,
        "phone": "4237742991",
        "website_url": null,
        "state": "Tennessee",
        "street": null
    },
    {
        "id": "0a17cef1-8631-4534-8b87-03bdbb33d479",
        "name": "Flag City Brewing",
        "brewery_type": "micro",
        "address_1": "618 W 4th St",
        "address_2": null,
        "address_3": null,
        "city": "Webb City",
        "state_province": "Missouri",
        "postal_code": "64870",
        "country": "United States",
        "longitude": "-94.467058",
        "latitude": "37.156896",
        "phone": null,
        "website_url": null,
        "state": "Missouri",
        "street": "618 W 4th St"
    },
    {
        "id": "dbbf580b-32d2-4f7b-bff4-e74669267a7e",
        "name": "Flagship Brewery, LLC.",
        "brewery_type": "micro",
        "address_1": "40 Minthorne St",
        "address_2": null,
        "address_3": null,
        "city": "Staten Island",
        "state_province": "New York",
        "postal_code": "10301-3241",
        "country": "United States",
        "longitude": "-74.0756332",
        "latitude": "40.6372257",
        "phone": "7184485284",
        "website_url": "http://www.flagshipbrewery.nyc",
        "state": "New York",
        "street": "40 Minthorne St"
    },
    {
        "id": "4b9222e3-f231-4d53-8890-c5c26c8c05fd",
        "name": "Flagstaff Brewing Co",
        "brewery_type": "brewpub",
        "address_1": "16 E Route 66",
        "address_2": null,
        "address_3": null,
        "city": "Flagstaff",
        "state_province": "Arizona",
        "postal_code": "86001-5792",
        "country": "United States",
        "longitude": "-111.523296",
        "latitude": "35.2109064",
        "phone": "9287731442",
        "website_url": "http://www.flagbrew.com",
        "state": "Arizona",
        "street": "16 E Route 66"
    },
    {
        "id": "5cd2ba74-2f89-4e9f-9fa4-edff3aed2cf9",
        "name": "Flapjack Brewery",
        "brewery_type": "brewpub",
        "address_1": "6833 Stanley Ave",
        "address_2": null,
        "address_3": null,
        "city": "Berwyn",
        "state_province": "Illinois",
        "postal_code": "60402-5289",
        "country": "United States",
        "longitude": "-87.79436281",
        "latitude": "41.83342484",
        "phone": null,
        "website_url": "http://www.flapjackbrewery.com",
        "state": "Illinois",
        "street": "6833 Stanley Ave"
    },
    {
        "id": "25cc1e54-693a-45a3-827c-337684e1ced7",
        "name": "Flat 12 Bierwerks",
        "brewery_type": "micro",
        "address_1": "414 Dorman St",
        "address_2": null,
        "address_3": null,
        "city": "Indianapolis",
        "state_province": "Indiana",
        "postal_code": "46202-3648",
        "country": "United States",
        "longitude": "-86.13847",
        "latitude": "39.77261486",
        "phone": "3174265851",
        "website_url": "http://www.flat12.me",
        "state": "Indiana",
        "street": "414 Dorman St"
    },
    {
        "id": "6037fc17-102b-4137-9197-446eb6fd511d",
        "name": "Flat Branch Pub and Brewing",
        "brewery_type": "brewpub",
        "address_1": "115 S 5th St",
        "address_2": null,
        "address_3": null,
        "city": "Columbia",
        "state_province": "Missouri",
        "postal_code": "65201-4230",
        "country": "United States",
        "longitude": "-92.33196896",
        "latitude": "38.95030013",
        "phone": "5734990400",
        "website_url": "http://www.flatbranch.com",
        "state": "Missouri",
        "street": "115 S 5th St"
    },
    {
        "id": "9a0b7dcc-f027-4812-8c83-ede412316a89",
        "name": "Flat Earth Brewing Co",
        "brewery_type": "micro",
        "address_1": "688 Minnehaha Ave E",
        "address_2": null,
        "address_3": null,
        "city": "Saint Paul",
        "state_province": "Minnesota",
        "postal_code": "55106-4462",
        "country": "United States",
        "longitude": "-93.07042082",
        "latitude": "44.96294245",
        "phone": "6516981945",
        "website_url": "http://www.flatearthbrewing.com",
        "state": "Minnesota",
        "street": "688 Minnehaha Ave E"
    },
    {
        "id": "d4094e29-6940-41de-af54-c63b9e6f69cc",
        "name": "Flat Fish Brewing",
        "brewery_type": "micro",
        "address_1": "126 N Wood Rd Ste 104",
        "address_2": null,
        "address_3": null,
        "city": "Camarillo",
        "state_province": "California",
        "postal_code": "93010-8334",
        "country": "United States",
        "longitude": "-119.0954656",
        "latitude": "34.21805471",
        "phone": "8054849600",
        "website_url": "http://www.flatfishbrewing.com",
        "state": "California",
        "street": "126 N Wood Rd Ste 104"
    },
    {
        "id": "90ed6777-3f0f-43d0-80e4-0e9c6a6b62b4",
        "name": "Flat Tail Brewing Co",
        "brewery_type": "brewpub",
        "address_1": "202 SW 1st St",
        "address_2": null,
        "address_3": null,
        "city": "Corvallis",
        "state_province": "Oregon",
        "postal_code": "97333-4727",
        "country": "United States",
        "longitude": "-123.2598775",
        "latitude": "44.56196237",
        "phone": "5417582229",
        "website_url": "http://www.flattailcorvallis.com",
        "state": "Oregon",
        "street": "202 SW 1st St"
    },
    {
        "id": "b5d72612-a3e3-414b-9242-170a6bccdbea",
        "name": "Flat Top Mountain Brewery",
        "brewery_type": "micro",
        "address_1": "567 Main St E",
        "address_2": null,
        "address_3": null,
        "city": "Banner Elk",
        "state_province": "North Carolina",
        "postal_code": "28604-8974",
        "country": "United States",
        "longitude": "-81.86657602",
        "latitude": "36.16510256",
        "phone": "8288988677",
        "website_url": "http://www.flattopbrew.com",
        "state": "North Carolina",
        "street": "567 Main St E"
    },
    {
        "id": "b44fb73c-740e-4d66-bf6e-650b1c76d0c2",
        "name": "Flathead Lake Brewing Co",
        "brewery_type": "micro",
        "address_1": "116 Holt Dr Ste B",
        "address_2": null,
        "address_3": null,
        "city": "Bigfork",
        "state_province": "Montana",
        "postal_code": "59911-3707",
        "country": "United States",
        "longitude": null,
        "latitude": null,
        "phone": "4068370085",
        "website_url": "http://www.flatheadlakebrewing.com",
        "state": "Montana",
        "street": "116 Holt Dr Ste B"
    },
    {
        "id": "a1cc7311-aba0-4376-96e2-c46a8b82103e",
        "name": "Flathead Lake Brewing Co - Production Only",
        "brewery_type": "micro",
        "address_1": null,
        "address_2": null,
        "address_3": null,
        "city": "Bigfork",
        "state_province": "Montana",
        "postal_code": "59911-8484",
        "country": "United States",
        "longitude": null,
        "latitude": null,
        "phone": "4068370085",
        "website_url": "http://www.flatheadlakebrewing.com",
        "state": "Montana",
        "street": null
    },
    {
        "id": "0999dab4-ac44-4694-8acf-e9e50d95cb92",
        "name": "Flatland Brewery",
        "brewery_type": "closed",
        "address_1": "3140 Bluestem Dr, Ste 105",
        "address_2": null,
        "address_3": null,
        "city": "West Fargo",
        "state_province": "North Dakota",
        "postal_code": "58078-8009",
        "country": "United States",
        "longitude": "-96.88473642",
        "latitude": "46.8342508",
        "phone": "7013531178",
        "website_url": "http://www.flatlandbrewery.com",
        "state": "North Dakota",
        "street": "3140 Bluestem Dr, Ste 105"
    },
    {
        "id": "408a9e62-ae9a-4082-8c05-35c250f5239a",
        "name": "Flatland Brewing Company",
        "brewery_type": "micro",
        "address_1": "9183 Survey Rd Ste 104",
        "address_2": null,
        "address_3": null,
        "city": "Elk Grove",
        "state_province": "California",
        "postal_code": "95624-9712",
        "country": "United States",
        "longitude": "-121.3567686",
        "latitude": "38.37684711",
        "phone": "9167533116",
        "website_url": "http://www.flatlandbrewingco.com",
        "state": "California",
        "street": "9183 Survey Rd Ste 104"
    },
    {
        "id": "adf91e10-69dd-4901-b617-d915d4d24bbe",
        "name": "Flatrock Brewery",
        "brewery_type": "micro",
        "address_1": "621 N Perry St",
        "address_2": null,
        "address_3": null,
        "city": "Napoleon",
        "state_province": "Ohio",
        "postal_code": "43545-1701",
        "country": "United States",
        "longitude": "-84.1245567",
        "latitude": "41.39090717",
        "phone": "4199661440",
        "website_url": "http://www.flatrockbrewery.com",
        "state": "Ohio",
        "street": "621 N Perry St"
    },
    {
        "id": "9521ea9c-c1db-445a-8d7e-5d2ea433608a",
        "name": "Flesk Brewing",
        "brewery_type": "micro",
        "address_1": "200 Applebee St Ste E",
        "address_2": null,
        "address_3": null,
        "city": "Barrington",
        "state_province": "Illinois",
        "postal_code": "60010-3063",
        "country": "United States",
        "longitude": null,
        "latitude": null,
        "phone": "2246557291",
        "website_url": "http://www.fleskbrewing.com",
        "state": "Illinois",
        "street": "200 Applebee St Ste E"
    },
    {
        "id": "df8780b1-b209-4209-a33f-ffbcaeab4cca",
        "name": "Fleur De Lis Brew Works",
        "brewery_type": "micro",
        "address_1": "3630 State Route 414",
        "address_2": null,
        "address_3": null,
        "city": "Seneca Falls",
        "state_province": "New York",
        "postal_code": "13148-9202",
        "country": "United States",
        "longitude": null,
        "latitude": null,
        "phone": "3156513260",
        "website_url": "http://www.fleurdelisbrewworks.com",
        "state": "New York",
        "street": "3630 State Route 414"
    },
    {
        "id": "ef4a200b-134c-422f-94c1-8564116b05b9",
        "name": "Flight Deck Brewing",
        "brewery_type": "micro",
        "address_1": "11 Atlantic Dr",
        "address_2": null,
        "address_3": null,
        "city": "Brunswick",
        "state_province": "Maine",
        "postal_code": "04011-4400",
        "country": "United States",
        "longitude": null,
        "latitude": null,
        "phone": "2075045133",
        "website_url": "http://www.flightdeckbrewing.com",
        "state": "Maine",
        "street": "11 Atlantic Dr"
    },
    {
        "id": "d339cf65-cab2-4797-9e89-0c2e8bf3e3fb",
        "name": "Flix Brewhouse",
        "brewery_type": "brewpub",
        "address_1": "2206 E 116th St",
        "address_2": null,
        "address_3": null,
        "city": "Carmel",
        "state_province": "Indiana",
        "postal_code": "46032-3215",
        "country": "United States",
        "longitude": "-86.0897644",
        "latitude": "39.9567195",
        "phone": "5122442739",
        "website_url": null,
        "state": "Indiana",
        "street": "2206 E 116th St"
    },
    {
        "id": "134bb873-9fc1-4065-b516-2598450f49e3",
        "name": "Flix Brewhouse",
        "brewery_type": "brewpub",
        "address_1": "3800 Merle Hay Rd",
        "address_2": null,
        "address_3": null,
        "city": "Des Moines",
        "state_province": "Iowa",
        "postal_code": "50310-1305",
        "country": "United States",
        "longitude": "-93.6997831",
        "latitude": "41.6306427",
        "phone": "5122442739",
        "website_url": null,
        "state": "Iowa",
        "street": "3800 Merle Hay Rd"
    },
    {
        "id": "fe89aa40-9b5d-4cb2-a8e9-54de1ec11c15",
        "name": "Flix Brewhouse",
        "brewery_type": "brewpub",
        "address_1": "3236 La Orilla Rd NW",
        "address_2": null,
        "address_3": null,
        "city": "Albuquerque",
        "state_province": "New Mexico",
        "postal_code": "87120-2630",
        "country": "United States",
        "longitude": "-106.6815896",
        "latitude": "35.15878955",
        "phone": "5054458500",
        "website_url": null,
        "state": "New Mexico",
        "street": "3236 La Orilla Rd NW"
    },
    {
        "id": "741bf3b8-3278-497f-a3f7-2efd0cc112f8",
        "name": "Flix Brewhouse",
        "brewery_type": "micro",
        "address_1": "2000 S Interstate 35 Ste B1",
        "address_2": null,
        "address_3": null,
        "city": "Round Rock",
        "state_province": "Texas",
        "postal_code": "78681-6900",
        "country": "United States",
        "longitude": null,
        "latitude": null,
        "phone": "5122442739",
        "website_url": "http://www.flixbrewhouse.com",
        "state": "Texas",
        "street": "2000 S Interstate 35 Ste B1"
    },
    {
        "id": "4e40d1be-52b1-4e69-b6cb-cb6391b08d71",
        "name": "Flix Brewhouse - Frisco/Little Elm",
        "brewery_type": "micro",
        "address_1": null,
        "address_2": null,
        "address_3": null,
        "city": "Frisco",
        "state_province": "Texas",
        "postal_code": "75033",
        "country": "United States",
        "longitude": null,
        "latitude": null,
        "phone": "5122442739",
        "website_url": null,
        "state": "Texas",
        "street": null
    },
    {
        "id": "089aef1f-a14e-43bf-84c4-9df503dc637d",
        "name": "Flix Brewhouse - Madison",
        "brewery_type": "brewpub",
        "address_1": "85 East Towne Mall",
        "address_2": null,
        "address_3": null,
        "city": "Madison",
        "state_province": "Wisconsin",
        "postal_code": "53704",
        "country": "United States",
        "longitude": "-89.3040968",
        "latitude": "43.1283021",
        "phone": "5122442739",
        "website_url": "https://www.flixbrewhouse.com",
        "state": "Wisconsin",
        "street": "85 East Towne Mall"
    },
    {
        "id": "73c24a7a-a78f-4958-93b0-ff937ab9bf37",
        "name": "Floating Bridge Brewing",
        "brewery_type": "micro",
        "address_1": "722 NE 45th St",
        "address_2": null,
        "address_3": null,
        "city": "Seattle",
        "state_province": "Washington",
        "postal_code": "98105-4719",
        "country": "United States",
        "longitude": "-122.3198017",
        "latitude": "47.6615295",
        "phone": "2064664784",
        "website_url": "http://www.floatingbridgebrewing.com",
        "state": "Washington",
        "street": "722 NE 45th St"
    },
    {
        "id": "208f5a9e-de1f-4af8-a959-49ee229284d0",
        "name": "Floodland Brewing",
        "brewery_type": "micro",
        "address_1": "3806 Woodland Park Ave North Suite 100",
        "address_2": null,
        "address_3": null,
        "city": "Seattle",
        "state_province": "Washington",
        "postal_code": "98103",
        "country": "United States",
        "longitude": null,
        "latitude": null,
        "phone": "2064862854",
        "website_url": "http://www.floodlandbrewing.com",
        "state": "Washington",
        "street": "3806 Woodland Park Ave North Suite 100"
    },
    {
        "id": "40b4dc42-bfdc-42a7-b225-7046aa6e1648",
        "name": "Floodstage Ale Works",
        "brewery_type": "brewpub",
        "address_1": "170 S Main St",
        "address_2": null,
        "address_3": null,
        "city": "Brighton",
        "state_province": "Colorado",
        "postal_code": "80601-1611",
        "country": "United States",
        "longitude": "-104.8221009",
        "latitude": "39.98456564",
        "phone": "3036547972",
        "website_url": "http://www.floodstagealeworks.com",
        "state": "Colorado",
        "street": "170 S Main St"
    },
    {
        "id": "919330f5-af85-4dee-9277-d0189c3cc480",
        "name": "Florence Brewing Company",
        "brewery_type": "micro",
        "address_1": "200 S Pikes Peak Ave",
        "address_2": null,
        "address_3": null,
        "city": "Florence",
        "state_province": "Colorado",
        "postal_code": "81226-1433",
        "country": "United States",
        "longitude": "-105.1177755",
        "latitude": "38.3899222",
        "phone": "7197847441",
        "website_url": "http://www.florencebrewing.com",
        "state": "Colorado",
        "street": "200 S Pikes Peak Ave"
    },
    {
        "id": "4748ee56-1199-47ee-87c2-2d9d9250885f",
        "name": "Florida Beer Co",
        "brewery_type": "regional",
        "address_1": "200 Imperial Blvd",
        "address_2": null,
        "address_3": null,
        "city": "Cape Canaveral",
        "state_province": "Florida",
        "postal_code": "32920-4245",
        "country": "United States",
        "longitude": "-80.611259",
        "latitude": "28.398461",
        "phone": "3217284114",
        "website_url": "http://www.floridabeer.com",
        "state": "Florida",
        "street": "200 Imperial Blvd"
    },
    {
        "id": "3f4ffaca-b98e-4ebf-b3f2-35b218ad9f51",
        "name": "Florida Keys Brewing Co.",
        "brewery_type": "micro",
        "address_1": null,
        "address_2": null,
        "address_3": null,
        "city": "Islamorada",
        "state_province": "Florida",
        "postal_code": "33036",
        "country": "United States",
        "longitude": null,
        "latitude": null,
        "phone": null,
        "website_url": "http://www.floridakeysbrewingco.com",
        "state": "Florida",
        "street": null
    },
    {
        "id": "01018209-3f1d-45f1-8848-a8d116f6884d",
        "name": "Flossmoor Station Brewing Co",
        "brewery_type": "brewpub",
        "address_1": "1035 Sterling Ave",
        "address_2": null,
        "address_3": null,
        "city": "Flossmoor",
        "state_province": "Illinois",
        "postal_code": "60422-1252",
        "country": "United States",
        "longitude": "-87.67869465",
        "latitude": "41.54338855",
        "phone": "7089572739",
        "website_url": "http://www.flossmoorstation.com",
        "state": "Illinois",
        "street": "1035 Sterling Ave"
    },
    {
        "id": "27954ed4-72d5-47b8-8a2e-c88cc428cc6f",
        "name": "Flounder Brewing Co",
        "brewery_type": "micro",
        "address_1": "1 Ilene Ct Ste 8 Ste 16",
        "address_2": null,
        "address_3": null,
        "city": "Hillsborough",
        "state_province": "New Jersey",
        "postal_code": "08844-1916",
        "country": "United States",
        "longitude": null,
        "latitude": null,
        "phone": "9083966166",
        "website_url": "http://www.flounderbrewing.com",
        "state": "New Jersey",
        "street": "1 Ilene Ct Ste 8 Ste 16"
    },
    {
        "id": "524c2b94-6f03-405e-86e8-6331c55b2775",
        "name": "Floyd County Brewing Company",
        "brewery_type": "brewpub",
        "address_1": "129 W Main St",
        "address_2": null,
        "address_3": null,
        "city": "New Albany",
        "state_province": "Indiana",
        "postal_code": "47150-5958",
        "country": "United States",
        "longitude": "-85.82429754",
        "latitude": "38.28289885",
        "phone": "4705882337",
        "website_url": "http://www.floydcountybrewing.com",
        "state": "Indiana",
        "street": "129 W Main St"
    },
    {
        "id": "f80dcefb-bbb4-4a31-ac13-be85108c31f3",
        "name": "FlyBoy Brewing",
        "brewery_type": "closed",
        "address_1": "15630 Boones Ferry Rd Ste 1A",
        "address_2": null,
        "address_3": null,
        "city": "Lake Oswego",
        "state_province": "Oregon",
        "postal_code": "97035-3455",
        "country": "United States",
        "longitude": "-122.7165",
        "latitude": "45.41274998",
        "phone": "5039081281",
        "website_url": "http://www.flyboybeer.com",
        "state": "Oregon",
        "street": "15630 Boones Ferry Rd Ste 1A"
    },
    {
        "id": "295b8a48-f12c-4f0c-8762-405a83a1b6e6",
        "name": "FlyBoy Brewing",
        "brewery_type": "micro",
        "address_1": "15230 SW Sequoia Parkway",
        "address_2": null,
        "address_3": null,
        "city": "Tigard",
        "state_province": "Oregon",
        "postal_code": "97224",
        "country": "United States",
        "longitude": "-122.7458813",
        "latitude": "45.41087854",
        "phone": "9713170137",
        "website_url": "http://www.flyboybrewing.com",
        "state": "Oregon",
        "street": "15230 SW Sequoia Parkway"
    },
    {
        "id": "83987247-12ba-49f6-b677-6b28384d3c9d",
        "name": "Flycaster Brewing Co.",
        "brewery_type": "closed",
        "address_1": "12815 NE 124th St Ste I",
        "address_2": null,
        "address_3": null,
        "city": "Kirkland",
        "state_province": "Washington",
        "postal_code": "98034-8313",
        "country": "United States",
        "longitude": "-122.169021",
        "latitude": "47.711115",
        "phone": "2069636626",
        "website_url": "https://flycasterbrewing.com",
        "state": "Washington",
        "street": "12815 NE 124th St Ste I"
    },
    {
        "id": "60dbcce5-f754-4a42-ac63-e3a246b7a0fb",
        "name": "Flyers Restaurant and Brewery",
        "brewery_type": "brewpub",
        "address_1": "32295 State Route 20",
        "address_2": null,
        "address_3": null,
        "city": "Oak Harbor",
        "state_province": "Washington",
        "postal_code": "98277-5923",
        "country": "United States",
        "longitude": "-122.6528474",
        "latitude": "48.2991197",
        "phone": "3606755858",
        "website_url": "http://www.eatatflyers.com",
        "state": "Washington",
        "street": "32295 State Route 20"
    },
    {
        "id": "aecbe0a5-c680-45a0-b1dd-8bf5b04d9f3a",
        "name": "Flying Basset Brewing",
        "brewery_type": "brewpub",
        "address_1": "720 W Ray Rd",
        "address_2": null,
        "address_3": null,
        "city": "Gilbert",
        "state_province": "Arizona",
        "postal_code": "85233",
        "country": "United States",
        "longitude": "-111.8054389",
        "latitude": "33.32098148",
        "phone": "4804261373",
        "website_url": "http://www.flyingbassetbrewing.com",
        "state": "Arizona",
        "street": "720 W Ray Rd"
    },
    {
        "id": "64596f88-a3f9-4d17-a51d-848b004ae4a1",
        "name": "Flying Belgian Brewery",
        "brewery_type": "micro",
        "address_1": "211 Main St",
        "address_2": null,
        "address_3": null,
        "city": "Farmingdale",
        "state_province": "New York",
        "postal_code": "11735-2675",
        "country": "United States",
        "longitude": "-73.44588651",
        "latitude": "40.73359788",
        "phone": "8184577548",
        "website_url": "http://www.flyingbelgianbrewery.com",
        "state": "New York",
        "street": "211 Main St"
    },
    {
        "id": "c8b11b14-e5ba-401d-accb-d3c74a54c98e",
        "name": "Flying Bike Cooperative Brewery",
        "brewery_type": "micro",
        "address_1": "8570 Greenwood Ave N",
        "address_2": null,
        "address_3": null,
        "city": "Seattle",
        "state_province": "Washington",
        "postal_code": "98103-3614",
        "country": "United States",
        "longitude": "-122.3550721",
        "latitude": "47.6920561",
        "phone": "2064287709",
        "website_url": "http://www.flyingbike.coop",
        "state": "Washington",
        "street": "8570 Greenwood Ave N"
    },
    {
        "id": "891b1209-e442-48c6-ac73-6cdae5cc128a",
        "name": "Flying Bison Brewing Co",
        "brewery_type": "micro",
        "address_1": "840 Seneca St",
        "address_2": null,
        "address_3": null,
        "city": "Buffalo",
        "state_province": "New York",
        "postal_code": "14210-1414",
        "country": "United States",
        "longitude": "-78.8458326",
        "latitude": "42.8758185",
        "phone": "7168731557",
        "website_url": "http://www.flyingbisonbrewing.com",
        "state": "New York",
        "street": "840 Seneca St"
    },
    {
        "id": "f8575860-7e83-4dee-9625-b2819c053973",
        "name": "Flying Boat Brewing Company",
        "brewery_type": "micro",
        "address_1": "1776 11th Ave N",
        "address_2": null,
        "address_3": null,
        "city": "St Petersburg",
        "state_province": "Florida",
        "postal_code": "33713-5747",
        "country": "United States",
        "longitude": "-82.65719969",
        "latitude": "27.78284571",
        "phone": "7278002999",
        "website_url": "http://www.flyingboatbrewing.com",
        "state": "Florida",
        "street": "1776 11th Ave N"
    },
    {
        "id": "e2b339ba-8984-497a-ba6b-91882dec1515",
        "name": "Flying Dog Brewery",
        "brewery_type": "regional",
        "address_1": "4607 Wedgewood Blvd",
        "address_2": null,
        "address_3": null,
        "city": "Frederick",
        "state_province": "Maryland",
        "postal_code": "21703-7120",
        "country": "United States",
        "longitude": "-77.42679107",
        "latitude": "39.3628322",
        "phone": "3016947899",
        "website_url": "http://www.flyingdogbrewery.com",
        "state": "Maryland",
        "street": "4607 Wedgewood Blvd"
    },
    {
        "id": "942a943c-ddf3-4a7c-984b-2176a1ba8834",
        "name": "Flying Dreams Brewing Co.",
        "brewery_type": "micro",
        "address_1": "455B Park Ave",
        "address_2": null,
        "address_3": null,
        "city": "Worcester",
        "state_province": "Massachusetts",
        "postal_code": "01610",
        "country": "United States",
        "longitude": "-71.82618857",
        "latitude": "42.25419957",
        "phone": "5089268251",
        "website_url": "http://www.flyingdreamsbrewing.com",
        "state": "Massachusetts",
        "street": "455B Park Ave"
    },
    {
        "id": "d2a781ba-48b3-4a49-8202-cafdde5fbd8d",
        "name": "Flying Fish Brewing Co",
        "brewery_type": "regional",
        "address_1": "900 Kennedy Blvd",
        "address_2": null,
        "address_3": null,
        "city": "Somerdale",
        "state_province": "New Jersey",
        "postal_code": "08083-1031",
        "country": "United States",
        "longitude": "-75.02089526",
        "latitude": "39.85394176",
        "phone": "8565043442",
        "website_url": "http://www.flyingfish.com",
        "state": "New Jersey",
        "street": "900 Kennedy Blvd"
    },
    {
        "id": "3e264584-4208-4f8f-afcf-caa974679c1d",
        "name": "Flying Goose Brewpub",
        "brewery_type": "brewpub",
        "address_1": "40 Andover Rd",
        "address_2": null,
        "address_3": null,
        "city": "New London",
        "state_province": "New Hampshire",
        "postal_code": "03257-5901",
        "country": "United States",
        "longitude": null,
        "latitude": null,
        "phone": "6035266899",
        "website_url": "http://www.flyinggoose.com",
        "state": "New Hampshire",
        "street": "40 Andover Rd"
    },
    {
        "id": "230482be-8886-42e9-b6ae-25948beba74c",
        "name": "Flying Heart Brewing",
        "brewery_type": "micro",
        "address_1": "700 Barksdale Blvd",
        "address_2": null,
        "address_3": null,
        "city": "Bossier City",
        "state_province": "Louisiana",
        "postal_code": "71111-4502",
        "country": "United States",
        "longitude": "-93.732075",
        "latitude": "32.515706",
        "phone": "3183448775",
        "website_url": "http://www.flyingheartbrewing.com",
        "state": "Louisiana",
        "street": "700 Barksdale Blvd"
    },
    {
        "id": "f803556e-bc5e-4ce2-b4c0-197818963520",
        "name": "Flying Lion Brewing",
        "brewery_type": "micro",
        "address_1": "5041 Rainier Ave S Ste 106",
        "address_2": null,
        "address_3": null,
        "city": "Seattle",
        "state_province": "Washington",
        "postal_code": "98118-1946",
        "country": "United States",
        "longitude": "-122.2840136",
        "latitude": "47.5560348",
        "phone": "2066599912",
        "website_url": "http://www.flyinglionbrewing.com",
        "state": "Washington",
        "street": "5041 Rainier Ave S Ste 106"
    },
    {
        "id": "277143dd-a012-4650-9ab5-603a9b5afe5c",
        "name": "Flying Machine Brewing Company",
        "brewery_type": "planning",
        "address_1": null,
        "address_2": null,
        "address_3": null,
        "city": "Wilmington",
        "state_province": "North Carolina",
        "postal_code": "28403",
        "country": "United States",
        "longitude": null,
        "latitude": null,
        "phone": null,
        "website_url": "http://www.facebook.com/flyingmachinebrewing",
        "state": "North Carolina",
        "street": null
    },
    {
        "id": "7095f8fc-bb6c-4bd3-88e2-b4900e0ceee0",
        "name": "Flying Man Brewing Company",
        "brewery_type": "micro",
        "address_1": "2400 Patterson Industrial",
        "address_2": null,
        "address_3": null,
        "city": "Austin",
        "state_province": "Texas",
        "postal_code": "78660",
        "country": "United States",
        "longitude": null,
        "latitude": null,
        "phone": "5129104099",
        "website_url": "http://www.flyingmanbrewing.com",
        "state": "Texas",
        "street": "2400 Patterson Industrial"
    },
    {
        "id": "5bb89793-bf00-4a2b-81a5-4bba78134e12",
        "name": "Flying Mouse Brewery",
        "brewery_type": "micro",
        "address_1": "221 Precast Way",
        "address_2": null,
        "address_3": null,
        "city": "Troutville",
        "state_province": "Virginia",
        "postal_code": "24175-6099",
        "country": "United States",
        "longitude": null,
        "latitude": null,
        "phone": null,
        "website_url": null,
        "state": "Virginia",
        "street": "221 Precast Way"
    },
    {
        "id": "5714fc64-53b8-45a0-98a6-c93575828a92",
        "name": "Flying Rhino Brewing Company",
        "brewery_type": "planning",
        "address_1": null,
        "address_2": null,
        "address_3": null,
        "city": "Houston",
        "state_province": "Texas",
        "postal_code": "77077-6108",
        "country": "United States",
        "longitude": null,
        "latitude": null,
        "phone": "8326510114",
        "website_url": "http://flyingrhinobrewing.com/",
        "state": "Texas",
        "street": null
    },
    {
        "id": "220b8569-7203-42e3-8c6a-1565f5ba0f2f",
        "name": "Flying Tiger Brewery",
        "brewery_type": "micro",
        "address_1": "506 N 2nd St",
        "address_2": null,
        "address_3": null,
        "city": "Monroe",
        "state_province": "Louisiana",
        "postal_code": "71201-6234",
        "country": "United States",
        "longitude": "-92.11970662",
        "latitude": "32.50586475",
        "phone": "3185471738",
        "website_url": "http://www.flyingtigerbeer.com",
        "state": "Louisiana",
        "street": "506 N 2nd St"
    },
    {
        "id": "d4af7a8e-f8de-40e8-91cd-b09c827fe215",
        "name": "Flyover Brewing Co",
        "brewery_type": "brewpub",
        "address_1": "1824 Broadway",
        "address_2": null,
        "address_3": null,
        "city": "Scottsbluff",
        "state_province": "Nebraska",
        "postal_code": "69361-2458",
        "country": "United States",
        "longitude": "-103.6629749",
        "latitude": "41.8651034",
        "phone": "3085750335",
        "website_url": "https://www.flyoverbrewingcompany.com",
        "state": "Nebraska",
        "street": "1824 Broadway"
    },
    {
        "id": "56790b8f-beb7-4218-92cf-82cfbcd04b7e",
        "name": "Flytrap Brewing",
        "brewery_type": "micro",
        "address_1": "319 Walnut St",
        "address_2": null,
        "address_3": null,
        "city": "Wilmington",
        "state_province": "North Carolina",
        "postal_code": "28401-4051",
        "country": "United States",
        "longitude": "-77.94545788",
        "latitude": "34.24034335",
        "phone": "9107692881",
        "website_url": "http://flytrapbrewing.com",
        "state": "North Carolina",
        "street": "319 Walnut St"
    },
    {
        "id": "da405a76-eb2d-423c-8d17-04d21b76369a",
        "name": "Flyway Brewing Co",
        "brewery_type": "brewpub",
        "address_1": "314 Maple St",
        "address_2": null,
        "address_3": null,
        "city": "North Little Rock",
        "state_province": "Arkansas",
        "postal_code": "72114-5334",
        "country": "United States",
        "longitude": null,
        "latitude": null,
        "phone": "5018123192",
        "website_url": null,
        "state": "Arkansas",
        "street": "314 Maple St"
    },
    {
        "id": "6d87f606-4479-4425-9427-9b592808ad32",
        "name": "Flywheel Brewing Company",
        "brewery_type": "micro",
        "address_1": "218 S Mulberry St Ste 103",
        "address_2": null,
        "address_3": null,
        "city": "Elizabethtown",
        "state_province": "Kentucky",
        "postal_code": "42701-1431",
        "country": "United States",
        "longitude": null,
        "latitude": null,
        "phone": null,
        "website_url": "http://www.flywheelbrewing.com",
        "state": "Kentucky",
        "street": "218 S Mulberry St Ste 103"
    },
    {
        "id": "3567b09e-51e3-4f69-8666-8a3ff46d405b",
        "name": "Foam Brewers",
        "brewery_type": "micro",
        "address_1": "112 Lake St",
        "address_2": null,
        "address_3": null,
        "city": "Burlington",
        "state_province": "Vermont",
        "postal_code": "05401-5284",
        "country": "United States",
        "longitude": "-73.2200287",
        "latitude": "44.4793121",
        "phone": "8023992511",
        "website_url": "http://www.foambrewers.com",
        "state": "Vermont",
        "street": "112 Lake St"
    },
    {
        "id": "82abc19c-6022-4115-9e8e-62e33cd353c1",
        "name": "Fogbelt Brewing Co",
        "brewery_type": "brewpub",
        "address_1": "1305 Cleveland Ave",
        "address_2": null,
        "address_3": null,
        "city": "Santa Rosa",
        "state_province": "California",
        "postal_code": "95401-4211",
        "country": "United States",
        "longitude": "-122.7266079",
        "latitude": "38.4490004",
        "phone": "7079783400",
        "website_url": "http://www.fogbeltbrewing.com",
        "state": "California",
        "street": "1305 Cleveland Ave"
    },
    {
        "id": "287dfebf-9ff0-4fab-b98d-720e0d7816ef",
        "name": "Foggy Noggin Brewing",
        "brewery_type": "micro",
        "address_1": "22329 53rd Ave SE",
        "address_2": null,
        "address_3": null,
        "city": "Bothell",
        "state_province": "Washington",
        "postal_code": "98021-8017",
        "country": "United States",
        "longitude": "-122.161117",
        "latitude": "47.794727",
        "phone": "2065539223",
        "website_url": "http://www.foggynogginbrewing.com",
        "state": "Washington",
        "street": "22329 53rd Ave SE"
    },
    {
        "id": "529f1fc8-2f98-43d1-b8b1-897a324ea20c",
        "name": "Fogtown Brewing Company",
        "brewery_type": "micro",
        "address_1": "25 Pine St",
        "address_2": null,
        "address_3": null,
        "city": "Ellsworth",
        "state_province": "Maine",
        "postal_code": "04605-2023",
        "country": "United States",
        "longitude": "-68.42259791",
        "latitude": "44.5408544",
        "phone": "6103897224",
        "website_url": "http://www.fogtownbrewing.com",
        "state": "Maine",
        "street": "25 Pine St"
    },
    {
        "id": "87b318f5-5c45-4e21-b577-5389e650453a",
        "name": "Foley Brothers Brewing Co.",
        "brewery_type": "micro",
        "address_1": "79 Stone Mill Dam Rd",
        "address_2": null,
        "address_3": null,
        "city": "Brandon",
        "state_province": "Vermont",
        "postal_code": "05733-8945",
        "country": "United States",
        "longitude": null,
        "latitude": null,
        "phone": "8024658413",
        "website_url": null,
        "state": "Vermont",
        "street": "79 Stone Mill Dam Rd"
    },
    {
        "id": "c5444860-29b6-491f-b5b6-a5b598fd5d2c",
        "name": "Folklore Brewing",
        "brewery_type": "micro",
        "address_1": "153 Mary Lou Ln",
        "address_2": null,
        "address_3": null,
        "city": "Dothan",
        "state_province": "Alabama",
        "postal_code": "36301-9521",
        "country": "United States",
        "longitude": null,
        "latitude": null,
        "phone": "3347022337",
        "website_url": "http://www.folklorebrewing.com",
        "state": "Alabama",
        "street": "153 Mary Lou Ln"
    },
    {
        "id": "231bb644-13a6-4731-b570-459ba212b3f9",
        "name": "Folksbier",
        "brewery_type": "regional",
        "address_1": "101 Luquer St # 103",
        "address_2": null,
        "address_3": null,
        "city": "Brooklyn",
        "state_province": "New York",
        "postal_code": "11231-3308",
        "country": "United States",
        "longitude": "-74.00099132",
        "latitude": "40.6779358",
        "phone": null,
        "website_url": "http://www.folksbier.com",
        "state": "New York",
        "street": "101 Luquer St # 103"
    },
    {
        "id": "a33083eb-89f0-465e-979f-4990cccb47dd",
        "name": "Folsom Brewery",
        "brewery_type": "planning",
        "address_1": null,
        "address_2": null,
        "address_3": null,
        "city": "Folsom",
        "state_province": "Louisiana",
        "postal_code": "70437-",
        "country": "United States",
        "longitude": null,
        "latitude": null,
        "phone": "9853737631",
        "website_url": null,
        "state": "Louisiana",
        "street": null
    },
    {
        "id": "4ef2a5c4-c562-4405-acd7-c57dd4d2d6ac",
        "name": "Fonta Flora Brewery",
        "brewery_type": "micro",
        "address_1": "317 N Green St",
        "address_2": null,
        "address_3": null,
        "city": "Morganton",
        "state_province": "North Carolina",
        "postal_code": "28655-3324",
        "country": "United States",
        "longitude": "-81.69093777",
        "latitude": "35.7476204",
        "phone": "8284750153",
        "website_url": "http://www.fontaflora.com",
        "state": "North Carolina",
        "street": "317 N Green St"
    },
    {
        "id": "7a8a42df-2b2b-4f6e-8b53-b2fabccc25a1",
        "name": "Fonta Flora Brewery At Whipoorwill Farm",
        "brewery_type": "micro",
        "address_1": "6751 NC HWY 126",
        "address_2": null,
        "address_3": null,
        "city": "Nebo",
        "state_province": "North Carolina",
        "postal_code": "28761",
        "country": "United States",
        "longitude": null,
        "latitude": null,
        "phone": "8284750153",
        "website_url": null,
        "state": "North Carolina",
        "street": "6751 NC HWY 126"
    },
    {
        "id": "3e01b66a-8c7c-41f1-aa78-d019fe805ce7",
        "name": "Foolproof Brewing Company",
        "brewery_type": "micro",
        "address_1": "241 Grotto Ave",
        "address_2": null,
        "address_3": null,
        "city": "Pawtucket",
        "state_province": "Rhode Island",
        "postal_code": "02860-3403",
        "country": "United States",
        "longitude": "-71.41017837",
        "latitude": "41.86939069",
        "phone": "4017215970",
        "website_url": "http://www.foolproofbrewing.com",
        "state": "Rhode Island",
        "street": "241 Grotto Ave"
    },
    {
        "id": "c1e03ca4-dfa7-4723-8028-dd86467e3226",
        "name": "Fools Fire Brewing Company At Fermentation Lounge",
        "brewery_type": "brewpub",
        "address_1": "415 Saint Francis Street Unit 112",
        "address_2": null,
        "address_3": null,
        "city": "Tallahassee",
        "state_province": "Florida",
        "postal_code": "32301-2201",
        "country": "United States",
        "longitude": null,
        "latitude": null,
        "phone": "8507274033",
        "website_url": "http://www.foolsfire.com",
        "state": "Florida",
        "street": "415 Saint Francis Street Unit 112"
    },
    {
        "id": "94082cc5-8049-40e5-990f-bb1173c26140",
        "name": "Hell or High Water Brewing",
        "brewery_type": "planning",
        "address_1": null,
        "address_2": null,
        "address_3": null,
        "city": "Leander",
        "state_province": "Texas",
        "postal_code": "78641-8882",
        "country": "United States",
        "longitude": null,
        "latitude": null,
        "phone": "5129636701",
        "website_url": null,
        "state": "Texas",
        "street": null
    },
    {
        "id": "22b3edd1-db8e-4573-b490-f672c7247c07",
        "name": "Foothill Hops Farm Brewery",
        "brewery_type": "micro",
        "address_1": "5024 Bear Path Rd",
        "address_2": null,
        "address_3": null,
        "city": "Munnsville",
        "state_province": "New York",
        "postal_code": "13409-4114",
        "country": "United States",
        "longitude": "-75.58610382",
        "latitude": "42.96463213",
        "phone": "3154952451",
        "website_url": "http://www.foothillhops.com",
        "state": "New York",
        "street": "5024 Bear Path Rd"
    },
    {
        "id": "af5b4f9c-51d7-4813-8ed6-30aa56cb8dea",
        "name": "Foothills Brewing and Beverage Co",
        "brewery_type": "closed",
        "address_1": "25312 Kanaskat Dr",
        "address_2": null,
        "address_3": null,
        "city": "Black Diamond",
        "state_province": "Washington",
        "postal_code": "98010",
        "country": "United States",
        "longitude": "-122.006345",
        "latitude": "47.328838",
        "phone": "3608862215",
        "website_url": null,
        "state": "Washington",
        "street": "25312 Kanaskat Dr"
    },
    {
        "id": "d9bbc65e-3c8c-4dd6-8489-e16a8fd46888",
        "name": "Foothills Brewing Co",
        "brewery_type": "regional",
        "address_1": "3800 Kimwell Dr",
        "address_2": null,
        "address_3": null,
        "city": "Winston Salem",
        "state_province": "North Carolina",
        "postal_code": "27103-6708",
        "country": "United States",
        "longitude": "-80.32680515",
        "latitude": "36.04816426",
        "phone": "3363544030",
        "website_url": "http://www.foothillsbrewing.com",
        "state": "North Carolina",
        "street": "3800 Kimwell Dr"
    },
    {
        "id": "eb0d1615-0316-4257-8193-b0e182281f34",
        "name": "Foothills Brewing Co Brewpub",
        "brewery_type": "brewpub",
        "address_1": "638 W 4th St",
        "address_2": null,
        "address_3": null,
        "city": "Winston Salem",
        "state_province": "North Carolina",
        "postal_code": "27101-2730",
        "country": "United States",
        "longitude": "-80.25085212",
        "latitude": "36.0976512",
        "phone": "3367773348",
        "website_url": "http://www.foothillsbrewing.com",
        "state": "North Carolina",
        "street": "638 W 4th St"
    },
    {
        "id": "9852462c-c574-4947-ba8a-bcfc753916be",
        "name": "For the Love of God Brewing",
        "brewery_type": "micro",
        "address_1": "2617 W Northwest Blvd",
        "address_2": null,
        "address_3": null,
        "city": "Spokane",
        "state_province": "Washington",
        "postal_code": "99205",
        "country": "United States",
        "longitude": "-117.4505585",
        "latitude": "47.68614962",
        "phone": "5095988601",
        "website_url": "https://www.fortheloveofgodbrewing.com",
        "state": "Washington",
        "street": "2617 W Northwest Blvd"
    },
    {
        "id": "190e7e9c-9e20-4b26-b820-f951c75c27b3",
        "name": "Forager Brewing Company",
        "brewery_type": "brewpub",
        "address_1": "1005 6th St NW",
        "address_2": null,
        "address_3": null,
        "city": "Rochester",
        "state_province": "Minnesota",
        "postal_code": "55901-2741",
        "country": "United States",
        "longitude": "-92.47868101",
        "latitude": "44.02937696",
        "phone": "5072587490",
        "website_url": "http://www.foragerbrewery.com",
        "state": "Minnesota",
        "street": "1005 6th St NW"
    },
    {
        "id": "8e789e1c-18f7-46ba-9901-3a527ad1466d",
        "name": "Forbidden Peak Brewery",
        "brewery_type": "micro",
        "address_1": "11798 Glacier Hwy",
        "address_2": null,
        "address_3": null,
        "city": "Juneau",
        "state_province": "Alaska",
        "postal_code": "99801",
        "country": "United States",
        "longitude": "-134.645965",
        "latitude": "58.387811",
        "phone": "9075237787",
        "website_url": "https://forbiddenpeak.com",
        "state": "Alaska",
        "street": "11798 Glacier Hwy"
    },
    {
        "id": "ecc59506-755c-4197-bdd7-5322484cddc6",
        "name": "Forbidden Root Restaurant & Brewery",
        "brewery_type": "micro",
        "address_1": "1746 W Chicago Ave",
        "address_2": null,
        "address_3": null,
        "city": "Chicago",
        "state_province": "Illinois",
        "postal_code": "60622-5012",
        "country": "United States",
        "longitude": "-87.6715393",
        "latitude": "41.8961658",
        "phone": "3129292202",
        "website_url": "http://www.forbiddenroot.com",
        "state": "Illinois",
        "street": "1746 W Chicago Ave"
    },
    {
        "id": "913d6e43-da5b-49e4-8a11-104caefcf642",
        "name": "Fordham and Old Dominion Brewing Company",
        "brewery_type": "large",
        "address_1": "1284 McD Dr",
        "address_2": null,
        "address_3": null,
        "city": "Dover",
        "state_province": "Delaware",
        "postal_code": "19901-4639",
        "country": "United States",
        "longitude": null,
        "latitude": null,
        "phone": "3026784810",
        "website_url": "http://www.fordhamanddominion.com",
        "state": "Delaware",
        "street": "1284 McD Dr"
    },
    {
        "id": "d89c9978-d12b-435b-bf5e-8ad598cb2ec1",
        "name": "Fore River Brewing Company",
        "brewery_type": "micro",
        "address_1": "45 Huntress Ave",
        "address_2": null,
        "address_3": null,
        "city": "South Portland",
        "state_province": "Maine",
        "postal_code": "04106-4115",
        "country": "United States",
        "longitude": "-70.28767105",
        "latitude": "43.63249066",
        "phone": "2073700629",
        "website_url": "http://www.foreriverbrewing.com",
        "state": "Maine",
        "street": "45 Huntress Ave"
    },
    {
        "id": "537756a0-6dbd-4a47-93cf-e1e0882c6a47",
        "name": "Foreign Objects Beer Company",
        "brewery_type": "micro",
        "address_1": null,
        "address_2": null,
        "address_3": null,
        "city": "New Paltz",
        "state_province": "New York",
        "postal_code": "12561-3401",
        "country": "United States",
        "longitude": null,
        "latitude": null,
        "phone": "6092871397",
        "website_url": "http://www.foreignobjectsbeer.com",
        "state": "New York",
        "street": null
    },
    {
        "id": "ad02f33d-c7f7-48d6-b744-5a0360960541",
        "name": "Forest & Main Brewery and Pub",
        "brewery_type": "brewpub",
        "address_1": "61 N Main St",
        "address_2": null,
        "address_3": null,
        "city": "Ambler",
        "state_province": "Pennsylvania",
        "postal_code": "19002-5728",
        "country": "United States",
        "longitude": "-75.2250879",
        "latitude": "40.1553233",
        "phone": "2155421776",
        "website_url": "http://www.forestandmain.com",
        "state": "Pennsylvania",
        "street": "61 N Main St"
    },
    {
        "id": "d1066da0-cbff-433c-ba06-9183f189e1fd",
        "name": "Forest City Brewery",
        "brewery_type": "brewpub",
        "address_1": "2135 Columbus Rd Ste A",
        "address_2": null,
        "address_3": null,
        "city": "Cleveland",
        "state_province": "Ohio",
        "postal_code": "44113-4243",
        "country": "United States",
        "longitude": null,
        "latitude": null,
        "phone": null,
        "website_url": "http://www.forestcitybrewery.com",
        "state": "Ohio",
        "street": "2135 Columbus Rd Ste A"
    },
    {
        "id": "338ef688-5a3f-4bcc-bfd6-02e17f7eea19",
        "name": "Forest City Brewing",
        "brewery_type": "micro",
        "address_1": "180 Johnson St.",
        "address_2": null,
        "address_3": null,
        "city": "Middlefield",
        "state_province": "Connecticut",
        "postal_code": "06455",
        "country": "United States",
        "longitude": null,
        "latitude": null,
        "phone": "8607882138",
        "website_url": null,
        "state": "Connecticut",
        "street": "180 Johnson St."
    },
    {
        "id": "34990fd2-327d-4dac-ad38-0bf1a07e36a7",
        "name": "Forge Brew Works",
        "brewery_type": "brewpub",
        "address_1": "8532 Terminal Rd Ste M",
        "address_2": null,
        "address_3": null,
        "city": "Lorton",
        "state_province": "Virginia",
        "postal_code": "22079-1428",
        "country": "United States",
        "longitude": null,
        "latitude": null,
        "phone": "7033722979",
        "website_url": "http://www.forgebrewworks.com",
        "state": "Virginia",
        "street": "8532 Terminal Rd Ste M"
    },
    {
        "id": "d7c42bff-51bc-4ae5-ad50-8b835bb83048",
        "name": "Forge Brewhouse",
        "brewery_type": "brewpub",
        "address_1": "1330 E State St",
        "address_2": null,
        "address_3": null,
        "city": "Sycamore",
        "state_province": "Illinois",
        "postal_code": "60178-9580",
        "country": "United States",
        "longitude": "-88.66048",
        "latitude": "41.984784",
        "phone": null,
        "website_url": null,
        "state": "Illinois",
        "street": "1330 E State St"
    },
    {
        "id": "51ac1ec4-3a11-4216-8498-e83957bdc40b",
        "name": "Forgotten Boardwalk Brewing",
        "brewery_type": "micro",
        "address_1": "1940 Olney Ave Ste 100",
        "address_2": null,
        "address_3": null,
        "city": "Cherry Hill",
        "state_province": "New Jersey",
        "postal_code": "08003-2016",
        "country": "United States",
        "longitude": null,
        "latitude": null,
        "phone": "8564370709",
        "website_url": "http://www.forgottenboardwalk.com",
        "state": "New Jersey",
        "street": "1940 Olney Ave Ste 100"
    },
    {
        "id": "1cfa05f2-9520-4707-9716-496749ddfd67",
        "name": "Forgotten Road Ales",
        "brewery_type": "planning",
        "address_1": null,
        "address_2": null,
        "address_3": null,
        "city": "Graham",
        "state_province": "North Carolina",
        "postal_code": "27253",
        "country": "United States",
        "longitude": null,
        "latitude": null,
        "phone": "4342031993",
        "website_url": null,
        "state": "North Carolina",
        "street": null
    },
    {
        "id": "d9415cb6-2329-4827-8ec8-dd6130327ff8",
        "name": "Fort Brewery and Pizza",
        "brewery_type": "brewpub",
        "address_1": "1001 W Magnolia Ave",
        "address_2": null,
        "address_3": null,
        "city": "Fort Worth",
        "state_province": "Texas",
        "postal_code": "76104-4504",
        "country": "United States",
        "longitude": "-97.33528782",
        "latitude": "32.7303843",
        "phone": "5125697369",
        "website_url": "http://www.fortbrewery.com",
        "state": "Texas",
        "street": "1001 W Magnolia Ave"
    },
    {
        "id": "f71ae900-2020-454b-a23e-925d7e5dbb4f",
        "name": "Fort George Brewery",
        "brewery_type": "regional",
        "address_1": "1483 Duane St",
        "address_2": null,
        "address_3": null,
        "city": "Astoria",
        "state_province": "Oregon",
        "postal_code": "97103-3819",
        "country": "United States",
        "longitude": "-123.8274681",
        "latitude": "46.1883837",
        "phone": "5033257468",
        "website_url": "http://www.fortgeorgebrewery.com",
        "state": "Oregon",
        "street": "1483 Duane St"
    },
    {
        "id": "99143ec6-594d-4ce6-8e94-cffe750dae0b",
        "name": "Fort Hill Brewery",
        "brewery_type": "micro",
        "address_1": "30 Fort Hill Rd",
        "address_2": null,
        "address_3": null,
        "city": "Easthampton",
        "state_province": "Massachusetts",
        "postal_code": "01027-1268",
        "country": "United States",
        "longitude": "-72.64143098",
        "latitude": "42.28503154",
        "phone": "4132035754",
        "website_url": "http://www.forthillbrewery.com",
        "state": "Massachusetts",
        "street": "30 Fort Hill Rd"
    },
    {
        "id": "26232dc1-e177-4342-a9ae-58da4d2d223c",
        "name": "Fort Myers Brewing",
        "brewery_type": "micro",
        "address_1": "12811 Commerce Lakes Dr Ste 28",
        "address_2": null,
        "address_3": null,
        "city": "Fort Myers",
        "state_province": "Florida",
        "postal_code": "33913-8649",
        "country": "United States",
        "longitude": "-81.7619411",
        "latitude": "26.5611037",
        "phone": "9162343332",
        "website_url": null,
        "state": "Florida",
        "street": "12811 Commerce Lakes Dr Ste 28"
    },
    {
        "id": "a3c10655-e6cc-4aa6-a520-1a43cf0021e0",
        "name": "Fort Orange Brewing",
        "brewery_type": "micro",
        "address_1": "450 N Pearl St",
        "address_2": null,
        "address_3": null,
        "city": "Albany",
        "state_province": "New York",
        "postal_code": "12204-1511",
        "country": "United States",
        "longitude": "-73.74427",
        "latitude": "42.66372",
        "phone": "5189923103",
        "website_url": "http://www.fortorangebrewing.com",
        "state": "New York",
        "street": "450 N Pearl St"
    },
    {
        "id": "4431b884-6f1c-495c-8b78-ab3ad0cc9ba1",
        "name": "Fort Point Beer Company",
        "brewery_type": "regional",
        "address_1": "644 Mason St",
        "address_2": null,
        "address_3": null,
        "city": "San Francisco",
        "state_province": "California",
        "postal_code": "94129-1600",
        "country": "United States",
        "longitude": "-122.4102278",
        "latitude": "37.78946124",
        "phone": "4159064021",
        "website_url": "http://www.fortpointbeer.com",
        "state": "California",
        "street": "644 Mason St"
    },
    {
        "id": "661d7d37-9c19-4209-ab5b-454ed12bf081",
        "name": "Fort Rock Brewing",
        "brewery_type": "micro",
        "address_1": "12401 Folsom Blvd Ste 110",
        "address_2": null,
        "address_3": null,
        "city": "Rancho Cordova",
        "state_province": "California",
        "postal_code": "95742-6422",
        "country": "United States",
        "longitude": "-121.2248778",
        "latitude": "38.62586534",
        "phone": "9169364616",
        "website_url": "http://www.fortrockbrewing.com",
        "state": "California",
        "street": "12401 Folsom Blvd Ste 110"
    },
    {
        "id": "0140615a-3940-46ff-8acb-7534571218e5",
        "name": "Fort Smith Brewing Company",
        "brewery_type": "micro",
        "address_1": "7500 Fort Chaffee Blvd",
        "address_2": null,
        "address_3": null,
        "city": "Fort Smith",
        "state_province": "Arkansas",
        "postal_code": "72916-6086",
        "country": "United States",
        "longitude": "-94.298483",
        "latitude": "35.310777",
        "phone": "4792423722",
        "website_url": "http://www.fsbrewco.com",
        "state": "Arkansas",
        "street": "7500 Fort Chaffee Blvd"
    },
    {
        "id": "06246179-ac7f-4884-b36f-13f36391e284",
        "name": "Fort Street Brewery",
        "brewery_type": "brewpub",
        "address_1": "1660 Fort St",
        "address_2": null,
        "address_3": null,
        "city": "Lincoln Park",
        "state_province": "Michigan",
        "postal_code": "48146-1909",
        "country": "United States",
        "longitude": "-83.17610229",
        "latitude": "42.25215845",
        "phone": "3133899620",
        "website_url": "http://www.fortstreetbeer.com",
        "state": "Michigan",
        "street": "1660 Fort St"
    },
    {
        "id": "cf1a2b61-8b8d-4baa-9246-945c5d4326ab",
        "name": "Fortnight Brewing Company",
        "brewery_type": "micro",
        "address_1": "211 Powers Ferry Rd",
        "address_2": null,
        "address_3": null,
        "city": "Cary",
        "state_province": "North Carolina",
        "postal_code": "27519-1510",
        "country": "United States",
        "longitude": "-78.91133714",
        "latitude": "35.80576231",
        "phone": "9194340742",
        "website_url": "http://www.fortnightbrewing.com",
        "state": "North Carolina",
        "street": "211 Powers Ferry Rd"
    },
    {
        "id": "e8d72e1d-cdd5-4d61-87a2-18aeaee80e9e",
        "name": "Fortside Brewing Company",
        "brewery_type": "micro",
        "address_1": "2200 NE Andresen Rd Ste B",
        "address_2": null,
        "address_3": null,
        "city": "Vancouver",
        "state_province": "Washington",
        "postal_code": "98661-7350",
        "country": "United States",
        "longitude": "-122.6011643",
        "latitude": "45.63911642",
        "phone": "3605244692",
        "website_url": "http://www.fortsidebrewing.com",
        "state": "Washington",
        "street": "2200 NE Andresen Rd Ste B"
    },
    {
        "id": "e85a8ede-cc69-446a-a751-75e47c74dc2c",
        "name": "Forward Operating Base Brewing Company / FOB Brewing",
        "brewery_type": "micro",
        "address_1": "2750 Williamson Pl Ste 100",
        "address_2": null,
        "address_3": null,
        "city": "Dupont",
        "state_province": "Washington",
        "postal_code": "98327-7501",
        "country": "United States",
        "longitude": "-122.625039",
        "latitude": "47.107496",
        "phone": "2535074667",
        "website_url": "http://www.fobbrewingcompany.com",
        "state": "Washington",
        "street": "2750 Williamson Pl Ste 100"
    },
    {
        "id": "17854d44-057a-4799-a2ce-c772eeeaa562",
        "name": "Fossil Cove Brewing Co",
        "brewery_type": "brewpub",
        "address_1": "1946 N Birch Ave",
        "address_2": null,
        "address_3": null,
        "city": "Fayetteville",
        "state_province": "Arkansas",
        "postal_code": "72703-2408",
        "country": "United States",
        "longitude": "-94.16478287",
        "latitude": "36.0879053",
        "phone": "4796444601",
        "website_url": "http://www.fossilcovebrewing.com",
        "state": "Arkansas",
        "street": "1946 N Birch Ave"
    },
    {
        "id": "152e976b-f10d-4fad-9651-13b6bfd9b9cb",
        "name": "Fossil Craft Beer Co",
        "brewery_type": "micro",
        "address_1": "2845 Ore Mill Rd Ste 1",
        "address_2": null,
        "address_3": null,
        "city": "Colorado Springs",
        "state_province": "Colorado",
        "postal_code": "80904-3161",
        "country": "United States",
        "longitude": null,
        "latitude": null,
        "phone": "7193758298",
        "website_url": "http://www.fossilcraftbeer.com",
        "state": "Colorado",
        "street": "2845 Ore Mill Rd Ste 1"
    },
    {
        "id": "d912be91-1011-428d-a77f-3b51b78b6da5",
        "name": "Fossil Fuels Brewing Co",
        "brewery_type": "contract",
        "address_1": "45928 Omega Dr",
        "address_2": null,
        "address_3": null,
        "city": "Fremont",
        "state_province": "California",
        "postal_code": "94539-6848",
        "country": "United States",
        "longitude": "-121.9215949",
        "latitude": "37.4989939",
        "phone": "5103815739",
        "website_url": null,
        "state": "California",
        "street": "45928 Omega Dr"
    },
    {
        "id": "6eda8209-074b-4af0-9825-7ea5288e426c",
        "name": "Foster's Pint & Plate",
        "brewery_type": "brewpub",
        "address_1": "2001 S Bellview Rd # 2",
        "address_2": null,
        "address_3": null,
        "city": "Rogers",
        "state_province": "Arkansas",
        "postal_code": "72758-4050",
        "country": "United States",
        "longitude": null,
        "latitude": null,
        "phone": null,
        "website_url": "http://www.fosterspintandplate.com",
        "state": "Arkansas",
        "street": "2001 S Bellview Rd # 2"
    },
    {
        "id": "1ce06580-ed70-4d32-bc01-5bd23e5aa388",
        "name": "Foulmouthed Brewing",
        "brewery_type": "brewpub",
        "address_1": "15 Ocean St",
        "address_2": null,
        "address_3": null,
        "city": "South Portland",
        "state_province": "Maine",
        "postal_code": "04106-2838",
        "country": "United States",
        "longitude": "-70.2548007",
        "latitude": "43.640989",
        "phone": "2076186977",
        "website_url": "http://www.foulmouthedbrewing.com",
        "state": "Maine",
        "street": "15 Ocean St"
    },
    {
        "id": "860bf417-1430-4680-b406-0252a2568ac9",
        "name": "Foundation Brewing Company",
        "brewery_type": "micro",
        "address_1": "1 Industrial Way Ste 5",
        "address_2": null,
        "address_3": null,
        "city": "Portland",
        "state_province": "Maine",
        "postal_code": "04103-1072",
        "country": "United States",
        "longitude": null,
        "latitude": null,
        "phone": "2073708187",
        "website_url": "http://www.foundationbrew.com",
        "state": "Maine",
        "street": "1 Industrial Way Ste 5"
    },
    {
        "id": "195e9808-a949-4f43-ad81-c6da0529fc96",
        "name": "Founders Brewing Co",
        "brewery_type": "regional",
        "address_1": "456 Charlotte St",
        "address_2": null,
        "address_3": null,
        "city": "Detroit",
        "state_province": "Michigan",
        "postal_code": "48201-2640",
        "country": "United States",
        "longitude": "-83.0605729",
        "latitude": "42.34299565",
        "phone": null,
        "website_url": null,
        "state": "Michigan",
        "street": "456 Charlotte St"
    },
    {
        "id": "e4da6e5d-1e64-4701-ab21-786b0f3a1ff4",
        "name": "Founders Brewing Co",
        "brewery_type": "regional",
        "address_1": "235 Grandville Ave SW",
        "address_2": null,
        "address_3": null,
        "city": "Grand Rapids",
        "state_province": "Michigan",
        "postal_code": "49503-4037",
        "country": "United States",
        "longitude": "-85.6765753",
        "latitude": "42.9524964",
        "phone": "6167761195",
        "website_url": "http://www.foundersbrewing.com",
        "state": "Michigan",
        "street": "235 Grandville Ave SW"
    },
    {
        "id": "687105f2-ab5e-41b4-adad-73daabd7c087",
        "name": "Founders Brewing Production Facility",
        "brewery_type": "regional",
        "address_1": "900 Hynes Ave SW",
        "address_2": null,
        "address_3": null,
        "city": "Grand Rapids",
        "state_province": "Michigan",
        "postal_code": "49507-1085",
        "country": "United States",
        "longitude": "-85.67523323",
        "latitude": "42.94662234",
        "phone": null,
        "website_url": null,
        "state": "Michigan",
        "street": "900 Hynes Ave SW"
    },
    {
        "id": "b0d9dfce-11dc-4f85-9b26-133a664f8a88",
        "name": "Founding Fathers Brewing Company",
        "brewery_type": "contract",
        "address_1": "1844 W Wayzata Blvd",
        "address_2": null,
        "address_3": null,
        "city": "Long Lake",
        "state_province": "Minnesota",
        "postal_code": "55356-9491",
        "country": "United States",
        "longitude": null,
        "latitude": null,
        "phone": "9527676403",
        "website_url": "http://www.foundingfathersbrewingco.com",
        "state": "Minnesota",
        "street": "1844 W Wayzata Blvd"
    },
    {
        "id": "b45388c7-4c1d-495a-ab08-b6c1c573644f",
        "name": "Galena Brewing Co",
        "brewery_type": "brewpub",
        "address_1": "227 N Main St Ste 101",
        "address_2": null,
        "address_3": null,
        "city": "Galena",
        "state_province": "Illinois",
        "postal_code": "61036-2217",
        "country": "United States",
        "longitude": null,
        "latitude": null,
        "phone": "8152759469",
        "website_url": "http://www.galenabrewery.com",
        "state": "Illinois",
        "street": "227 N Main St Ste 101"
    },
    {
        "id": "b6490ce6-c91e-4d26-a89d-20e2fc2b118e",
        "name": "Fountain City Brewing Co / Monarch Public House",
        "brewery_type": "contract",
        "address_1": "19 N Main St",
        "address_2": null,
        "address_3": null,
        "city": "Fountain City",
        "state_province": "Wisconsin",
        "postal_code": "54629-",
        "country": "United States",
        "longitude": "-91.71737039",
        "latitude": "44.13124401",
        "phone": "6086874231",
        "website_url": "http://www.monarchtavern.com",
        "state": "Wisconsin",
        "street": "19 N Main St"
    },
    {
        "id": "2969ce00-5f8d-4687-aa79-31a003b8b5f7",
        "name": "Fountain Hill Brewery",
        "brewery_type": "brewpub",
        "address_1": "151 Fountain St NE",
        "address_2": null,
        "address_3": null,
        "city": "Grand Rapids",
        "state_province": "Michigan",
        "postal_code": "49503-3263",
        "country": "United States",
        "longitude": "-85.664754",
        "latitude": "42.965489",
        "phone": "6162343690",
        "website_url": null,
        "state": "Michigan",
        "street": "151 Fountain St NE"
    },
    {
        "id": "54207534-6dc2-4423-b3c0-0c9f96bf85d9",
        "name": "Fountain Square Brewing Co",
        "brewery_type": "micro",
        "address_1": "1301 Barth Ave",
        "address_2": null,
        "address_3": null,
        "city": "Indianapolis",
        "state_province": "Indiana",
        "postal_code": "46203-1872",
        "country": "United States",
        "longitude": "-86.1404227",
        "latitude": "39.7496885",
        "phone": "3174931410",
        "website_url": "http://www.fountainsquarebrewing.com",
        "state": "Indiana",
        "street": "1301 Barth Ave"
    },
    {
        "id": "cb1d33a3-d319-4576-adc3-2cdd4c1c805f",
        "name": "Fountainhead Brewing Co",
        "brewery_type": "micro",
        "address_1": "4621 24th St",
        "address_2": null,
        "address_3": null,
        "city": "Sacramento",
        "state_province": "California",
        "postal_code": "95822-1412",
        "country": "United States",
        "longitude": "-121.4831173",
        "latitude": "38.5332279",
        "phone": "9162284610",
        "website_url": "http://www.fountainheadbrewingco.com",
        "state": "California",
        "street": "4621 24th St"
    },
    {
        "id": "d5e69bc8-cc56-4de7-8fdc-ee092c3f8ff1",
        "name": "Four Beasts Brewery",
        "brewery_type": "planning",
        "address_1": null,
        "address_2": null,
        "address_3": null,
        "city": "Brooklyn",
        "state_province": "New York",
        "postal_code": "11215-2305",
        "country": "United States",
        "longitude": null,
        "latitude": null,
        "phone": "3478863834",
        "website_url": null,
        "state": "New York",
        "street": null
    },
    {
        "id": "1529695e-6fe4-4799-986d-ef79236a4685",
        "name": "Four Bullets Brewery",
        "brewery_type": "micro",
        "address_1": "640 N Interurban St",
        "address_2": null,
        "address_3": null,
        "city": "Richardson",
        "state_province": "Texas",
        "postal_code": "75081-3317",
        "country": "United States",
        "longitude": "-96.72688255",
        "latitude": "32.95803915",
        "phone": null,
        "website_url": "http://www.fourbulletsbrewery.com",
        "state": "Texas",
        "street": "640 N Interurban St"
    },
    {
        "id": "2b86493e-8c1c-496f-91e3-8b770349e281",
        "name": "Four Corners Brewing Co",
        "brewery_type": "micro",
        "address_1": "423 Singleton Blvd",
        "address_2": null,
        "address_3": null,
        "city": "Dallas",
        "state_province": "Texas",
        "postal_code": "75212-4104",
        "country": "United States",
        "longitude": "-96.83062417",
        "latitude": "32.7793491",
        "phone": "2147482739",
        "website_url": "http://www.fcbrewing.com",
        "state": "Texas",
        "street": "423 Singleton Blvd"
    },
    {
        "id": "dde3ee18-a2c9-4118-a0d1-dced77329738",
        "name": "Four Corners Brewing Co",
        "brewery_type": "micro",
        "address_1": "1311 S Ervay St",
        "address_2": null,
        "address_3": null,
        "city": "Dallas",
        "state_province": "Texas",
        "postal_code": "75215",
        "country": "United States",
        "longitude": "-96.79155915",
        "latitude": "32.77172705",
        "phone": "2147482739",
        "website_url": null,
        "state": "Texas",
        "street": "1311 S Ervay St"
    },
    {
        "id": "676352a3-879e-451a-aa20-4bc25611f7ab",
        "name": "Four Day Ray Brewing",
        "brewery_type": "brewpub",
        "address_1": "11671 Lantern Rd",
        "address_2": null,
        "address_3": null,
        "city": "Fishers",
        "state_province": "Indiana",
        "postal_code": "46038-2952",
        "country": "United States",
        "longitude": "-86.013396",
        "latitude": "39.956908",
        "phone": "3173430200",
        "website_url": "http://www.fourdayray.com",
        "state": "Indiana",
        "street": "11671 Lantern Rd"
    },
    {
        "id": "bc2f73b9-a10d-447c-8f49-93b9569b7193",
        "name": "Four Eyed Guys Brewing",
        "brewery_type": "micro",
        "address_1": "910 W Indiana Ave",
        "address_2": null,
        "address_3": null,
        "city": "Spokane",
        "state_province": "Washington",
        "postal_code": "99205",
        "country": "United States",
        "longitude": "-117.4256801",
        "latitude": "47.67578312",
        "phone": "5097959648",
        "website_url": "http://foureyedguysbrewing.com",
        "state": "Washington",
        "street": "910 W Indiana Ave"
    },
    {
        "id": "1186fc4c-2fba-4a7a-9692-08851d7276a8",
        "name": "Four Fathers Brewing",
        "brewery_type": "micro",
        "address_1": "1555 W Lincolnway Ste 105",
        "address_2": null,
        "address_3": null,
        "city": "Valparaiso",
        "state_province": "Indiana",
        "postal_code": "46385-3801",
        "country": "United States",
        "longitude": "-87.07906572",
        "latitude": "41.47328343",
        "phone": "2194649712",
        "website_url": "http://www.fourfathersbrewing.com",
        "state": "Indiana",
        "street": "1555 W Lincolnway Ste 105"
    },
    {
        "id": "62f9e6a6-9200-45aa-9cf0-03ef0ffce99b",
        "name": "Four Generals Brewing",
        "brewery_type": "micro",
        "address_1": "229 Wells Ave S",
        "address_2": null,
        "address_3": null,
        "city": "Renton",
        "state_province": "Washington",
        "postal_code": "98057-2131",
        "country": "United States",
        "longitude": "-122.205586",
        "latitude": "47.4801424",
        "phone": "4252824360",
        "website_url": "http://www.fourgenerals.com",
        "state": "Washington",
        "street": "229 Wells Ave S"
    },
    {
        "id": "8b23de29-c85d-4aae-8769-ea1fece3eab6",
        "name": "Four Horsemen Brewery",
        "brewery_type": "micro",
        "address_1": "30221 148th Ave SE",
        "address_2": null,
        "address_3": null,
        "city": "Kent",
        "state_province": "Washington",
        "postal_code": "98042-9368",
        "country": "United States",
        "longitude": "-122.1426915",
        "latitude": "47.3844953",
        "phone": "2539814258",
        "website_url": "http://www.fourhorsemen.beer",
        "state": "Washington",
        "street": "30221 148th Ave SE"
    },
    {
        "id": "cd99ac7a-641c-4293-9e5e-fb8b37e3ff0d",
        "name": "Four Leaf Brewing",
        "brewery_type": "brewpub",
        "address_1": "412 N McEwan St",
        "address_2": null,
        "address_3": null,
        "city": "Clare",
        "state_province": "Michigan",
        "postal_code": "48617-1403",
        "country": "United States",
        "longitude": "-84.7683591",
        "latitude": "43.8256884",
        "phone": "9894246114",
        "website_url": "http://www.fourleafcraftbeer.com",
        "state": "Michigan",
        "street": "412 N McEwan St"
    },
    {
        "id": "8dca273c-dc49-4025-9f22-6600c5268040",
        "name": "Four Mile Brewing",
        "brewery_type": "micro",
        "address_1": "202 E Green St",
        "address_2": null,
        "address_3": null,
        "city": "Olean",
        "state_province": "New York",
        "postal_code": "14760-3606",
        "country": "United States",
        "longitude": null,
        "latitude": null,
        "phone": "7163732337",
        "website_url": "http://www.fourmilebrewing.com",
        "state": "New York",
        "street": "202 E Green St"
    },
    {
        "id": "dd03f4d8-8690-4895-8755-1dab15c6c160",
        "name": "Four Peaks Brewery & Taproom",
        "brewery_type": "large",
        "address_1": "2401 S Wilson St",
        "address_2": null,
        "address_3": null,
        "city": "Tempe",
        "state_province": "Arizona",
        "postal_code": "85282-2054",
        "country": "United States",
        "longitude": "-111.9446549",
        "latitude": "33.40287138",
        "phone": "4803039967",
        "website_url": "http://www.fourpeaks.com",
        "state": "Arizona",
        "street": "2401 S Wilson St"
    },
    {
        "id": "49fb70b9-b353-4a39-b4c8-a0c4eef09879",
        "name": "Four Peaks Brewing Co",
        "brewery_type": "large",
        "address_1": "1340 E 8th St Ste 104",
        "address_2": null,
        "address_3": null,
        "city": "Tempe",
        "state_province": "Arizona",
        "postal_code": "85281-4396",
        "country": "United States",
        "longitude": null,
        "latitude": null,
        "phone": "4803039967",
        "website_url": "http://www.fourpeaks.com",
        "state": "Arizona",
        "street": "1340 E 8th St Ste 104"
    },
    {
        "id": "b16403e4-c0ba-4bcb-9181-ba235204a694",
        "name": "Four Provinces Brewing Co.",
        "brewery_type": "brewpub",
        "address_1": "25 Ravensdale Park",
        "address_2": "Dublin 12",
        "address_3": null,
        "city": "Kimmage",
        "state_province": "Dublin",
        "postal_code": "D12 X965",
        "country": "Ireland",
        "longitude": "-6.3031169",
        "latitude": "53.3146444",
        "phone": "35315890152",
        "website_url": "https://www.fourprovinces.ie/",
        "state": "Dublin",
        "street": "25 Ravensdale Park"
    },
    {
        "id": "09fe8bee-43c0-4238-a8aa-229371372753",
        "name": "Four Quarters Brewing Co",
        "brewery_type": "micro",
        "address_1": "150 W Canal St",
        "address_2": null,
        "address_3": null,
        "city": "Winooski",
        "state_province": "Vermont",
        "postal_code": "05404-2171",
        "country": "United States",
        "longitude": "-73.1924334",
        "latitude": "44.4906838",
        "phone": "8023243327",
        "website_url": "http://www.4qbc.com",
        "state": "Vermont",
        "street": "150 W Canal St"
    },
    {
        "id": "8aa75d11-acb0-4454-8fd9-6190217c729e",
        "name": "Four Saints Brewing",
        "brewery_type": "micro",
        "address_1": "218 S Fayetteville St",
        "address_2": null,
        "address_3": null,
        "city": "Asheboro",
        "state_province": "North Carolina",
        "postal_code": "27203-5725",
        "country": "United States",
        "longitude": "-79.81447771",
        "latitude": "35.70368557",
        "phone": "3366103722",
        "website_url": "http://www.foursaintsbrewing.com",
        "state": "North Carolina",
        "street": "218 S Fayetteville St"
    },
    {
        "id": "78166b84-827e-4226-9327-41c9876338dc",
        "name": "Four Seasons Brewing Co",
        "brewery_type": "brewpub",
        "address_1": "745 Lloyd Ave Ext",
        "address_2": null,
        "address_3": null,
        "city": "Latrobe",
        "state_province": "Pennsylvania",
        "postal_code": "15650",
        "country": "United States",
        "longitude": null,
        "latitude": null,
        "phone": "7245204111",
        "website_url": "http://www.fsbrewing.com",
        "state": "Pennsylvania",
        "street": "745 Lloyd Ave Ext"
    },
    {
        "id": "874a730f-a97f-4169-8f5a-71a2c95684bb",
        "name": "Four Sons Brewing",
        "brewery_type": "micro",
        "address_1": "18421 Gothard St Ste 100",
        "address_2": null,
        "address_3": null,
        "city": "Huntington Beach",
        "state_province": "California",
        "postal_code": "92648-1236",
        "country": "United States",
        "longitude": "-118.0000495",
        "latitude": "33.69505764",
        "phone": "7145847501",
        "website_url": "http://www.foursonsbrewing.com",
        "state": "California",
        "street": "18421 Gothard St Ste 100"
    },
    {
        "id": "b2e2278e-68fc-4b7d-a86f-c4db12787c21",
        "name": "Four Stacks Brewing",
        "brewery_type": "micro",
        "address_1": "5469 N US Highway 41",
        "address_2": null,
        "address_3": null,
        "city": "Apollo Beach",
        "state_province": "Florida",
        "postal_code": "33572-3505",
        "country": "United States",
        "longitude": null,
        "latitude": null,
        "phone": "8136412036",
        "website_url": "http://fourstacksbrewing.com",
        "state": "Florida",
        "street": "5469 N US Highway 41"
    },
    {
        "id": "0a0e6f09-385e-4fd4-a70c-df0828e63619",
        "name": "Four String Brewing Company",
        "brewery_type": "micro",
        "address_1": "985 W 6th Ave",
        "address_2": null,
        "address_3": null,
        "city": "Columbus",
        "state_province": "Ohio",
        "postal_code": "43212-2601",
        "country": "United States",
        "longitude": "-83.03279943",
        "latitude": "39.98904657",
        "phone": "6147251282",
        "website_url": "http://www.fourstringbrewing.com",
        "state": "Ohio",
        "street": "985 W 6th Ave"
    },
    {
        "id": "49f223ca-b83b-4c2d-a700-9ce07d38982f",
        "name": "Four String Brewing Company - West Side Production Facility",
        "brewery_type": "micro",
        "address_1": "660 N Hague Ave",
        "address_2": null,
        "address_3": null,
        "city": "Columbus",
        "state_province": "Ohio",
        "postal_code": "43204-",
        "country": "United States",
        "longitude": null,
        "latitude": null,
        "phone": "6147251282",
        "website_url": null,
        "state": "Ohio",
        "street": "660 N Hague Ave"
    },
    {
        "id": "a8f97e99-0d4c-4d7f-a655-8c2d8ab6c4b2",
        "name": "Fox Brewing",
        "brewery_type": "micro",
        "address_1": "103 S 11th St",
        "address_2": null,
        "address_3": null,
        "city": "West Des Moines",
        "state_province": "Iowa",
        "postal_code": "50265-4410",
        "country": "United States",
        "longitude": "-93.71821038",
        "latitude": "41.56970863",
        "phone": "5156350323",
        "website_url": "http://www.foxbrewco.com",
        "state": "Iowa",
        "street": "103 S 11th St"
    },
    {
        "id": "1d8b4135-ba6b-496b-a5f1-b3898965ae83",
        "name": "Fox Farm Brewery",
        "brewery_type": "micro",
        "address_1": "62 Music Vale Rd",
        "address_2": null,
        "address_3": null,
        "city": "Salem",
        "state_province": "Connecticut",
        "postal_code": "06420-3847",
        "country": "United States",
        "longitude": "-72.26788506",
        "latitude": "41.48370071",
        "phone": "8602870076",
        "website_url": "http://foxfarmbeer.com",
        "state": "Connecticut",
        "street": "62 Music Vale Rd"
    },
    {
        "id": "c9eea514-e6d7-4f2a-9d2a-7f9004acead7",
        "name": "Fox Head Brewing LLC",
        "brewery_type": "micro",
        "address_1": "2132 S West Ave",
        "address_2": null,
        "address_3": null,
        "city": "Waukesha",
        "state_province": "Wisconsin",
        "postal_code": "53189-7917",
        "country": "United States",
        "longitude": null,
        "latitude": null,
        "phone": "4146510504",
        "website_url": null,
        "state": "Wisconsin",
        "street": "2132 S West Ave"
    },
    {
        "id": "a8874024-4542-4460-adf9-a7ee686d7b92",
        "name": "Fox Island Brewing",
        "brewery_type": "closed",
        "address_1": "2416 14th Ave NW",
        "address_2": null,
        "address_3": null,
        "city": "Gig Harbor",
        "state_province": "Washington",
        "postal_code": "98335",
        "country": "United States",
        "longitude": null,
        "latitude": null,
        "phone": null,
        "website_url": "http://www.foxislandbrewing.com",
        "state": "Washington",
        "street": "2416 14th Ave NW"
    },
    {
        "id": "b04ed4fe-48f4-472c-a355-822e68829545",
        "name": "Fox N Hare Brewing Company",
        "brewery_type": "micro",
        "address_1": "46 Front St",
        "address_2": null,
        "address_3": null,
        "city": "Port Jervis",
        "state_province": "New York",
        "postal_code": "12771-2415",
        "country": "United States",
        "longitude": "-74.69088263",
        "latitude": "41.37253067",
        "phone": "3172095767",
        "website_url": "http://www.foxnhare-brewing.com",
        "state": "New York",
        "street": "46 Front St"
    },
    {
        "id": "11eea10d-fb14-4a44-a196-654121005858",
        "name": "Fox River Brewing Co",
        "brewery_type": "brewpub",
        "address_1": "1501 Arboretum Dr",
        "address_2": null,
        "address_3": null,
        "city": "Oshkosh",
        "state_province": "Wisconsin",
        "postal_code": "54901-2791",
        "country": "United States",
        "longitude": "-88.560941",
        "latitude": "44.036512",
        "phone": "9202322337",
        "website_url": "http://www.foxriverbrewing.com",
        "state": "Wisconsin",
        "street": "1501 Arboretum Dr"
    },
    {
        "id": "43b45aff-16e9-4dee-b89d-0652c6574d57",
        "name": "Fox River Brewing Co and Restaurant",
        "brewery_type": "brewpub",
        "address_1": "4301 W Wisconsin Ave Ste 189",
        "address_2": null,
        "address_3": null,
        "city": "Appleton",
        "state_province": "Wisconsin",
        "postal_code": "54913-6530",
        "country": "United States",
        "longitude": null,
        "latitude": null,
        "phone": "9209910000",
        "website_url": "http://www.supplerestaurantgroup.com",
        "state": "Wisconsin",
        "street": "4301 W Wisconsin Ave Ste 189"
    },
    {
        "id": "f2681950-6634-476e-a20d-b7b68617c96e",
        "name": "Foxhole Brewhouse",
        "brewery_type": "micro",
        "address_1": "313 4th St SW",
        "address_2": null,
        "address_3": null,
        "city": "Willmar",
        "state_province": "Minnesota",
        "postal_code": "56201",
        "country": "United States",
        "longitude": "-95.04770735",
        "latitude": "45.12056633",
        "phone": "3204412071",
        "website_url": "http://www.foxholebrewhouse.com",
        "state": "Minnesota",
        "street": "313 4th St SW"
    },
    {
        "id": "1654ffc5-5e9f-4fc7-ba64-2a9a86c3cc53",
        "name": "Foxtown Brewing",
        "brewery_type": "micro",
        "address_1": "6411 W Mequon Rd",
        "address_2": null,
        "address_3": null,
        "city": "Mequon",
        "state_province": "Wisconsin",
        "postal_code": "53092-1862",
        "country": "United States",
        "longitude": "-87.98940666714276",
        "latitude": "43.22158777202196",
        "phone": "2622925700",
        "website_url": "https://foxtownbrewing.com",
        "state": "Wisconsin",
        "street": "6411 W Mequon Rd"
    },
    {
        "id": "e2b6a2f4-631c-40a0-97be-47942c7be3d6",
        "name": "Foy Enterprises LLC DBA Dog River Brewery",
        "brewery_type": "micro",
        "address_1": "1400 US Route 302 Ste 4",
        "address_2": null,
        "address_3": null,
        "city": "Barre",
        "state_province": "Vermont",
        "postal_code": "05641-2320",
        "country": "United States",
        "longitude": null,
        "latitude": null,
        "phone": "8025054053",
        "website_url": null,
        "state": "Vermont",
        "street": "1400 US Route 302 Ste 4"
    },
    {
        "id": "1617364c-d90e-4eab-aa7a-f707d2a7fd2d",
        "name": "Franciscan Well Brewery & Brewpub",
        "brewery_type": "brewpub",
        "address_1": "14b North Mall",
        "address_2": "Sunday's Well",
        "address_3": null,
        "city": "Cork",
        "state_province": "Cork",
        "postal_code": "T23 RHW2",
        "country": "Ireland",
        "longitude": "-8.4755419",
        "latitude": "51.9005854",
        "phone": "+353 21 4393 434",
        "website_url": "https://franwellbar.com/",
        "state": "Cork",
        "street": "14b North Mall"
    },
    {
        "id": "86c8dd48-d6a0-4a60-8fd1-814795effed2",
        "name": "Franconia Brewing Co",
        "brewery_type": "micro",
        "address_1": "495 McKinney Pkwy",
        "address_2": null,
        "address_3": null,
        "city": "McKinney",
        "state_province": "Texas",
        "postal_code": "75071-1825",
        "country": "United States",
        "longitude": "-96.60911774",
        "latitude": "33.21300297",
        "phone": "9725420705",
        "website_url": "http://www.franconiabrewing.com",
        "state": "Texas",
        "street": "495 McKinney Pkwy"
    },
    {
        "id": "50c4067b-c763-454f-81ed-7f8fdff2ed56",
        "name": "Frankenmuth Brewing Co",
        "brewery_type": "micro",
        "address_1": "425 S Main St",
        "address_2": null,
        "address_3": null,
        "city": "Frankenmuth",
        "state_province": "Michigan",
        "postal_code": "48734-1615",
        "country": "United States",
        "longitude": "-83.73929404",
        "latitude": "43.32893336",
        "phone": "2489309440",
        "website_url": "http://www.frankenmuthbrewery.com",
        "state": "Michigan",
        "street": "425 S Main St"
    },
    {
        "id": "8cb64220-c9ae-40a4-a916-555d93b36696",
        "name": "Franklin Brewing Co",
        "brewery_type": "micro",
        "address_1": "1345 East Ave",
        "address_2": null,
        "address_3": null,
        "city": "Elyria",
        "state_province": "Ohio",
        "postal_code": "44035-7681",
        "country": "United States",
        "longitude": "-82.10041992",
        "latitude": "41.35034495",
        "phone": null,
        "website_url": null,
        "state": "Ohio",
        "street": "1345 East Ave"
    },
    {
        "id": "7bf1aca7-78cb-4592-95b8-adb77d5ead26",
        "name": "Franklin Brewing Company, LLC",
        "brewery_type": "planning",
        "address_1": null,
        "address_2": null,
        "address_3": null,
        "city": "Angier",
        "state_province": "North Carolina",
        "postal_code": "27501-6094",
        "country": "United States",
        "longitude": null,
        "latitude": null,
        "phone": null,
        "website_url": "http://www.franklin-brewing.com",
        "state": "North Carolina",
        "street": null
    },
    {
        "id": "edd421a2-f8b7-436c-af5b-c75595047dbf",
        "name": "Franklin Street Brewing Company",
        "brewery_type": "micro",
        "address_1": "116 S Franklin St",
        "address_2": null,
        "address_3": null,
        "city": "Manchester",
        "state_province": "Iowa",
        "postal_code": "52057-2121",
        "country": "United States",
        "longitude": "-91.45777929",
        "latitude": "42.48329324",
        "phone": "5639272722",
        "website_url": "http://www.franklinstreetbrewing.com",
        "state": "Iowa",
        "street": "116 S Franklin St"
    },
    {
        "id": "4236bf9c-5c3a-4486-9922-47329c33df32",
        "name": "Franklin's Brewing Co",
        "brewery_type": "taproom",
        "address_1": "Highfield Farm",
        "address_2": null,
        "address_3": null,
        "city": "Lewes",
        "state_province": "East Sussex",
        "postal_code": "BN8 5AR",
        "country": "England",
        "longitude": "0.089645",
        "latitude": "50.903057",
        "phone": "1273814447",
        "website_url": "https://www.franklinsbrewery.co.uk/",
        "state": "East Sussex",
        "street": "Highfield Farm"
    },
    {
        "id": "7ef58914-2624-4d11-9db1-5db5b6375c34",
        "name": "Franklins General Store",
        "brewery_type": "micro",
        "address_1": "5123 Baltimore Ave",
        "address_2": null,
        "address_3": null,
        "city": "Hyattsville",
        "state_province": "Maryland",
        "postal_code": "20781-2042",
        "country": "United States",
        "longitude": "-76.94074114",
        "latitude": "38.95194399",
        "phone": "3019272740",
        "website_url": "http://Franklinsbrewery.com",
        "state": "Maryland",
        "street": "5123 Baltimore Ave"
    },
    {
        "id": "d28230b2-df56-4b85-aefc-d8e31e1e28c9",
        "name": "Freak'N Brewing Company",
        "brewery_type": "micro",
        "address_1": "9299 W Olive Ave Ste 513",
        "address_2": null,
        "address_3": null,
        "city": "Peoria",
        "state_province": "Arizona",
        "postal_code": "85345-8385",
        "country": "United States",
        "longitude": null,
        "latitude": null,
        "phone": "6237385804",
        "website_url": "http://www.freaknbrew.com",
        "state": "Arizona",
        "street": "9299 W Olive Ave Ste 513"
    },
    {
        "id": "30bd13e7-2853-4e9f-9aae-893a4d597af6",
        "name": "Fredericksburg Brewing Co",
        "brewery_type": "brewpub",
        "address_1": "245 E Main St",
        "address_2": null,
        "address_3": null,
        "city": "Fredericksburg",
        "state_province": "Texas",
        "postal_code": "78624-4114",
        "country": "United States",
        "longitude": "-98.865629",
        "latitude": "30.2703349",
        "phone": "8309971646",
        "website_url": "http://www.yourbrewery.com",
        "state": "Texas",
        "street": "245 E Main St"
    },
    {
        "id": "26298dbf-a747-497e-ad82-d5168437d2bc",
        "name": "Fredonia Brewery, LLC",
        "brewery_type": "micro",
        "address_1": "138 N Mound St",
        "address_2": null,
        "address_3": null,
        "city": "Nacogdoches",
        "state_province": "Texas",
        "postal_code": "75961-5262",
        "country": "United States",
        "longitude": "-94.65198531",
        "latitude": "31.6029904",
        "phone": "9363055125",
        "website_url": "http://www.fredoniabrewery.com",
        "state": "Texas",
        "street": "138 N Mound St"
    },
    {
        "id": "18d675ae-8273-4b8d-bd10-b1ff4bf2b3a5",
        "name": "Free Range Brewing",
        "brewery_type": "micro",
        "address_1": "2320 N Davidson St Unit D",
        "address_2": null,
        "address_3": null,
        "city": "Charlotte",
        "state_province": "North Carolina",
        "postal_code": "28205-1832",
        "country": "United States",
        "longitude": null,
        "latitude": null,
        "phone": "9802019096",
        "website_url": "http://www.freerangebrewing.com",
        "state": "North Carolina",
        "street": "2320 N Davidson St Unit D"
    },
    {
        "id": "9db36c6e-0386-41f5-b03c-6e83f3185253",
        "name": "Free State Brewing Co",
        "brewery_type": "brewpub",
        "address_1": "636 Massachusetts St",
        "address_2": null,
        "address_3": null,
        "city": "Lawrence",
        "state_province": "Kansas",
        "postal_code": "66044-2236",
        "country": "United States",
        "longitude": "-95.23580916",
        "latitude": "38.97243469",
        "phone": "7858434555",
        "website_url": "http://www.freestatebrewing.com",
        "state": "Kansas",
        "street": "636 Massachusetts St"
    },
    {
        "id": "3f2f7f99-2c28-4ec3-a272-83cddacd69c5",
        "name": "Free State Brewing Co - Production",
        "brewery_type": "micro",
        "address_1": "1923 Moodie Rd",
        "address_2": null,
        "address_3": null,
        "city": "Lawrence",
        "state_province": "Kansas",
        "postal_code": "66046-3167",
        "country": "United States",
        "longitude": "-95.22586264",
        "latitude": "38.94967284",
        "phone": null,
        "website_url": null,
        "state": "Kansas",
        "street": "1923 Moodie Rd"
    },
    {
        "id": "ee3fb7c3-e0ae-42cd-9827-1919269583a2",
        "name": "Free Will Brewing Company",
        "brewery_type": "micro",
        "address_1": "410 E Walnut St Ste 10",
        "address_2": null,
        "address_3": null,
        "city": "Perkasie",
        "state_province": "Pennsylvania",
        "postal_code": "18944-1683",
        "country": "United States",
        "longitude": null,
        "latitude": null,
        "phone": "2673540813",
        "website_url": "http://www.freewillbrewing.com",
        "state": "Pennsylvania",
        "street": "410 E Walnut St Ste 10"
    },
    {
        "id": "01ea88c3-9507-4959-9087-cc70e2d6fc19",
        "name": "Freebridge Brewing",
        "brewery_type": "brewpub",
        "address_1": "710 E 2nd St Ste 1",
        "address_2": null,
        "address_3": null,
        "city": "The Dalles",
        "state_province": "Oregon",
        "postal_code": "97058-2400",
        "country": "United States",
        "longitude": "-121.1766104",
        "latitude": "45.59871449",
        "phone": "5417691234",
        "website_url": "http://www.freebridgebrewing.com",
        "state": "Oregon",
        "street": "710 E 2nd St Ste 1"
    },
    {
        "id": "bf9882b7-4f26-4f9f-afd5-6d18c5f11ef7",
        "name": "Freedom's Edge Brewing",
        "brewery_type": "micro",
        "address_1": "1509 Pioneer Ave",
        "address_2": null,
        "address_3": null,
        "city": "Cheyenne",
        "state_province": "Wyoming",
        "postal_code": "82001",
        "country": "United States",
        "longitude": "-104.8169561",
        "latitude": "41.13122969",
        "phone": "3075145314",
        "website_url": "http://www.freedomsedgebrewing.com",
        "state": "Wyoming",
        "street": "1509 Pioneer Ave"
    },
    {
        "id": "7506cfbc-fb3f-476c-a9ff-29a8cf03ba32",
        "name": "Freehouse Brewery",
        "brewery_type": "micro",
        "address_1": "2895 Pringle St Ste B",
        "address_2": null,
        "address_3": null,
        "city": "Charleston",
        "state_province": "South Carolina",
        "postal_code": "29405-7506",
        "country": "United States",
        "longitude": null,
        "latitude": null,
        "phone": null,
        "website_url": "http://www.freehousebeer.com",
        "state": "South Carolina",
        "street": "2895 Pringle St Ste B"
    },
    {
        "id": "f3e52e78-36b1-4e4b-bca8-82a34f012f75",
        "name": "Freetail Brewing Co",
        "brewery_type": "micro",
        "address_1": "2000 S Presa St",
        "address_2": null,
        "address_3": null,
        "city": "San Antonio",
        "state_province": "Texas",
        "postal_code": "78210-2835",
        "country": "United States",
        "longitude": "-98.482853",
        "latitude": "29.401901",
        "phone": "2103954974",
        "website_url": "http://www.freetailbrewing.com",
        "state": "Texas",
        "street": "2000 S Presa St"
    },
    {
        "id": "efdc7de5-3256-463e-b0b9-d4369db08f97",
        "name": "Freetail Brewing Co - Brewpub",
        "brewery_type": "brewpub",
        "address_1": "4035 N Loop 1604 W Ste 105",
        "address_2": null,
        "address_3": null,
        "city": "San Antonio",
        "state_province": "Texas",
        "postal_code": "78257-9547",
        "country": "United States",
        "longitude": null,
        "latitude": null,
        "phone": "2106256000",
        "website_url": "http://www.freetailbrewing.com",
        "state": "Texas",
        "street": "4035 N Loop 1604 W Ste 105"
    },
    {
        "id": "a2a599ff-da5d-48be-a952-19d31f9d3ecf",
        "name": "FreeWheel Brewing Co",
        "brewery_type": "brewpub",
        "address_1": "3736 Florence St (Marsh Manor)",
        "address_2": null,
        "address_3": null,
        "city": "Redwood City",
        "state_province": "California",
        "postal_code": "94063-4418",
        "country": "United States",
        "longitude": "-122.1871947",
        "latitude": "37.47850974",
        "phone": null,
        "website_url": null,
        "state": "California",
        "street": "3736 Florence St (Marsh Manor)"
    },
    {
        "id": "6a11bab0-fc45-4999-a6f2-4870cb65b3d6",
        "name": "Freight Yard Brewing LLC",
        "brewery_type": "proprietor",
        "address_1": "4975 State Route 31",
        "address_2": null,
        "address_3": null,
        "city": "Clay",
        "state_province": "New York",
        "postal_code": "13041",
        "country": "United States",
        "longitude": "-76.17179556",
        "latitude": "43.18592459",
        "phone": "3158342529",
        "website_url": "http://www.freightyardbrewing.com",
        "state": "New York",
        "street": "4975 State Route 31"
    },
    {
        "id": "a59a6f78-d894-4d75-835d-1415f6a333ce",
        "name": "Fremont Brewing Co",
        "brewery_type": "regional",
        "address_1": "3409 Woodland Park Ave N",
        "address_2": null,
        "address_3": null,
        "city": "Seattle",
        "state_province": "Washington",
        "postal_code": "98103-8925",
        "country": "United States",
        "longitude": "-122.3444367",
        "latitude": "47.64919175",
        "phone": "2064202407",
        "website_url": "http://www.fremontbrewing.com",
        "state": "Washington",
        "street": "3409 Woodland Park Ave N"
    },
    {
        "id": "aa897103-0752-4ec6-a10f-f90ec51b2836",
        "name": "French Broad River Brewing Co",
        "brewery_type": "micro",
        "address_1": "101 Fairview Rd Ste D",
        "address_2": null,
        "address_3": null,
        "city": "Asheville",
        "state_province": "North Carolina",
        "postal_code": "28803-4301",
        "country": "United States",
        "longitude": null,
        "latitude": null,
        "phone": "8282770222",
        "website_url": "http://www.frenchbroadbrewery.com",
        "state": "North Carolina",
        "street": "101 Fairview Rd Ste D"
    },
    {
        "id": "6dfefac9-78b1-4064-bbc8-7576201d9dbb",
        "name": "Frenzy Brewing Company",
        "brewery_type": "micro",
        "address_1": "15 S Broadway",
        "address_2": null,
        "address_3": null,
        "city": "Edmond",
        "state_province": "Oklahoma",
        "postal_code": "73003-6250",
        "country": "United States",
        "longitude": "-97.4818183",
        "latitude": "35.6547287",
        "phone": "4055625350",
        "website_url": "http://www.frenzybrewing.com",
        "state": "Oklahoma",
        "street": "15 S Broadway"
    },
    {
        "id": "ba99e6ac-4f25-49a3-980b-04818ce101c7",
        "name": "Fretboard Brewing Company",
        "brewery_type": "micro",
        "address_1": "5800 Creek Rd",
        "address_2": null,
        "address_3": null,
        "city": "Blue Ash",
        "state_province": "Ohio",
        "postal_code": "45242-4010",
        "country": "United States",
        "longitude": "-84.390108",
        "latitude": "39.260924",
        "phone": "5139144677",
        "website_url": "http://www.fretboardbrewing.com",
        "state": "Ohio",
        "street": "5800 Creek Rd"
    },
    {
        "id": "fc496ca5-6117-4863-b75c-2da11269792a",
        "name": "Frey's Brewing Company",
        "brewery_type": "micro",
        "address_1": "8601 Mapleville Rd",
        "address_2": null,
        "address_3": null,
        "city": "Mount Airy",
        "state_province": "Maryland",
        "postal_code": "21771-9705",
        "country": "United States",
        "longitude": null,
        "latitude": null,
        "phone": "3016397146",
        "website_url": "http://www.freysbrewing.com",
        "state": "Maryland",
        "street": "8601 Mapleville Rd"
    },
    {
        "id": "c5a2fe16-973f-4ee2-9764-e51ed9a4d190",
        "name": "Friars' Brewhouse",
        "brewery_type": "micro",
        "address_1": "84 Main St",
        "address_2": null,
        "address_3": null,
        "city": "Bucksport",
        "state_province": "Maine",
        "postal_code": "04416",
        "country": "United States",
        "longitude": "-68.79558414",
        "latitude": "44.57202344",
        "phone": "2079473770",
        "website_url": null,
        "state": "Maine",
        "street": "84 Main St"
    },
    {
        "id": "769105a9-f552-4c1c-80b5-e85463582e8c",
        "name": "Friday Harbor Brewing",
        "brewery_type": "closed",
        "address_1": "665B Mullis St",
        "address_2": null,
        "address_3": null,
        "city": "Friday Harbor",
        "state_province": "Washington",
        "postal_code": "98250-7902",
        "country": "United States",
        "longitude": "-123.0223327",
        "latitude": "48.53026803",
        "phone": "3603786205",
        "website_url": "http://www.fridayharborbrewhouse.com",
        "state": "Washington",
        "street": "665B Mullis St"
    },
    {
        "id": "b73eb538-fd72-4c98-8ea2-b20b60abfb21",
        "name": "Friends and Allies Brewing Company",
        "brewery_type": "micro",
        "address_1": "979 Springdale Rd Ste 124",
        "address_2": null,
        "address_3": null,
        "city": "Austin",
        "state_province": "Texas",
        "postal_code": "78702-3753",
        "country": "United States",
        "longitude": "-97.6961854",
        "latitude": "30.2628616",
        "phone": null,
        "website_url": "http://www.friendsandallies.beer",
        "state": "Texas",
        "street": "979 Springdale Rd Ste 124"
    },
    {
        "id": "02dcc02a-6cb5-4081-8d36-991f0d31dd09",
        "name": "Friendship Brewing Company",
        "brewery_type": "brewpub",
        "address_1": "100 Pitman Ave",
        "address_2": null,
        "address_3": null,
        "city": "Wentzville",
        "state_province": "Missouri",
        "postal_code": "63385-1700",
        "country": "United States",
        "longitude": "-90.8512976",
        "latitude": "38.8107544",
        "phone": "6368569300",
        "website_url": "http://www.friendshipbrewingcompany.com",
        "state": "Missouri",
        "street": "100 Pitman Ave"
    },
    {
        "id": "6c7bd802-9fa1-4c0c-879c-b09ffa3583cd",
        "name": "Fringe Beerworks",
        "brewery_type": "micro",
        "address_1": "224 SE Douglas St",
        "address_2": null,
        "address_3": null,
        "city": "Lees Summit",
        "state_province": "Missouri",
        "postal_code": "64063-2329",
        "country": "United States",
        "longitude": "-94.37672",
        "latitude": "38.913133",
        "phone": "8166002552",
        "website_url": "http://www.fringebeerworks.com",
        "state": "Missouri",
        "street": "224 SE Douglas St"
    },
    {
        "id": "1ec61aa6-bd2f-43f4-b3cf-cd0cb92caa57",
        "name": "FrinGe Brewing",
        "brewery_type": "micro",
        "address_1": "5640 3rd Ave",
        "address_2": null,
        "address_3": null,
        "city": "Ferndale",
        "state_province": "Washington",
        "postal_code": "98248",
        "country": "United States",
        "longitude": "-122.593",
        "latitude": "48.84596",
        "phone": "3603986071",
        "website_url": "https://fringebrewing.com",
        "state": "Washington",
        "street": "5640 3rd Ave"
    },
    {
        "id": "e0a21330-f4ab-44ba-8762-4624cff0688d",
        "name": "Frisco Tap House & Push Brewery",
        "brewery_type": "brewpub",
        "address_1": "6695 Dobbin Rd",
        "address_2": null,
        "address_3": null,
        "city": "Columbia",
        "state_province": "Maryland",
        "postal_code": "21045-4755",
        "country": "United States",
        "longitude": "-76.8252248",
        "latitude": "39.1860574",
        "phone": "4103124907",
        "website_url": "http://www.friscogrille.com",
        "state": "Maryland",
        "street": "6695 Dobbin Rd"
    },
    {
        "id": "012747c9-0ef8-43d7-90fe-ea4242805b7a",
        "name": "Frisky Brewing Company",
        "brewery_type": "planning",
        "address_1": null,
        "address_2": null,
        "address_3": null,
        "city": "Odessa",
        "state_province": "Texas",
        "postal_code": "79765",
        "country": "United States",
        "longitude": null,
        "latitude": null,
        "phone": null,
        "website_url": "http://www.friskybrewing.com",
        "state": "Texas",
        "street": null
    },
    {
        "id": "ce7ce315-a777-4537-8769-21885f40d043",
        "name": "Frog Level Brewing Company",
        "brewery_type": "micro",
        "address_1": "56 Commerce St",
        "address_2": null,
        "address_3": null,
        "city": "Waynesville",
        "state_province": "North Carolina",
        "postal_code": "28786-5738",
        "country": "United States",
        "longitude": "-82.99178072",
        "latitude": "35.4929673",
        "phone": "8284545664",
        "website_url": "http://www.froglevelbrewing.com",
        "state": "North Carolina",
        "street": "56 Commerce St"
    },
    {
        "id": "c1ce08b9-1169-4890-a05d-5ccd1e9f689b",
        "name": "Frogg Brewing",
        "brewery_type": "planning",
        "address_1": null,
        "address_2": null,
        "address_3": null,
        "city": "Marlborough",
        "state_province": "New Hampshire",
        "postal_code": "03455-0252",
        "country": "United States",
        "longitude": null,
        "latitude": null,
        "phone": "6039033774",
        "website_url": null,
        "state": "New Hampshire",
        "street": null
    },
    {
        "id": "78b32146-8ea4-49b3-b97a-2d03b3cfd237",
        "name": "Frogtown Brewery",
        "brewery_type": "micro",
        "address_1": "2931 Gilroy St",
        "address_2": null,
        "address_3": null,
        "city": "Los Angeles",
        "state_province": "California",
        "postal_code": "90039-2817",
        "country": "United States",
        "longitude": "-118.2515209",
        "latitude": "34.10656552",
        "phone": "3234522739",
        "website_url": "http://www.frogtownbrewery.com",
        "state": "California",
        "street": "2931 Gilroy St"
    },
    {
        "id": "d8e62398-710e-4fbc-98d1-cf5cc655619b",
        "name": "Frolic Brewing Company",
        "brewery_type": "brewpub",
        "address_1": "12910 Zuni St Ste 1300",
        "address_2": null,
        "address_3": null,
        "city": "Westminster",
        "state_province": "Colorado",
        "postal_code": "80234-1313",
        "country": "United States",
        "longitude": null,
        "latitude": null,
        "phone": null,
        "website_url": "http://www.frolicbrewing.com",
        "state": "Colorado",
        "street": "12910 Zuni St Ste 1300"
    },
    {
        "id": "5bfe0fee-f654-42fb-a8cb-2ec2709cd104",
        "name": "From the Barrel Brewing Company",
        "brewery_type": "micro",
        "address_1": "15 Londonderry Rd Unit 9",
        "address_2": null,
        "address_3": null,
        "city": "Londonderry",
        "state_province": "New Hampshire",
        "postal_code": "03053-3388",
        "country": "United States",
        "longitude": null,
        "latitude": null,
        "phone": "6033281896",
        "website_url": "http://www.drinkfromthebarrel.com",
        "state": "New Hampshire",
        "street": "15 Londonderry Rd Unit 9"
    },
    {
        "id": "564ec142-f73e-4d0c-9430-828e8553aa79",
        "name": "From The Earth Brewing Company",
        "brewery_type": "brewpub",
        "address_1": "1570 Holcomb Bridge Rd Suite 405",
        "address_2": null,
        "address_3": null,
        "city": "Roswell",
        "state_province": "Georgia",
        "postal_code": "30076",
        "country": "United States",
        "longitude": null,
        "latitude": null,
        "phone": "7709109799",
        "website_url": "http://www.ftebrewing.com",
        "state": "Georgia",
        "street": "1570 Holcomb Bridge Rd Suite 405"
    },
    {
        "id": "f1675420-4a29-472e-99e7-1ab841e2ac01",
        "name": "From the Ground Brewery",
        "brewery_type": "micro",
        "address_1": "245 Guski Rd",
        "address_2": null,
        "address_3": null,
        "city": "Red Hook",
        "state_province": "New York",
        "postal_code": "12571-3316",
        "country": "United States",
        "longitude": null,
        "latitude": null,
        "phone": "8453098100",
        "website_url": "http://www.fromthegroundbrewery.com",
        "state": "New York",
        "street": "245 Guski Rd"
    },
    {
        "id": "e62ab6be-2248-43a2-b827-3fc5bcfb9b0b",
        "name": "Front Porch Brewing",
        "brewery_type": "micro",
        "address_1": "226 N. Plains Industrial Rd Unit 4",
        "address_2": null,
        "address_3": null,
        "city": "Wallingford",
        "state_province": "Connecticut",
        "postal_code": "06492-2397",
        "country": "United States",
        "longitude": null,
        "latitude": null,
        "phone": "2036791096",
        "website_url": "http://www.frontporchbrewing.org",
        "state": "Connecticut",
        "street": "226 N. Plains Industrial Rd Unit 4"
    },
    {
        "id": "dc56adc9-5aee-441d-a86a-86c1d48556bc",
        "name": "Front Range Brewing Co.",
        "brewery_type": "brewpub",
        "address_1": "400 W South Boulder Rd Ste 1650",
        "address_2": null,
        "address_3": null,
        "city": "Lafayette",
        "state_province": "Colorado",
        "postal_code": "80026-2743",
        "country": "United States",
        "longitude": null,
        "latitude": null,
        "phone": "3033390767",
        "website_url": "http://www.frontrangebrewingcompany.com",
        "state": "Colorado",
        "street": "400 W South Boulder Rd Ste 1650"
    },
    {
        "id": "33d6dbba-030c-440d-96d4-e8ab8b923ddb",
        "name": "Front Royal Brewing Company, LLC",
        "brewery_type": "brewpub",
        "address_1": "122 E Main St",
        "address_2": null,
        "address_3": null,
        "city": "Front Royal",
        "state_province": "Virginia",
        "postal_code": "22630-3337",
        "country": "United States",
        "longitude": "-78.19199641",
        "latitude": "38.9180285",
        "phone": "5403610773",
        "website_url": "http://www.frontroyalbrewing.com",
        "state": "Virginia",
        "street": "122 E Main St"
    },
    {
        "id": "f481d5cc-589c-43d2-95c3-e47eeea39f89",
        "name": "Front Street Brewery",
        "brewery_type": "brewpub",
        "address_1": "9 N Front St",
        "address_2": null,
        "address_3": null,
        "city": "Wilmington",
        "state_province": "North Carolina",
        "postal_code": "28401-4436",
        "country": "United States",
        "longitude": "-77.94886883",
        "latitude": "34.2357825",
        "phone": "9102511935",
        "website_url": "http://www.frontstreetbrewery.com",
        "state": "North Carolina",
        "street": "9 N Front St"
    },
    {
        "id": "5c90cce6-a368-42b9-8b61-5482607a1805",
        "name": "Front Street Brewery - IA",
        "brewery_type": "brewpub",
        "address_1": "208 E River Dr",
        "address_2": null,
        "address_3": null,
        "city": "Davenport",
        "state_province": "Iowa",
        "postal_code": "52801-1609",
        "country": "United States",
        "longitude": "-90.572491",
        "latitude": "41.520329",
        "phone": "5633221569",
        "website_url": "http://www.frontstreetbrew.com",
        "state": "Iowa",
        "street": "208 E River Dr"
    },
    {
        "id": "e82fff5f-5eb0-4a01-bd19-94a27691a925",
        "name": "Front Street Taproom",
        "brewery_type": "bar",
        "address_1": "614 Main Ave",
        "address_2": null,
        "address_3": null,
        "city": "Fargo",
        "state_province": "North Dakota",
        "postal_code": "58103-1945",
        "country": "United States",
        "longitude": "-96.78887169",
        "latitude": "46.87489994",
        "phone": "7015667226",
        "website_url": "http://www.frontstreettaproom.com",
        "state": "North Dakota",
        "street": "614 Main Ave"
    },
    {
        "id": "757b0584-fff4-492b-ab99-1a3fc0e4633f",
        "name": "Frontier Brewing Company and Taproom",
        "brewery_type": "micro",
        "address_1": "150 W 2nd St",
        "address_2": null,
        "address_3": null,
        "city": "Casper",
        "state_province": "Wyoming",
        "postal_code": "82601-2411",
        "country": "United States",
        "longitude": "-106.32622587131424",
        "latitude": "42.84914111394708",
        "phone": "3073371000",
        "website_url": "http://www.frontierbrewingcompany.com",
        "state": "Wyoming",
        "street": "150 W 2nd St"
    },
    {
        "id": "bfe40849-06b8-42b7-82be-fa81af4f221f",
        "name": "Frontyard Brewing",
        "brewery_type": "micro",
        "address_1": "1607 Cuernavaca Dr North Unit #202",
        "address_2": null,
        "address_3": null,
        "city": "Austin",
        "state_province": "Texas",
        "postal_code": "78733",
        "country": "United States",
        "longitude": null,
        "latitude": null,
        "phone": "8503227498",
        "website_url": "http://www.frontyardbrewing.com",
        "state": "Texas",
        "street": "1607 Cuernavaca Dr North Unit #202"
    },
    {
        "id": "195cf158-f511-4604-ba38-f40f3dbd1928",
        "name": "Frost Beer Works",
        "brewery_type": "micro",
        "address_1": "171 Commerce St",
        "address_2": null,
        "address_3": null,
        "city": "Hinesburg",
        "state_province": "Vermont",
        "postal_code": "05461-4482",
        "country": "United States",
        "longitude": "-73.1089808",
        "latitude": "44.3353247",
        "phone": "9499454064",
        "website_url": "http://www.frostbeerworks.com",
        "state": "Vermont",
        "street": "171 Commerce St"
    },
    {
        "id": "d07babfb-1113-4977-b24d-061f87c67eb1",
        "name": "Frost Town Brewing",
        "brewery_type": "micro",
        "address_1": "100 N Jackson St",
        "address_2": null,
        "address_3": null,
        "city": "Houston",
        "state_province": "Texas",
        "postal_code": "77002",
        "country": "United States",
        "longitude": null,
        "latitude": null,
        "phone": null,
        "website_url": "http://www.frosttownbrew.com/",
        "state": "Texas",
        "street": "100 N Jackson St"
    },
    {
        "id": "35bfdfcf-21b4-469e-a4b2-38f3c2d8a7c2",
        "name": "Frothy Beard Brewing Co",
        "brewery_type": "micro",
        "address_1": "1401 Sam Rittenberg Blvd Ste 1",
        "address_2": null,
        "address_3": null,
        "city": "Charleston",
        "state_province": "South Carolina",
        "postal_code": "29407-5031",
        "country": "United States",
        "longitude": null,
        "latitude": null,
        "phone": "8437932970",
        "website_url": "http://www.frothybeard.com",
        "state": "South Carolina",
        "street": "1401 Sam Rittenberg Blvd Ste 1"
    }
]