[
    {
        "id": "0676073b-a116-400c-a65a-7101daefc68b",
        "name": "Prost Brewing Fort Collins",
        "brewery_type": "planning",
        "address_1": null,
        "address_2": null,
        "address_3": null,
        "city": "Fort Collins",
        "state_province": "Colorado",
        "postal_code": "80524-2162",
        "country": "United States",
        "longitude": null,
        "latitude": null,
        "phone": "9704842421",
        "website_url": null,
        "state": "Colorado",
        "street": null
    },
    {
        "id": "fe7b2d32-800c-456c-b969-b9b2def948ed",
        "name": "Protector Brewery",
        "brewery_type": "micro",
        "address_1": "8680 Miralani Dr Ste 128",
        "address_2": null,
        "address_3": null,
        "city": "San Diego",
        "state_province": "California",
        "postal_code": "92126-6392",
        "country": "United States",
        "longitude": "-117.137429",
        "latitude": "32.896584",
        "phone": "8587579160",
        "website_url": "http://www.protectorbrewery.com",
        "state": "California",
        "street": "8680 Miralani Dr Ste 128"
    },
    {
        "id": "0c115e76-1940-4b64-ba13-c903d95f0aed",
        "name": "Providence Brewing Company",
        "brewery_type": "micro",
        "address_1": "10 Sims Ave Unit 110",
        "address_2": null,
        "address_3": null,
        "city": "Providence",
        "state_province": "Rhode Island",
        "postal_code": "02909-1165",
        "country": "United States",
        "longitude": "-71.4335016",
        "latitude": "41.8270445",
        "phone": "4013491260",
        "website_url": "https://providencebrewingcompany.com",
        "state": "Rhode Island",
        "street": "10 Sims Ave Unit 110"
    },
    {
        "id": "1243a0bb-ddff-44a2-8257-05a597432665",
        "name": "Pryes Brewing Company",
        "brewery_type": "micro",
        "address_1": "1401 W River Rd # N",
        "address_2": null,
        "address_3": null,
        "city": "Minneapolis",
        "state_province": "Minnesota",
        "postal_code": "55411-3436",
        "country": "United States",
        "longitude": "-93.2763222",
        "latitude": "44.9935022",
        "phone": "6127877937",
        "website_url": "http://www.pryesbrewing.com",
        "state": "Minnesota",
        "street": "1401 W River Rd # N"
    },
    {
        "id": "d0963852-764a-4acd-b1b4-34af406036dd",
        "name": "PT's Brewing Co.",
        "brewery_type": "micro",
        "address_1": "3101 N Tenaya Way",
        "address_2": null,
        "address_3": null,
        "city": "Las Vegas",
        "state_province": "Nevada",
        "postal_code": "89128-0437",
        "country": "United States",
        "longitude": "-115.2509527",
        "latitude": "36.1739188",
        "phone": null,
        "website_url": null,
        "state": "Nevada",
        "street": "3101 N Tenaya Way"
    },
    {
        "id": "f66e0f8c-af6d-4f0b-a2f0-53f279062189",
        "name": "Pub Craught",
        "brewery_type": "planning",
        "address_1": null,
        "address_2": null,
        "address_3": null,
        "city": "Baton Rouge",
        "state_province": "Louisiana",
        "postal_code": "70809-2228",
        "country": "United States",
        "longitude": null,
        "latitude": null,
        "phone": null,
        "website_url": null,
        "state": "Louisiana",
        "street": null
    },
    {
        "id": "2c797daa-c0a9-4a75-86b0-ed59a6a78b52",
        "name": "Pub Dog Brewing Company",
        "brewery_type": "micro",
        "address_1": "1203 New Windsor Rd",
        "address_2": null,
        "address_3": null,
        "city": "Westminster",
        "state_province": "Maryland",
        "postal_code": "21158-6704",
        "country": "United States",
        "longitude": "-77.05229796",
        "latitude": "39.55045197",
        "phone": "4108483993",
        "website_url": "http://www.pubdog.com",
        "state": "Maryland",
        "street": "1203 New Windsor Rd"
    },
    {
        "id": "87961052-082b-4070-a77d-044a353c4e53",
        "name": "Public Brewhouse",
        "brewery_type": "micro",
        "address_1": "209 N Hoff Ave",
        "address_2": null,
        "address_3": null,
        "city": "Tucson",
        "state_province": "Arizona",
        "postal_code": "85705-8537",
        "country": "United States",
        "longitude": "-110.9648848",
        "latitude": "32.22401718",
        "phone": "5207752337",
        "website_url": "http://www.publicbrewhouse.com",
        "state": "Arizona",
        "street": "209 N Hoff Ave"
    },
    {
        "id": "23009018-e5ab-4747-bd83-04665b226ea0",
        "name": "Public Coast Brewing",
        "brewery_type": "brewpub",
        "address_1": "264 E 3rd Ave",
        "address_2": null,
        "address_3": null,
        "city": "Cannon Beach",
        "state_province": "Oregon",
        "postal_code": "97110-2008",
        "country": "United States",
        "longitude": "-123.9590737",
        "latitude": "45.90084068",
        "phone": "5034360285",
        "website_url": "http://www.publiccoastbrewing.com",
        "state": "Oregon",
        "street": "264 E 3rd Ave"
    },
    {
        "id": "32630107-81cf-4045-a0c3-5eb8f7b0ea63",
        "name": "Public Craft Brewing Co",
        "brewery_type": "micro",
        "address_1": "716 58th St",
        "address_2": null,
        "address_3": null,
        "city": "Kenosha",
        "state_province": "Wisconsin",
        "postal_code": "53140-4137",
        "country": "United States",
        "longitude": "-87.81975091",
        "latitude": "42.58315424",
        "phone": "2626522739",
        "website_url": "http://www.publiccraftbrewing.com",
        "state": "Wisconsin",
        "street": "716 58th St"
    },
    {
        "id": "fa88cd5f-0c7d-495a-a4db-1ef89e1c1b7a",
        "name": "Public House Brewing Co",
        "brewery_type": "micro",
        "address_1": "551 State Route B",
        "address_2": null,
        "address_3": null,
        "city": "Saint James",
        "state_province": "Missouri",
        "postal_code": "65559-1055",
        "country": "United States",
        "longitude": "-91.609275",
        "latitude": "38.01608",
        "phone": "5732613333",
        "website_url": "http://www.publichousebrewery.com",
        "state": "Missouri",
        "street": "551 State Route B"
    },
    {
        "id": "7c04768b-0adb-46eb-844b-c7f150a45831",
        "name": "Public House Brewing Company",
        "brewery_type": "micro",
        "address_1": "600 N Rolla St Ste B",
        "address_2": null,
        "address_3": null,
        "city": "Rolla",
        "state_province": "Missouri",
        "postal_code": "65401-3111",
        "country": "United States",
        "longitude": "-91.77201",
        "latitude": "37.954113",
        "phone": "5734262337",
        "website_url": "http://www.publichousebrewery.com",
        "state": "Missouri",
        "street": "600 N Rolla St Ste B"
    },
    {
        "id": "a8d0eaec-038a-4812-8771-8bd32b8c7bb6",
        "name": "Public House Kitchen and Brewery",
        "brewery_type": "brewpub",
        "address_1": "9406 Battle St",
        "address_2": null,
        "address_3": null,
        "city": "Manassas",
        "state_province": "Virginia",
        "postal_code": "20110-5431",
        "country": "United States",
        "longitude": "-77.4726206",
        "latitude": "38.7513396",
        "phone": "5712921427",
        "website_url": "http://www.badwolfpublichouse.com",
        "state": "Virginia",
        "street": "9406 Battle St"
    },
    {
        "id": "1194e820-846b-47be-a99b-fe9cbdbf6df8",
        "name": "Pubstomper Brewing Company",
        "brewery_type": "proprietor",
        "address_1": "132 Tower Ln",
        "address_2": null,
        "address_3": null,
        "city": "Westover",
        "state_province": "West Virginia",
        "postal_code": "26501-4506",
        "country": "United States",
        "longitude": "-79.96183033",
        "latitude": "39.63624754",
        "phone": "3046850996",
        "website_url": "http://www.pubstomperbrewing.com",
        "state": "West Virginia",
        "street": "132 Tower Ln"
    },
    {
        "id": "e8797224-010f-4448-9b2a-a7455f8a768f",
        "name": "Pueblo Vida Brewing Co",
        "brewery_type": "micro",
        "address_1": "115 E Broadway Blvd",
        "address_2": null,
        "address_3": null,
        "city": "Tucson",
        "state_province": "Arizona",
        "postal_code": "85701-2011",
        "country": "United States",
        "longitude": "-110.9451764",
        "latitude": "32.2214274",
        "phone": "5206237168",
        "website_url": "http://www.pueblovidabrewing.com",
        "state": "Arizona",
        "street": "115 E Broadway Blvd"
    },
    {
        "id": "14929b86-bff4-421a-bc03-be80a56572f8",
        "name": "Pug Ryan's Brewing Company",
        "brewery_type": "brewpub",
        "address_1": "104 Village Pl",
        "address_2": null,
        "address_3": null,
        "city": "Dillon",
        "state_province": "Colorado",
        "postal_code": "80435-2515",
        "country": "United States",
        "longitude": "-106.0467598",
        "latitude": "39.62832675",
        "phone": "9704682145",
        "website_url": "http://www.pugryans.com",
        "state": "Colorado",
        "street": "104 Village Pl"
    },
    {
        "id": "50b1e05a-9230-43af-8fba-f04386753196",
        "name": "Pull Brewing Co",
        "brewery_type": "contract",
        "address_1": "317 Springtown Rd",
        "address_2": null,
        "address_3": null,
        "city": "New Paltz",
        "state_province": "New York",
        "postal_code": "12561-3020",
        "country": "United States",
        "longitude": "-74.097562",
        "latitude": "41.760486",
        "phone": null,
        "website_url": "http://www.pullbrewing.com",
        "state": "New York",
        "street": "317 Springtown Rd"
    },
    {
        "id": "9119c101-09bb-4ac0-a3fe-da23442b96b7",
        "name": "Pulpit Rock Brewing Co.",
        "brewery_type": "micro",
        "address_1": "207 College Dr",
        "address_2": null,
        "address_3": null,
        "city": "Decorah",
        "state_province": "Iowa",
        "postal_code": "52101-1304",
        "country": "United States",
        "longitude": "-91.7962545",
        "latitude": "43.30654024",
        "phone": "5633803610",
        "website_url": "http://www.pulpitrockbrewing.net",
        "state": "Iowa",
        "street": "207 College Dr"
    },
    {
        "id": "0cb99662-37d0-4a67-8fd4-8298f9179051",
        "name": "Pumphouse Brewery and Restaurant",
        "brewery_type": "brewpub",
        "address_1": "540 Main St",
        "address_2": null,
        "address_3": null,
        "city": "Longmont",
        "state_province": "Colorado",
        "postal_code": "80501-5537",
        "country": "United States",
        "longitude": "-105.1020999",
        "latitude": "40.1687619",
        "phone": "3037020881",
        "website_url": "http://www.pumphousebrewery.com",
        "state": "Colorado",
        "street": "540 Main St"
    },
    {
        "id": "56758247-521c-4219-afa2-0665c48c50ef",
        "name": "Puntigamer Brauerei (Heineken)",
        "brewery_type": "large",
        "address_1": "Triester Str. 361",
        "address_2": null,
        "address_3": null,
        "city": "Graz",
        "state_province": "Steiermark",
        "postal_code": "8055",
        "country": "Austria",
        "longitude": "15.432570096538111",
        "latitude": "47.029627917574615",
        "phone": "+4331629710013",
        "website_url": "https://www.puntigamer.at",
        "state": "Steiermark",
        "street": "Triester Str. 361"
    },
    {
        "id": "d0dd6285-194e-4a7e-b260-1304a482c335",
        "name": "Pure Order Brewing Co",
        "brewery_type": "micro",
        "address_1": "410 N Quarantina St",
        "address_2": null,
        "address_3": null,
        "city": "Santa Barbara",
        "state_province": "California",
        "postal_code": "93103-3119",
        "country": "United States",
        "longitude": "-119.6864979",
        "latitude": "34.42351207",
        "phone": "8059662881",
        "website_url": "http://www.pureorderbrewing.com",
        "state": "California",
        "street": "410 N Quarantina St"
    },
    {
        "id": "7f1de675-59d2-4c2f-992a-9a3092084b33",
        "name": "Pure Project",
        "brewery_type": "micro",
        "address_1": "9030 Kenamar Dr Ste 308",
        "address_2": null,
        "address_3": null,
        "city": "San Diego",
        "state_province": "California",
        "postal_code": "92121-2432",
        "country": "United States",
        "longitude": "-117.1555351",
        "latitude": "32.88830151",
        "phone": "8582526143",
        "website_url": "http://www.purebrewing.org",
        "state": "California",
        "street": "9030 Kenamar Dr Ste 308"
    },
    {
        "id": "2fc1f3e1-43bf-4e50-9877-cc80a600de29",
        "name": "Purgatory Beer Co, LLC",
        "brewery_type": "micro",
        "address_1": "670 Linwood Ave Bldg C",
        "address_2": null,
        "address_3": null,
        "city": "Whitinsville",
        "state_province": "Massachusetts",
        "postal_code": "01588-2068",
        "country": "United States",
        "longitude": null,
        "latitude": null,
        "phone": "7745450243",
        "website_url": "http://www.purgatorybeer.com",
        "state": "Massachusetts",
        "street": "670 Linwood Ave Bldg C"
    },
    {
        "id": "2a22f461-fb7f-4347-87f7-e6316274fcd9",
        "name": "Puritan Brew Company",
        "brewery_type": "contract",
        "address_1": "205 W Dickson St",
        "address_2": null,
        "address_3": null,
        "city": "Fayetteville",
        "state_province": "Arkansas",
        "postal_code": "72701-5222",
        "country": "United States",
        "longitude": "-94.1620702",
        "latitude": "36.066188",
        "phone": "4793012365",
        "website_url": "http://www.puritanbrewcompany.com",
        "state": "Arkansas",
        "street": "205 W Dickson St"
    },
    {
        "id": "b8e7517b-317b-4e4d-9d3d-4f7a35200908",
        "name": "Purpose Brewing and Cellars",
        "brewery_type": "micro",
        "address_1": "4025 S Mason St Unit C",
        "address_2": null,
        "address_3": null,
        "city": "Fort Collins",
        "state_province": "Colorado",
        "postal_code": "80525-5953",
        "country": "United States",
        "longitude": null,
        "latitude": null,
        "phone": "9703774107",
        "website_url": "http://www.purposebrewing.com",
        "state": "Colorado",
        "street": "4025 S Mason St Unit C"
    },
    {
        "id": "c522a9cc-0865-4764-8447-d733d4a7046f",
        "name": "Put-In-Bay Brewing Co",
        "brewery_type": "brewpub",
        "address_1": "441 Catawba Ave",
        "address_2": null,
        "address_3": null,
        "city": "Put In Bay",
        "state_province": "Ohio",
        "postal_code": "43456-6536",
        "country": "United States",
        "longitude": "-82.81996476",
        "latitude": "41.65188956",
        "phone": "4192854677",
        "website_url": "http://www.putinbaybrewery.com",
        "state": "Ohio",
        "street": "441 Catawba Ave"
    },
    {
        "id": "64ef6c86-1c4e-41aa-983f-3a380b552973",
        "name": "Puyallup River Brewing Co",
        "brewery_type": "closed",
        "address_1": null,
        "address_2": null,
        "address_3": null,
        "city": "Puyallup",
        "state_province": "Washington",
        "postal_code": "98375-6923",
        "country": "United States",
        "longitude": null,
        "latitude": null,
        "phone": "2535908219",
        "website_url": "http://www.puyallupriverbrewing.com",
        "state": "Washington",
        "street": null
    },
    {
        "id": "07b5c626-a59e-4b2c-894e-e940ec87d094",
        "name": "Pyramid Breweries / North American Breweries",
        "brewery_type": "brewpub",
        "address_1": "1201 1st Ave S",
        "address_2": null,
        "address_3": null,
        "city": "Seattle",
        "state_province": "Washington",
        "postal_code": "98134-1238",
        "country": "United States",
        "longitude": "-122.33477",
        "latitude": "47.5920086",
        "phone": "2066823377",
        "website_url": "http://www.pyramidbrew.com",
        "state": "Washington",
        "street": "1201 1st Ave S"
    },
    {
        "id": "30f16fe6-539b-4238-affb-1ad6604de275",
        "name": "Quaff On Brewing",
        "brewery_type": "micro",
        "address_1": "1934 State Road 135 N",
        "address_2": null,
        "address_3": null,
        "city": "Nashville",
        "state_province": "Indiana",
        "postal_code": "47448-8418",
        "country": "United States",
        "longitude": null,
        "latitude": null,
        "phone": "8129886006",
        "website_url": "http://www.quaffon.com",
        "state": "Indiana",
        "street": "1934 State Road 135 N"
    },
    {
        "id": "9ea909e7-6392-4241-a9a3-b5a11932fb7a",
        "name": "QUAKE! Brewing Company",
        "brewery_type": "closed",
        "address_1": "1540 N Shoreline Dr",
        "address_2": null,
        "address_3": null,
        "city": "Wasilla",
        "state_province": "Alaska",
        "postal_code": "99654",
        "country": "United States",
        "longitude": "-149.340342",
        "latitude": "61.596646",
        "phone": "4048340997",
        "website_url": "http://www.quakebrewingcompany.com",
        "state": "Alaska",
        "street": "1540 N Shoreline Dr"
    },
    {
        "id": "ac19d512-0d7c-4821-a198-1bc0dec4e9cc",
        "name": "Quantum Brewing Co",
        "brewery_type": "micro",
        "address_1": "5375 Kearny Villa Rd Ste 116",
        "address_2": null,
        "address_3": null,
        "city": "San Diego",
        "state_province": "California",
        "postal_code": "92123-1422",
        "country": "United States",
        "longitude": "-117.1170304",
        "latitude": "32.8901624",
        "phone": "8582546481",
        "website_url": "http://www.quantumbrewingsd.com",
        "state": "California",
        "street": "5375 Kearny Villa Rd Ste 116"
    },
    {
        "id": "c7367015-8da6-4abb-a8e8-dc7ab974b7bd",
        "name": "Quarry Brewing",
        "brewery_type": "micro",
        "address_1": "124 W Broadway St",
        "address_2": null,
        "address_3": null,
        "city": "Butte",
        "state_province": "Montana",
        "postal_code": "59701-9224",
        "country": "United States",
        "longitude": "-112.5390009",
        "latitude": "46.01335466",
        "phone": "4067230245",
        "website_url": "http://www.wedigbeer.com",
        "state": "Montana",
        "street": "124 W Broadway St"
    },
    {
        "id": "2b5180bb-1de5-4961-af08-6a227d1cb37c",
        "name": "Quarter Barrel Arcade",
        "brewery_type": "brewpub",
        "address_1": "616 2nd Ave SE",
        "address_2": null,
        "address_3": null,
        "city": "Cedar Rapids",
        "state_province": "Iowa",
        "postal_code": "52401-1306",
        "country": "United States",
        "longitude": "-91.66318094",
        "latitude": "41.98062533",
        "phone": "3196211836",
        "website_url": "http://www.thequarterbarrel.com",
        "state": "Iowa",
        "street": "616 2nd Ave SE"
    },
    {
        "id": "8c192935-c685-444f-abc2-5a5e637f8b8d",
        "name": "Quarter Barrel Brewery",
        "brewery_type": "brewpub",
        "address_1": "107 E Church St",
        "address_2": null,
        "address_3": null,
        "city": "Oxford",
        "state_province": "Ohio",
        "postal_code": "45056-1317",
        "country": "United States",
        "longitude": "-84.74045186",
        "latitude": "39.51142737",
        "phone": "5135232525",
        "website_url": null,
        "state": "Ohio",
        "street": "107 E Church St"
    },
    {
        "id": "8c1536cc-c630-465c-9694-85490c0c13b6",
        "name": "Quarter Barrel Brewery and Pub",
        "brewery_type": "brewpub",
        "address_1": "103 Main St",
        "address_2": null,
        "address_3": null,
        "city": "Hamilton",
        "state_province": "Ohio",
        "postal_code": "45013",
        "country": "United States",
        "longitude": "-84.3556606",
        "latitude": "39.1246414",
        "phone": "5135552525",
        "website_url": null,
        "state": "Ohio",
        "street": "103 Main St"
    },
    {
        "id": "9faf7b68-73ee-4252-aafa-b903c7376a12",
        "name": "Quarter Celtic Brewpub",
        "brewery_type": "brewpub",
        "address_1": "1100 San Mateo Blvd NE Ste 50",
        "address_2": null,
        "address_3": null,
        "city": "Albuquerque",
        "state_province": "New Mexico",
        "postal_code": "87110-6473",
        "country": "United States",
        "longitude": null,
        "latitude": null,
        "phone": "5055031387",
        "website_url": "http://www.quartercelticbrewery.com",
        "state": "New Mexico",
        "street": "1100 San Mateo Blvd NE Ste 50"
    },
    {
        "id": "79a8d058-2314-4b8b-b1ce-e125ca04e45b",
        "name": "Quartzite Brewing Company",
        "brewery_type": "micro",
        "address_1": "105 W Main Ave",
        "address_2": null,
        "address_3": null,
        "city": "Chewelah",
        "state_province": "Washington",
        "postal_code": "99109-9257",
        "country": "United States",
        "longitude": "-117.71646",
        "latitude": "48.27618",
        "phone": "5099363686",
        "website_url": "https://quartzitebrewco.business.site",
        "state": "Washington",
        "street": "105 W Main Ave"
    },
    {
        "id": "9452153d-ec17-4f40-8801-1652436c1d51",
        "name": "Quattro Goombas Brewery",
        "brewery_type": "brewpub",
        "address_1": "22860 James Monroe Hwy",
        "address_2": null,
        "address_3": null,
        "city": "Aldie",
        "state_province": "Virginia",
        "postal_code": "20105-1916",
        "country": "United States",
        "longitude": null,
        "latitude": null,
        "phone": "7035091332",
        "website_url": "http://www.goombabrewery.com",
        "state": "Virginia",
        "street": "22860 James Monroe Hwy"
    },
    {
        "id": "4dfeb9cd-7b63-46e6-ac77-76a97d86daeb",
        "name": "Queen City Brewery of Cincinnati",
        "brewery_type": "micro",
        "address_1": "11253 Williamson Rd",
        "address_2": null,
        "address_3": null,
        "city": "Cincinnati",
        "state_province": "Ohio",
        "postal_code": "45241-2230",
        "country": "United States",
        "longitude": null,
        "latitude": null,
        "phone": null,
        "website_url": null,
        "state": "Ohio",
        "street": "11253 Williamson Rd"
    },
    {
        "id": "fbba8bc4-e368-44a0-8526-3c792d164ab1",
        "name": "Queen City Brewery, LLC",
        "brewery_type": "micro",
        "address_1": "703 Pine St",
        "address_2": null,
        "address_3": null,
        "city": "Burlington",
        "state_province": "Vermont",
        "postal_code": "05401-4921",
        "country": "United States",
        "longitude": "-73.21483275",
        "latitude": "44.4594977",
        "phone": "8025400280",
        "website_url": "http://www.queencitybrewery.com",
        "state": "Vermont",
        "street": "703 Pine St"
    },
    {
        "id": "b443f794-3038-4669-837a-3140a2251d6a",
        "name": "Queen City Brewing",
        "brewery_type": "micro",
        "address_1": "834 Spring Hill Rd",
        "address_2": null,
        "address_3": null,
        "city": "Staunton",
        "state_province": "Virginia",
        "postal_code": "24401-2865",
        "country": "United States",
        "longitude": null,
        "latitude": null,
        "phone": "5402138014",
        "website_url": "http://www.queencitybrewing.com",
        "state": "Virginia",
        "street": "834 Spring Hill Rd"
    },
    {
        "id": "f0112fde-2dd4-4ab0-99cb-5266c55628b6",
        "name": "Queens Brewery",
        "brewery_type": "proprietor",
        "address_1": "1539 Covert St",
        "address_2": null,
        "address_3": null,
        "city": "Ridgewood",
        "state_province": "New York",
        "postal_code": "11385-5356",
        "country": "United States",
        "longitude": "-73.90428508",
        "latitude": "40.6949116",
        "phone": "6462652049",
        "website_url": "http://www.queensbrewery.com",
        "state": "New York",
        "street": "1539 Covert St"
    },
    {
        "id": "393eb2eb-c37c-4009-b50b-a7b1d2ebfc66",
        "name": "Quest Brewing Company",
        "brewery_type": "micro",
        "address_1": "55 Airview Dr",
        "address_2": null,
        "address_3": null,
        "city": "Greenville",
        "state_province": "South Carolina",
        "postal_code": "29607-2632",
        "country": "United States",
        "longitude": "-82.34515691",
        "latitude": "34.8465767",
        "phone": "8642726232",
        "website_url": "http://www.questbrewing.com",
        "state": "South Carolina",
        "street": "55 Airview Dr"
    },
    {
        "id": "105764ab-27f9-4bd0-8d62-2a2c61e5ec8d",
        "name": "Quick Trigger Brewing Company",
        "brewery_type": "brewpub",
        "address_1": "118 Main St W",
        "address_2": null,
        "address_3": null,
        "city": "Ahoskie",
        "state_province": "North Carolina",
        "postal_code": "27910-3302",
        "country": "United States",
        "longitude": "-76.9863065",
        "latitude": "36.2857593",
        "phone": "2523326844",
        "website_url": "http://www.quicktriggerbrewing.com",
        "state": "North Carolina",
        "street": "118 Main St W"
    },
    {
        "id": "70d18ff8-cc1d-4a3a-8524-e37a200a0ab2",
        "name": "Quigley's Pint and Plate",
        "brewery_type": "brewpub",
        "address_1": "257 Willbrook Blvd",
        "address_2": null,
        "address_3": null,
        "city": "Pawleys Island",
        "state_province": "South Carolina",
        "postal_code": "29585-7789",
        "country": "United States",
        "longitude": null,
        "latitude": null,
        "phone": "8432377010",
        "website_url": null,
        "state": "South Carolina",
        "street": "257 Willbrook Blvd"
    },
    {
        "id": "d88f3979-3660-40cd-820c-f0da9cf4ce22",
        "name": "Quinn Brewing Company",
        "brewery_type": "micro",
        "address_1": "3000 Commerce Loop Ste 3200",
        "address_2": null,
        "address_3": null,
        "city": "Irwin",
        "state_province": "Pennsylvania",
        "postal_code": "15642-8112",
        "country": "United States",
        "longitude": null,
        "latitude": null,
        "phone": "7245905916",
        "website_url": "http://www.quinnbrewing.com",
        "state": "Pennsylvania",
        "street": "3000 Commerce Loop Ste 3200"
    },
    {
        "id": "5185fd8b-4369-4613-a595-5e9c06f624b6",
        "name": "Quirk Brewing",
        "brewery_type": "micro",
        "address_1": "425 B St",
        "address_2": null,
        "address_3": null,
        "city": "Walla Walla",
        "state_province": "Washington",
        "postal_code": "99362-2265",
        "country": "United States",
        "longitude": "-118.2755318",
        "latitude": "46.0913886",
        "phone": null,
        "website_url": null,
        "state": "Washington",
        "street": "425 B St"
    },
    {
        "id": "9b9418e4-8a71-4e97-9403-2b787aace83a",
        "name": "R.S. Taylor & Sons Brewery",
        "brewery_type": "brewpub",
        "address_1": "3602 County Route 30",
        "address_2": null,
        "address_3": null,
        "city": "Salem",
        "state_province": "New York",
        "postal_code": "12865-4702",
        "country": "United States",
        "longitude": "-73.360912",
        "latitude": "43.175335",
        "phone": "5182090474",
        "website_url": "http://www.rstaylorbrewing.com",
        "state": "New York",
        "street": "3602 County Route 30"
    },
    {
        "id": "d6fde152-fd90-463c-9eec-7c25da6278f4",
        "name": "R.Shea Brewing",
        "brewery_type": "micro",
        "address_1": "1662 Merriman Rd",
        "address_2": null,
        "address_3": null,
        "city": "Akron",
        "state_province": "Ohio",
        "postal_code": "44313-9000",
        "country": "United States",
        "longitude": "-81.55341503",
        "latitude": "41.13489995",
        "phone": "3307945654",
        "website_url": "http://www.rsheabrewing.com",
        "state": "Ohio",
        "street": "1662 Merriman Rd"
    },
    {
        "id": "bff7304d-177d-44ed-bbb1-c5d2b19783aa",
        "name": "Rabbit Hole Brewing",
        "brewery_type": "micro",
        "address_1": "106 E 6th",
        "address_2": null,
        "address_3": null,
        "city": "Justin",
        "state_province": "Texas",
        "postal_code": "76247-4635",
        "country": "United States",
        "longitude": null,
        "latitude": null,
        "phone": "9404413528",
        "website_url": "http://www.rabbitholebrewing.com",
        "state": "Texas",
        "street": "106 E 6th"
    },
    {
        "id": "128677f2-1463-4619-be91-9d0077e78ffd",
        "name": "Rabble-Rouser Brewing Company",
        "brewery_type": "micro",
        "address_1": null,
        "address_2": null,
        "address_3": null,
        "city": "Mcallen",
        "state_province": "Texas",
        "postal_code": "78501",
        "country": "United States",
        "longitude": null,
        "latitude": null,
        "phone": "9563290100",
        "website_url": "http://www.therabble-rousers.com",
        "state": "Texas",
        "street": null
    },
    {
        "id": "f1f86e50-2558-4f60-9d6d-f9dd8301a26f",
        "name": "Rabid Brewing, LLC",
        "brewery_type": "micro",
        "address_1": "17559 Bretz Dr",
        "address_2": null,
        "address_3": null,
        "city": "Homewood",
        "state_province": "Illinois",
        "postal_code": "60430",
        "country": "United States",
        "longitude": "-87.6330234",
        "latitude": "41.5647232",
        "phone": "7089603193",
        "website_url": "http://www.rabidbrewing.com",
        "state": "Illinois",
        "street": "17559 Bretz Dr"
    },
    {
        "id": "391a35c6-e0b6-4a79-a95b-e6469a674107",
        "name": "Race Street Brew Works",
        "brewery_type": "brewpub",
        "address_1": "511 Spruce St Ste 2",
        "address_2": null,
        "address_3": null,
        "city": "Clearfield",
        "state_province": "Pennsylvania",
        "postal_code": "16830-1923",
        "country": "United States",
        "longitude": null,
        "latitude": null,
        "phone": "8142054052",
        "website_url": "http://www.racestreetbrew.com",
        "state": "Pennsylvania",
        "street": "511 Spruce St Ste 2"
    },
    {
        "id": "3830bd5c-0997-4a3c-b2d5-9f56386cdc21",
        "name": "Racine Brewing Co",
        "brewery_type": "micro",
        "address_1": "303 Main St",
        "address_2": null,
        "address_3": null,
        "city": "Racine",
        "state_province": "Wisconsin",
        "postal_code": "53403",
        "country": "United States",
        "longitude": "-87.78339257",
        "latitude": "42.73050741",
        "phone": "2626310670",
        "website_url": "http://www.racinebrewingcompany.com",
        "state": "Wisconsin",
        "street": "303 Main St"
    },
    {
        "id": "911ff443-97e8-4769-80d9-b7efe3b7a9a0",
        "name": "Racing City Brewing Company",
        "brewery_type": "micro",
        "address_1": "250 Excelsior Ave",
        "address_2": null,
        "address_3": null,
        "city": "Saratoga Springs",
        "state_province": "New York",
        "postal_code": "12866-8532",
        "country": "United States",
        "longitude": "-73.7769944",
        "latitude": "43.0888891",
        "phone": "5183504515",
        "website_url": "http://www.racingcitybrewingcompany.com",
        "state": "New York",
        "street": "250 Excelsior Ave"
    },
    {
        "id": "8d1600f2-6526-4bdb-8992-bb0fdb286005",
        "name": "Radiant Pig Craft Beers",
        "brewery_type": "contract",
        "address_1": "122 W 27th St Fl 10",
        "address_2": null,
        "address_3": null,
        "city": "New York",
        "state_province": "New York",
        "postal_code": "10001-6227",
        "country": "United States",
        "longitude": null,
        "latitude": null,
        "phone": null,
        "website_url": null,
        "state": "New York",
        "street": "122 W 27th St Fl 10"
    },
    {
        "id": "7c73edeb-85e0-4a8c-9f34-33834ce70cd8",
        "name": "Radicle Effect Brewerks",
        "brewery_type": "micro",
        "address_1": "1340 31st St",
        "address_2": null,
        "address_3": null,
        "city": "Rock Island",
        "state_province": "Illinois",
        "postal_code": "61201-2949",
        "country": "United States",
        "longitude": "-90.55595294",
        "latitude": "41.49803483",
        "phone": "3092837605",
        "website_url": "http://www.rebrewerks.com",
        "state": "Illinois",
        "street": "1340 31st St"
    },
    {
        "id": "d9ca812a-80a6-4665-a243-3552f3b0563b",
        "name": "Radio Brewing Company",
        "brewery_type": "brewpub",
        "address_1": "319 Main St",
        "address_2": null,
        "address_3": null,
        "city": "Kellogg",
        "state_province": "Idaho",
        "postal_code": "83837",
        "country": "United States",
        "longitude": "-116.1225116",
        "latitude": "47.53391643",
        "phone": "2087866633",
        "website_url": "http://www.radiobrewingcompany.com",
        "state": "Idaho",
        "street": "319 Main St"
    },
    {
        "id": "eea07160-746d-48bd-82cf-29f8de4e6915",
        "name": "Radium City Brewing",
        "brewery_type": "micro",
        "address_1": null,
        "address_2": null,
        "address_3": null,
        "city": "Ottawa",
        "state_province": "Illinois",
        "postal_code": "61350",
        "country": "United States",
        "longitude": null,
        "latitude": null,
        "phone": null,
        "website_url": "http://www.radiumcitybrewing.com",
        "state": "Illinois",
        "street": null
    },
    {
        "id": "633070e8-f61d-4e78-82ce-54d4d229f58e",
        "name": "Radius Brewing Company",
        "brewery_type": "micro",
        "address_1": "610 Merchant St",
        "address_2": null,
        "address_3": null,
        "city": "Emporia",
        "state_province": "Kansas",
        "postal_code": "66801-2859",
        "country": "United States",
        "longitude": "-96.18130706",
        "latitude": "38.40521996",
        "phone": "6202084677",
        "website_url": "http://radiusbrewing@yahoo.com",
        "state": "Kansas",
        "street": "610 Merchant St"
    },
    {
        "id": "8295ba7b-4f06-4370-995d-ebacaffea398",
        "name": "Ragged Island Brewing Company",
        "brewery_type": "micro",
        "address_1": "54 Bristol Ferry Rd",
        "address_2": null,
        "address_3": null,
        "city": "Portsmouth",
        "state_province": "Rhode Island",
        "postal_code": "02871",
        "country": "United States",
        "longitude": "-71.25695",
        "latitude": "41.616314",
        "phone": "4013182991",
        "website_url": "http://www.raggedislandbrewing.com",
        "state": "Rhode Island",
        "street": "54 Bristol Ferry Rd"
    },
    {
        "id": "d91cbdb4-443b-43e6-8005-02616b3c3e80",
        "name": "Ragtime Tavern Seafood and Grill",
        "brewery_type": "brewpub",
        "address_1": "207 Atlantic Blvd",
        "address_2": null,
        "address_3": null,
        "city": "Atlantic Beach",
        "state_province": "Florida",
        "postal_code": "32233-5273",
        "country": "United States",
        "longitude": "-81.3964898",
        "latitude": "30.3247964",
        "phone": "9042417877",
        "website_url": "http://www.ragtimetavern.com",
        "state": "Florida",
        "street": "207 Atlantic Blvd"
    },
    {
        "id": "eb13cc36-c81f-4518-9b84-24e7ea268d85",
        "name": "Rahr and Sons Brewing Co",
        "brewery_type": "regional",
        "address_1": "701 Galveston Ave",
        "address_2": null,
        "address_3": null,
        "city": "Fort Worth",
        "state_province": "Texas",
        "postal_code": "76104-3355",
        "country": "United States",
        "longitude": "-97.327292",
        "latitude": "32.7371",
        "phone": "8178109266",
        "website_url": "http://www.rahrbrewing.com",
        "state": "Texas",
        "street": "701 Galveston Ave"
    },
    {
        "id": "e24adb1a-11ab-4db3-8e5f-93c14a8c7a09",
        "name": "Rahr Technical Center LLC",
        "brewery_type": "micro",
        "address_1": "800 1st Ave W",
        "address_2": null,
        "address_3": null,
        "city": "Shakopee",
        "state_province": "Minnesota",
        "postal_code": "55379-1148",
        "country": "United States",
        "longitude": "-93.5365005",
        "latitude": "44.7968103",
        "phone": "9524650585",
        "website_url": null,
        "state": "Minnesota",
        "street": "800 1st Ave W"
    },
    {
        "id": "512eb241-55cf-47bf-b949-824cc7fd7449",
        "name": "Raices Brewing Co",
        "brewery_type": "planning",
        "address_1": null,
        "address_2": null,
        "address_3": null,
        "city": "Denver",
        "state_province": "Colorado",
        "postal_code": "80204",
        "country": "United States",
        "longitude": null,
        "latitude": null,
        "phone": "2024237060",
        "website_url": "http://www.raicesbrewing.com",
        "state": "Colorado",
        "street": null
    },
    {
        "id": "5a8a414d-d2a5-4ca8-b436-27d5571bd56c",
        "name": "Rail Hop'n Brewing Co",
        "brewery_type": "micro",
        "address_1": "122 W Main St Ste 101B",
        "address_2": null,
        "address_3": null,
        "city": "Auburn",
        "state_province": "Washington",
        "postal_code": "98001-4924",
        "country": "United States",
        "longitude": "-122.2290885",
        "latitude": "47.3120419",
        "phone": "2532176800",
        "website_url": "http://www.railhopn.com",
        "state": "Washington",
        "street": "122 W Main St Ste 101B"
    },
    {
        "id": "e433ddf5-de9b-4306-88c8-dea56bbf8d4b",
        "name": "Rail Line Brewing",
        "brewery_type": "brewpub",
        "address_1": "301 N Main St",
        "address_2": null,
        "address_3": null,
        "city": "Simpsonville",
        "state_province": "South Carolina",
        "postal_code": "29681-2311",
        "country": "United States",
        "longitude": "-82.25782481",
        "latitude": "34.7414657",
        "phone": "8645939722",
        "website_url": "http://www.raillinebrewing.com",
        "state": "South Carolina",
        "street": "301 N Main St"
    },
    {
        "id": "03701616-c339-41c3-ac31-9ba74e82745e",
        "name": "Railhead Brewing Company",
        "brewery_type": "brewpub",
        "address_1": "40 Park Dr",
        "address_2": null,
        "address_3": null,
        "city": "Hornell",
        "state_province": "New York",
        "postal_code": "14843-2213",
        "country": "United States",
        "longitude": null,
        "latitude": null,
        "phone": "6073243286",
        "website_url": "http://www.railheadbrewing.com",
        "state": "New York",
        "street": "40 Park Dr"
    },
    {
        "id": "a7e1db73-8d89-46f7-b3a5-7f186529e972",
        "name": "Railhouse Brewery",
        "brewery_type": "micro",
        "address_1": "105 E South St Unit C",
        "address_2": null,
        "address_3": null,
        "city": "Aberdeen",
        "state_province": "North Carolina",
        "postal_code": "28315-",
        "country": "United States",
        "longitude": null,
        "latitude": null,
        "phone": "9107835280",
        "website_url": "http://www.railhousebrewery.com",
        "state": "North Carolina",
        "street": "105 E South St Unit C"
    },
    {
        "id": "4b15db52-05ef-4a27-8d0f-12572da07b9b",
        "name": "Railhouse Restaurant and Brewery",
        "brewery_type": "brewpub",
        "address_1": "2029 Old Peshtigo Ct",
        "address_2": null,
        "address_3": null,
        "city": "Marinette",
        "state_province": "Wisconsin",
        "postal_code": "54143-1066",
        "country": "United States",
        "longitude": "-87.6543602",
        "latitude": "45.085149",
        "phone": "7157324646",
        "website_url": "http://www.railhousebrewpub.com",
        "state": "Wisconsin",
        "street": "2029 Old Peshtigo Ct"
    },
    {
        "id": "330a7167-f217-4419-b66a-d12cb04f647d",
        "name": "Railport Brewing Company",
        "brewery_type": "micro",
        "address_1": "405 W Madison St",
        "address_2": null,
        "address_3": null,
        "city": "Waxahachie",
        "state_province": "Texas",
        "postal_code": "75165-3666",
        "country": "United States",
        "longitude": "-96.85141051",
        "latitude": "32.38463715",
        "phone": "4693605383",
        "website_url": "http://www.railportbrewing.com",
        "state": "Texas",
        "street": "405 W Madison St"
    },
    {
        "id": "52dc49dc-14c6-426f-821c-a52f9d5552b3",
        "name": "Railroad Brewing Company",
        "brewery_type": "micro",
        "address_1": "1010 Center Rd",
        "address_2": null,
        "address_3": null,
        "city": "Avon",
        "state_province": "Ohio",
        "postal_code": "44011-1206",
        "country": "United States",
        "longitude": "-82.01953725",
        "latitude": "41.4754617",
        "phone": "4407238234",
        "website_url": "http://www.railroadbrewingcompany.com",
        "state": "Ohio",
        "street": "1010 Center Rd"
    },
    {
        "id": "aefe68ce-6f3c-45f7-9d3f-c7af686cd8c8",
        "name": "Railroad City Brewing Company",
        "brewery_type": "brewpub",
        "address_1": "1415 11th Ave Ste 1",
        "address_2": null,
        "address_3": null,
        "city": "Altoona",
        "state_province": "Pennsylvania",
        "postal_code": "16601-3303",
        "country": "United States",
        "longitude": null,
        "latitude": null,
        "phone": "8142012827",
        "website_url": "http://www.railroadcitybrewing.com",
        "state": "Pennsylvania",
        "street": "1415 11th Ave Ste 1"
    },
    {
        "id": "d90fdac6-8658-44a1-8e97-f6f22b74ef3a",
        "name": "Railroad Seafood Station & Brewing Co.",
        "brewery_type": "brewpub",
        "address_1": "1214 N Chaparral St",
        "address_2": null,
        "address_3": null,
        "city": "Corpus Christi",
        "state_province": "Texas",
        "postal_code": "78401-1503",
        "country": "United States",
        "longitude": "-97.39433962",
        "latitude": "27.8027685",
        "phone": "3618836200",
        "website_url": "http://www.railroadseafood.com",
        "state": "Texas",
        "street": "1214 N Chaparral St"
    },
    {
        "id": "6789f741-4866-4838-bff5-6dceef7d5341",
        "name": "Rails End Beer Company",
        "brewery_type": "micro",
        "address_1": "11625 Reed Ct",
        "address_2": null,
        "address_3": null,
        "city": "Broomfield",
        "state_province": "Colorado",
        "postal_code": "80020-2834",
        "country": "United States",
        "longitude": "-105.0750302",
        "latitude": "39.9084879",
        "phone": "3033538121",
        "website_url": "http://www.railsendbeerco.com",
        "state": "Colorado",
        "street": "11625 Reed Ct"
    },
    {
        "id": "d370a13b-1914-4da8-a6c9-253d6406e0bb",
        "name": "Railside Brewing",
        "brewery_type": "micro",
        "address_1": "309 NE 76th St",
        "address_2": null,
        "address_3": null,
        "city": "Vancouver",
        "state_province": "Washington",
        "postal_code": "98665-8210",
        "country": "United States",
        "longitude": "-122.66809623083395",
        "latitude": "45.67701328155718",
        "phone": "3609078582",
        "website_url": "http://www.railsidebrewing.com",
        "state": "Washington",
        "street": "309 NE 76th St"
    },
    {
        "id": "3af17697-4c50-47bb-9b31-dfb2b5518ea5",
        "name": "Railtown Brewing Co",
        "brewery_type": "micro",
        "address_1": "3595 68th St SE",
        "address_2": null,
        "address_3": null,
        "city": "Dutton",
        "state_province": "Michigan",
        "postal_code": "49316-8503",
        "country": "United States",
        "longitude": "-85.57833065",
        "latitude": "42.84118888",
        "phone": "6168812364",
        "website_url": "http://www.railtownbrewing.com",
        "state": "Michigan",
        "street": "3595 68th St SE"
    },
    {
        "id": "3d2a2d0f-e13a-48d3-a1f3-8158d1538ab9",
        "name": "Raintree Brewing Company",
        "brewery_type": "micro",
        "address_1": "500 Church Street",
        "address_2": null,
        "address_3": null,
        "city": "New Harmony",
        "state_province": "Indiana",
        "postal_code": "47631",
        "country": "United States",
        "longitude": "-87.9348109",
        "latitude": "38.1299262",
        "phone": null,
        "website_url": "http://www.raintreebrewing.com",
        "state": "Indiana",
        "street": "500 Church Street"
    },
    {
        "id": "9e119744-6668-4d12-9105-2e9236bb614e",
        "name": "Rainy Daze Brewing",
        "brewery_type": "micro",
        "address_1": "650 NW BOVELA LN SUITE 3",
        "address_2": null,
        "address_3": null,
        "city": "Poulsbo",
        "state_province": "Washington",
        "postal_code": "98370",
        "country": "United States",
        "longitude": "-122.65739500192855",
        "latitude": "47.73993326175005",
        "phone": "3606921858",
        "website_url": "http://www.rainydazebrewing.com",
        "state": "Washington",
        "street": "650 NW BOVELA LN SUITE 3"
    },
    {
        "id": "d8572428-9a8a-4087-8b6a-d815d63698f4",
        "name": "Raised Grain Brewing Company",
        "brewery_type": "brewpub",
        "address_1": "2244 W Bluemound Rd Ste E",
        "address_2": null,
        "address_3": null,
        "city": "Waukesha",
        "state_province": "Wisconsin",
        "postal_code": "53186-2921",
        "country": "United States",
        "longitude": null,
        "latitude": null,
        "phone": null,
        "website_url": null,
        "state": "Wisconsin",
        "street": "2244 W Bluemound Rd Ste E"
    },
    {
        "id": "cd1f1a39-af96-4e8a-a863-93e5ae52624b",
        "name": "Raleigh Brewing Company",
        "brewery_type": "micro",
        "address_1": "3709 Neil St",
        "address_2": null,
        "address_3": null,
        "city": "Raleigh",
        "state_province": "North Carolina",
        "postal_code": "27607-5415",
        "country": "United States",
        "longitude": "-78.6875149",
        "latitude": "35.7931167",
        "phone": "9194009086",
        "website_url": "http://www.raleighbrewingcompany.com",
        "state": "North Carolina",
        "street": "3709 Neil St"
    },
    {
        "id": "5806ef06-a300-4a88-820e-f14e0c290794",
        "name": "Rally King Brewing",
        "brewery_type": "micro",
        "address_1": "1624 S Lemay Ave Unit 4",
        "address_2": null,
        "address_3": null,
        "city": "Fort Collins",
        "state_province": "Colorado",
        "postal_code": "80525-1188",
        "country": "United States",
        "longitude": null,
        "latitude": null,
        "phone": "9705688936",
        "website_url": "http://www.rallykingbrewing.com",
        "state": "Colorado",
        "street": "1624 S Lemay Ave Unit 4"
    },
    {
        "id": "7a59af26-0bfc-451f-8606-40e2653944bd",
        "name": "RAM Restaurant and Brewery - Boise",
        "brewery_type": "brewpub",
        "address_1": "709 E Park Blvd",
        "address_2": null,
        "address_3": null,
        "city": "Boise",
        "state_province": "Idaho",
        "postal_code": "83712-7715",
        "country": "United States",
        "longitude": null,
        "latitude": null,
        "phone": "2083452929",
        "website_url": "http://www.theram.com",
        "state": "Idaho",
        "street": "709 E Park Blvd"
    },
    {
        "id": "a12fde89-9b18-4f5b-8347-93709903231e",
        "name": "RAM Restaurant and Brewery - Clackamas",
        "brewery_type": "brewpub",
        "address_1": "9073 SE Sunnyside Rd",
        "address_2": null,
        "address_3": null,
        "city": "Clackamas",
        "state_province": "Oregon",
        "postal_code": "97015-9759",
        "country": "United States",
        "longitude": "-122.5715994",
        "latitude": "45.43365785",
        "phone": "5036591282",
        "website_url": null,
        "state": "Oregon",
        "street": "9073 SE Sunnyside Rd"
    },
    {
        "id": "429297ab-f39b-40ee-a033-dbb560da0b3e",
        "name": "RAM Restaurant and Brewery - Indianapolis",
        "brewery_type": "brewpub",
        "address_1": "140 S Illinois St",
        "address_2": null,
        "address_3": null,
        "city": "Indianapolis",
        "state_province": "Indiana",
        "postal_code": "46204",
        "country": "United States",
        "longitude": "-86.16050947",
        "latitude": "39.76475755",
        "phone": "3179559900",
        "website_url": "http://www.theram.com",
        "state": "Indiana",
        "street": "140 S Illinois St"
    },
    {
        "id": "f20913bd-86c4-4771-b1ab-4a5252573efb",
        "name": "RAM Restaurant and Brewery - Lakewood",
        "brewery_type": "brewpub",
        "address_1": "10019 59th Ave SW",
        "address_2": null,
        "address_3": null,
        "city": "Lakewood",
        "state_province": "Washington",
        "postal_code": "98499-2757",
        "country": "United States",
        "longitude": "-122.5156132",
        "latitude": "47.16601043",
        "phone": "2535843191",
        "website_url": "http://www.theram.com",
        "state": "Washington",
        "street": "10019 59th Ave SW"
    },
    {
        "id": "0fbec903-d1d0-4d45-85b8-8d792c63600e",
        "name": "RAM Restaurant and Brewery - Medford",
        "brewery_type": "brewpub",
        "address_1": "165 Rossanley Dr",
        "address_2": null,
        "address_3": null,
        "city": "Medford",
        "state_province": "Oregon",
        "postal_code": "97501-1777",
        "country": "United States",
        "longitude": "-122.8832971",
        "latitude": "42.343116",
        "phone": "4582259816",
        "website_url": null,
        "state": "Oregon",
        "street": "165 Rossanley Dr"
    },
    {
        "id": "38f79ca2-6c0d-4e65-948c-53829daa2f6a",
        "name": "RAM Restaurant and Brewery - Production",
        "brewery_type": "micro",
        "address_1": "5001 S Washington St",
        "address_2": null,
        "address_3": null,
        "city": "Tacoma",
        "state_province": "Washington",
        "postal_code": "98409-2828",
        "country": "United States",
        "longitude": "-122.48489",
        "latitude": "47.211482",
        "phone": "2534747465",
        "website_url": "http://www.theram.com",
        "state": "Washington",
        "street": "5001 S Washington St"
    },
    {
        "id": "f4db78ff-2256-477c-bce3-fe41d215a66e",
        "name": "RAM Restaurant and Brewery - Puyallup South Hill",
        "brewery_type": "brewpub",
        "address_1": "103 35th Ave SE",
        "address_2": null,
        "address_3": null,
        "city": "Puyallup",
        "state_province": "Washington",
        "postal_code": "98374-1231",
        "country": "United States",
        "longitude": "-122.292785",
        "latitude": "47.15857071",
        "phone": "2538413317",
        "website_url": "http://www.theram.com",
        "state": "Washington",
        "street": "103 35th Ave SE"
    },
    {
        "id": "f37404d3-d3b1-4ace-b273-8c25620e8276",
        "name": "RAM Restaurant and Brewery - Salem",
        "brewery_type": "brewpub",
        "address_1": "515 12th St SE",
        "address_2": null,
        "address_3": null,
        "city": "Salem",
        "state_province": "Oregon",
        "postal_code": "97301-4034",
        "country": "United States",
        "longitude": "-123.0292121",
        "latitude": "44.932777",
        "phone": "5033631904",
        "website_url": "http://www.theram.com",
        "state": "Oregon",
        "street": "515 12th St SE"
    },
    {
        "id": "3d1df8eb-6d29-4228-9d0c-75e1a2b8b6de",
        "name": "RAM Restaurant and Brewery - Schaumburg",
        "brewery_type": "brewpub",
        "address_1": "1901 McConnor Pkwy",
        "address_2": null,
        "address_3": null,
        "city": "Schaumburg",
        "state_province": "Illinois",
        "postal_code": "60173-4389",
        "country": "United States",
        "longitude": null,
        "latitude": null,
        "phone": "8475178791",
        "website_url": "http://www.theram.com",
        "state": "Illinois",
        "street": "1901 McConnor Pkwy"
    },
    {
        "id": "2ad22e5f-66ea-4213-a8a5-cceaaae97f04",
        "name": "RAM Restaurant and Brewery - Seattle",
        "brewery_type": "brewpub",
        "address_1": "2650 NE University Village St",
        "address_2": null,
        "address_3": null,
        "city": "Seattle",
        "state_province": "Washington",
        "postal_code": "98105-5023",
        "country": "United States",
        "longitude": "-122.2980609",
        "latitude": "47.6641459",
        "phone": "2065253565",
        "website_url": "http://www.theram.com",
        "state": "Washington",
        "street": "2650 NE University Village St"
    },
    {
        "id": "34f9330a-5f6e-487b-8328-4642ab980625",
        "name": "RAM Restaurant and Brewery - Tacoma",
        "brewery_type": "brewpub",
        "address_1": "3001 Ruston Way",
        "address_2": null,
        "address_3": null,
        "city": "Tacoma",
        "state_province": "Washington",
        "postal_code": "98402-5306",
        "country": "United States",
        "longitude": "-122.474793",
        "latitude": "47.2797382",
        "phone": "2537567886",
        "website_url": "http://www.theram.com",
        "state": "Washington",
        "street": "3001 Ruston Way"
    },
    {
        "id": "e8b9b8b7-b7b7-4cce-a440-e774f4a5c90f",
        "name": "RAM Restaurant and Brewery - Wheeling",
        "brewery_type": "brewpub",
        "address_1": "700 N Milwaukee Ave",
        "address_2": null,
        "address_3": null,
        "city": "Wheeling",
        "state_province": "Illinois",
        "postal_code": "60090-3026",
        "country": "United States",
        "longitude": "-87.9155543",
        "latitude": "42.1541156",
        "phone": "8475201222",
        "website_url": "http://www.theram.com",
        "state": "Illinois",
        "street": "700 N Milwaukee Ave"
    },
    {
        "id": "8d25dc57-b983-42f7-9829-9db8481ac10e",
        "name": "RAM Restaurant and Brewery- Northgate",
        "brewery_type": "closed",
        "address_1": "401 NE Northgate Way Spc 1102",
        "address_2": null,
        "address_3": null,
        "city": "Seattle",
        "state_province": "Washington",
        "postal_code": "98125-8538",
        "country": "United States",
        "longitude": "-122.32671368843619",
        "latitude": "47.707607904203286",
        "phone": "2063648000",
        "website_url": "http://www.theram.com",
        "state": "Washington",
        "street": "401 NE Northgate Way Spc 1102"
    },
    {
        "id": "5517b5d0-3406-4ce2-9a6e-af552695dfc0",
        "name": "Ramblin Reds Brewing Company",
        "brewery_type": "brewpub",
        "address_1": "1493 N Shoop Ave Unit A",
        "address_2": null,
        "address_3": null,
        "city": "Wauseon",
        "state_province": "Ohio",
        "postal_code": "43567-2801",
        "country": "United States",
        "longitude": null,
        "latitude": null,
        "phone": "4193352000",
        "website_url": "http://www.northriverbrewingco.com",
        "state": "Ohio",
        "street": "1493 N Shoop Ave Unit A"
    },
    {
        "id": "a2479685-7402-413d-8398-357db4a5aed8",
        "name": "Ramskeller",
        "brewery_type": "planning",
        "address_1": null,
        "address_2": null,
        "address_3": null,
        "city": "Fort Collins",
        "state_province": "Colorado",
        "postal_code": "80523-0001",
        "country": "United States",
        "longitude": null,
        "latitude": null,
        "phone": "9704911055",
        "website_url": null,
        "state": "Colorado",
        "street": null
    },
    {
        "id": "9e9b2679-fc12-4095-b401-198f4a444525",
        "name": "Rancho De Lomi Brewing",
        "brewery_type": "planning",
        "address_1": null,
        "address_2": null,
        "address_3": null,
        "city": "Laporte",
        "state_province": "Colorado",
        "postal_code": "80535-3021",
        "country": "United States",
        "longitude": null,
        "latitude": null,
        "phone": "4156067246",
        "website_url": null,
        "state": "Colorado",
        "street": null
    },
    {
        "id": "644312ac-6c8f-4cbb-b712-03f54f1223c3",
        "name": "Randolph Beer Dumbo",
        "brewery_type": "brewpub",
        "address_1": "77 Sands St",
        "address_2": null,
        "address_3": null,
        "city": "Brooklyn",
        "state_province": "New York",
        "postal_code": "11201-1431",
        "country": "United States",
        "longitude": "-73.987503",
        "latitude": "40.70005509",
        "phone": "7182983331",
        "website_url": "http://www.randolphbeer.com",
        "state": "New York",
        "street": "77 Sands St"
    },
    {
        "id": "7a0e79f9-4cb5-4225-8742-46689b054269",
        "name": "Random Precision Brewing Company",
        "brewery_type": "micro",
        "address_1": "2365 W Dublin Granville Rd",
        "address_2": null,
        "address_3": null,
        "city": "Columbus",
        "state_province": "Ohio",
        "postal_code": "43235-2700",
        "country": "United States",
        "longitude": "-83.05232",
        "latitude": "40.090144",
        "phone": "6143893864",
        "website_url": "http://www.randomprecisionbrewing.com",
        "state": "Ohio",
        "street": "2365 W Dublin Granville Rd"
    },
    {
        "id": "e62e68b4-43bb-473c-a79e-cc0e68e51b50",
        "name": "Random Row Brewing Co.",
        "brewery_type": "micro",
        "address_1": "608 Preston Ave",
        "address_2": null,
        "address_3": null,
        "city": "Charlottesville",
        "state_province": "Virginia",
        "postal_code": "22903-4566",
        "country": "United States",
        "longitude": "-78.48712033",
        "latitude": "38.03470505",
        "phone": "4342848466",
        "website_url": "http://www.randomrow.com",
        "state": "Virginia",
        "street": "608 Preston Ave"
    },
    {
        "id": "b3ffcb37-d39e-4294-a09e-0dcd8130725c",
        "name": "Raney Cellars",
        "brewery_type": "brewpub",
        "address_1": "11 Manor Ave",
        "address_2": null,
        "address_3": null,
        "city": "Millersville",
        "state_province": "Pennsylvania",
        "postal_code": "17551",
        "country": "United States",
        "longitude": null,
        "latitude": null,
        "phone": "7175845085",
        "website_url": "http://raneycellarsbrewing.com",
        "state": "Pennsylvania",
        "street": "11 Manor Ave"
    },
    {
        "id": "9e8c2604-e9ac-4348-9f3b-3c83f7fa3599",
        "name": "Ranger Creek Brewery",
        "brewery_type": "micro",
        "address_1": "4834 Whirlwind Dr Ste 2",
        "address_2": null,
        "address_3": null,
        "city": "San Antonio",
        "state_province": "Texas",
        "postal_code": "78217-3740",
        "country": "United States",
        "longitude": null,
        "latitude": null,
        "phone": "8329693800",
        "website_url": "http://www.drinkrangercreek.com",
        "state": "Texas",
        "street": "4834 Whirlwind Dr Ste 2"
    },
    {
        "id": "fa812afd-8652-4cd9-b5d5-af26b115dfdd",
        "name": "R\u00e2\u0080\u0099Noggin Brewing",
        "brewery_type": "micro",
        "address_1": "6521 120th Ave",
        "address_2": null,
        "address_3": null,
        "city": "Kenosha",
        "state_province": "Wisconsin",
        "postal_code": "53142",
        "country": "United States",
        "longitude": "-87.9532178",
        "latitude": "42.57624125",
        "phone": "2629601298",
        "website_url": "http://www.rnogginbrewing.com",
        "state": "Wisconsin",
        "street": "6521 120th Ave"
    },
    {
        "id": "d8a3c95b-24ae-4c7b-bb11-511ef1814c38",
        "name": "Rants And Raves Brewery",
        "brewery_type": "brewpub",
        "address_1": "308 N Jackson St",
        "address_2": null,
        "address_3": null,
        "city": "Moscow",
        "state_province": "Idaho",
        "postal_code": "83843-2065",
        "country": "United States",
        "longitude": "-117.0027808",
        "latitude": "46.7344955",
        "phone": "2085964061",
        "website_url": "https://www.rantsravesbrewery.com",
        "state": "Idaho",
        "street": "308 N Jackson St"
    },
    {
        "id": "df8f790d-c35b-4564-8aa0-d03f1c7594f7",
        "name": "Rapp Brewing Company",
        "brewery_type": "micro",
        "address_1": "10930 Endeavour Way Ste C",
        "address_2": null,
        "address_3": null,
        "city": "Seminole",
        "state_province": "Florida",
        "postal_code": "33777-1632",
        "country": "United States",
        "longitude": null,
        "latitude": null,
        "phone": "7276927912",
        "website_url": "http://www.rapp.beer",
        "state": "Florida",
        "street": "10930 Endeavour Way Ste C"
    },
    {
        "id": "85466615-ba76-4f5b-830d-d1ee300bf38a",
        "name": "Rapp's Barren Brewing Company",
        "brewery_type": "micro",
        "address_1": "1343 E 9th St",
        "address_2": null,
        "address_3": null,
        "city": "Mountain Home",
        "state_province": "Arkansas",
        "postal_code": "72653-5050",
        "country": "United States",
        "longitude": "-92.3599724",
        "latitude": "36.3326432",
        "phone": "8704247288",
        "website_url": "http://www.rappsbarrenbrewing.com",
        "state": "Arkansas",
        "street": "1343 E 9th St"
    },
    {
        "id": "1084cdaa-c536-42c0-a2c6-20c9f0253aed",
        "name": "Rapscallion Ales",
        "brewery_type": "micro",
        "address_1": "5 Strawberry Hill Rd",
        "address_2": null,
        "address_3": null,
        "city": "Acton",
        "state_province": "Massachusetts",
        "postal_code": "01720-5706",
        "country": "United States",
        "longitude": "-71.41585461",
        "latitude": "42.4919605",
        "phone": "5083477500",
        "website_url": "http://www.drinkrapscallion.com",
        "state": "Massachusetts",
        "street": "5 Strawberry Hill Rd"
    },
    {
        "id": "7ceade71-eaf6-412e-9dcb-11ef623dc26d",
        "name": "Raquette River Brewing",
        "brewery_type": "micro",
        "address_1": "11 Balsam St # 2",
        "address_2": null,
        "address_3": null,
        "city": "Tupper Lake",
        "state_province": "New York",
        "postal_code": "12986-1033",
        "country": "United States",
        "longitude": "-74.48652145",
        "latitude": "44.24347376",
        "phone": "5183595219",
        "website_url": "http://www.raquetteriverbrewing.com",
        "state": "New York",
        "street": "11 Balsam St # 2"
    },
    {
        "id": "9d404fb4-ccce-4f36-80f1-abcb08db1c7a",
        "name": "RAR Brewing",
        "brewery_type": "proprietor",
        "address_1": "504 Poplar St",
        "address_2": null,
        "address_3": null,
        "city": "Cambridge",
        "state_province": "Maryland",
        "postal_code": "21613-1834",
        "country": "United States",
        "longitude": "-76.0774552",
        "latitude": "38.5702289",
        "phone": "4107257922",
        "website_url": "http://www.rarbrewing.com",
        "state": "Maryland",
        "street": "504 Poplar St"
    },
    {
        "id": "305b584c-df57-4c6f-98d2-491736bbe7e9",
        "name": "Rare Bird Brewpub",
        "brewery_type": "brewpub",
        "address_1": "229 Lake Ave",
        "address_2": null,
        "address_3": null,
        "city": "Traverse City",
        "state_province": "Michigan",
        "postal_code": "49684-2532",
        "country": "United States",
        "longitude": "-85.61932337",
        "latitude": "44.75978039",
        "phone": "2319432053",
        "website_url": "http://rarebirdbrewpub.com",
        "state": "Michigan",
        "street": "229 Lake Ave"
    },
    {
        "id": "a9b86c63-e7f6-42c6-b2a4-5e508b93da49",
        "name": "Rare Form Brewing",
        "brewery_type": "micro",
        "address_1": "90 Congress St",
        "address_2": null,
        "address_3": null,
        "city": "Troy",
        "state_province": "New York",
        "postal_code": "12180-4123",
        "country": "United States",
        "longitude": "-73.6899808",
        "latitude": "42.7286018",
        "phone": "5183264303",
        "website_url": "http://www.rareformbrewing.com",
        "state": "New York",
        "street": "90 Congress St"
    },
    {
        "id": "a54bd706-4656-404b-91a2-b95d0f939741",
        "name": "Raritan Bay Brewing, LLC",
        "brewery_type": "micro",
        "address_1": "32 Church Street",
        "address_2": null,
        "address_3": null,
        "city": "Keansburg",
        "state_province": "New Jersey",
        "postal_code": "07734",
        "country": "United States",
        "longitude": "-74.131668",
        "latitude": "40.441664",
        "phone": null,
        "website_url": "http://raritanbaybrewing.com",
        "state": "New Jersey",
        "street": "32 Church Street"
    },
    {
        "id": "59be3ba3-38aa-4ec0-9d2f-97256dca012e",
        "name": "Rascals Brewing Company",
        "brewery_type": "brewpub",
        "address_1": "Goldenbridge Estate",
        "address_2": "Tyrconnell Rd",
        "address_3": null,
        "city": "Inchicore",
        "state_province": "Dublin",
        "postal_code": "D08 HF68",
        "country": "Ireland",
        "longitude": "-6.3262538",
        "latitude": "53.3361014",
        "phone": "35315382051",
        "website_url": "https://rascalsbrewing.com/",
        "state": "Dublin",
        "street": "Goldenbridge Estate"
    },
    {
        "id": "948ff9bf-8703-448e-897e-51ca8dc71d5a",
        "name": "Ratchet Brewery Salem",
        "brewery_type": "brewpub",
        "address_1": "2701 22nd St SE",
        "address_2": null,
        "address_3": null,
        "city": "Salem",
        "state_province": "Oregon",
        "postal_code": "97302-1553",
        "country": "United States",
        "longitude": "-123.0173762",
        "latitude": "44.91418158",
        "phone": "5035809864",
        "website_url": "https://ratchetbrewery.com",
        "state": "Oregon",
        "street": "2701 22nd St SE"
    },
    {
        "id": "5316786e-711d-485c-a179-40106341c9d5",
        "name": "Ratchet Brewery Silverton",
        "brewery_type": "brewpub",
        "address_1": "990 North First Street",
        "address_2": null,
        "address_3": null,
        "city": "Silverton",
        "state_province": "Oregon",
        "postal_code": "97381",
        "country": "United States",
        "longitude": "-122.7845824",
        "latitude": "45.01410457",
        "phone": "5038744677",
        "website_url": "https://ratchetbrewery.com",
        "state": "Oregon",
        "street": "990 North First Street"
    },
    {
        "id": "90ea24ab-7f6b-4961-95ee-496ba24e62f3",
        "name": "Ratio Beerworks",
        "brewery_type": "micro",
        "address_1": "2920 Larimer St",
        "address_2": null,
        "address_3": null,
        "city": "Denver",
        "state_province": "Colorado",
        "postal_code": "80205-2309",
        "country": "United States",
        "longitude": "-104.9812181",
        "latitude": "39.7615104",
        "phone": "3102669264",
        "website_url": "http://ratiobeerworks.com",
        "state": "Colorado",
        "street": "2920 Larimer St"
    },
    {
        "id": "d58fc03d-9801-45da-8df3-1e884402c2a8",
        "name": "Rattlesnake Mountain Brewery / Kimo's Restaurant",
        "brewery_type": "brewpub",
        "address_1": "1250 Columbia Center Blvd",
        "address_2": null,
        "address_3": null,
        "city": "Richland",
        "state_province": "Washington",
        "postal_code": "99352-4839",
        "country": "United States",
        "longitude": "-119.2234822",
        "latitude": "46.22504543",
        "phone": "5097835747",
        "website_url": "http://www.rattlesnakemountainbrewery.com",
        "state": "Washington",
        "street": "1250 Columbia Center Blvd"
    },
    {
        "id": "07411ff4-acb5-43d5-a079-9541b41d9793",
        "name": "Ravenna Brewing Company",
        "brewery_type": "micro",
        "address_1": "5408 26th Ave NE",
        "address_2": null,
        "address_3": null,
        "city": "Seattle",
        "state_province": "Washington",
        "postal_code": "98105-3137",
        "country": "United States",
        "longitude": "-122.299162",
        "latitude": "47.6682272",
        "phone": "2067438450",
        "website_url": "http://www.ravennabrewing.com",
        "state": "Washington",
        "street": "5408 26th Ave NE"
    },
    {
        "id": "f1f6a6cd-33f5-4675-9d9d-21ed6c823eab",
        "name": "Ravenous Brewing Company",
        "brewery_type": "micro",
        "address_1": "10 Industrial Rd",
        "address_2": null,
        "address_3": null,
        "city": "Cumberland",
        "state_province": "Rhode Island",
        "postal_code": "02864",
        "country": "United States",
        "longitude": "-71.401044",
        "latitude": "41.953531",
        "phone": "4012165331",
        "website_url": "http://www.ravenousbrew.com",
        "state": "Rhode Island",
        "street": "10 Industrial Rd"
    },
    {
        "id": "1ffcb6b0-1702-4b14-ad9a-6d1342719fd7",
        "name": "Ravinia Brewing Company",
        "brewery_type": "proprietor",
        "address_1": "957 Judson Ave",
        "address_2": null,
        "address_3": null,
        "city": "Highland Park",
        "state_province": "Illinois",
        "postal_code": "60035-4728",
        "country": "United States",
        "longitude": "-87.784735",
        "latitude": "42.169955",
        "phone": "8472178403",
        "website_url": "http://www.raviniabrewing.com",
        "state": "Illinois",
        "street": "957 Judson Ave"
    },
    {
        "id": "e7e2bd8c-995b-4268-bb5b-4b733127b9f0",
        "name": "Raw Deal",
        "brewery_type": "brewpub",
        "address_1": "603 Broadway St S",
        "address_2": null,
        "address_3": null,
        "city": "Menomonie",
        "state_province": "Wisconsin",
        "postal_code": "54751-2457",
        "country": "United States",
        "longitude": "-91.9298545",
        "latitude": "44.8773142",
        "phone": "7152313255",
        "website_url": "http://www.rawdealwi.weebly.com",
        "state": "Wisconsin",
        "street": "603 Broadway St S"
    },
    {
        "id": "471962d2-01aa-46e4-aea7-fa635a2ae107",
        "name": "Reach Break Brewing",
        "brewery_type": "micro",
        "address_1": "1343 Duane St",
        "address_2": null,
        "address_3": null,
        "city": "Astoria",
        "state_province": "Oregon",
        "postal_code": "97103-3917",
        "country": "United States",
        "longitude": "-123.8289931",
        "latitude": "46.18836741",
        "phone": "5034680743",
        "website_url": null,
        "state": "Oregon",
        "street": "1343 Duane St"
    },
    {
        "id": "c960bed4-d36d-4f6c-b41b-c7483f70cece",
        "name": "Reads Landing Brewing Co",
        "brewery_type": "brewpub",
        "address_1": "70555 202nd Ave",
        "address_2": null,
        "address_3": null,
        "city": "Reads Landing",
        "state_province": "Minnesota",
        "postal_code": "55968-6842",
        "country": "United States",
        "longitude": null,
        "latitude": null,
        "phone": "6515604777",
        "website_url": "http://www.rlbrewingco.com",
        "state": "Minnesota",
        "street": "70555 202nd Ave"
    },
    {
        "id": "1f8b4200-5b3d-4b9f-b6a9-e10f29aec438",
        "name": "Real Ale Brewing Co",
        "brewery_type": "regional",
        "address_1": "231 San Saba Ct",
        "address_2": null,
        "address_3": null,
        "city": "Blanco",
        "state_province": "Texas",
        "postal_code": "78606-4810",
        "country": "United States",
        "longitude": "-98.4128525",
        "latitude": "30.113319",
        "phone": "8308332534",
        "website_url": "http://www.realalebrewing.com",
        "state": "Texas",
        "street": "231 San Saba Ct"
    },
    {
        "id": "35abe7a1-e899-427e-9aef-57ac4438a30b",
        "name": "Real McCoy Beer Co.",
        "brewery_type": "micro",
        "address_1": "20 Hallwood Rd Unit C",
        "address_2": null,
        "address_3": null,
        "city": "Delmar",
        "state_province": "New York",
        "postal_code": "12054-1925",
        "country": "United States",
        "longitude": null,
        "latitude": null,
        "phone": "5186989082",
        "website_url": "http://www.therealmccoybeerco.com",
        "state": "New York",
        "street": "20 Hallwood Rd Unit C"
    },
    {
        "id": "ad7033af-1756-451e-a858-e5d5f19e701f",
        "name": "Reason Beer",
        "brewery_type": "micro",
        "address_1": "1180 Seminole Trl Ste 290",
        "address_2": null,
        "address_3": null,
        "city": "Charlottesville",
        "state_province": "Virginia",
        "postal_code": "22901-5713",
        "country": "United States",
        "longitude": "-78.486033",
        "latitude": "38.06792831",
        "phone": "4342494572",
        "website_url": "http://www.reasonbeer.com",
        "state": "Virginia",
        "street": "1180 Seminole Trl Ste 290"
    },
    {
        "id": "b5a6d620-d22d-4e5a-ab9e-33cc7d66b5a8",
        "name": "Reaver Beach Brewing Co",
        "brewery_type": "micro",
        "address_1": "1505 Taylor Farm Rd",
        "address_2": null,
        "address_3": null,
        "city": "Virginia Beach",
        "state_province": "Virginia",
        "postal_code": "23453-3099",
        "country": "United States",
        "longitude": null,
        "latitude": null,
        "phone": "7575632337",
        "website_url": "http://www.reaverbeach.com",
        "state": "Virginia",
        "street": "1505 Taylor Farm Rd"
    },
    {
        "id": "02ce2fc9-5898-4c7e-a1df-a91100842068",
        "name": "Rebel Kettle Brewing Company",
        "brewery_type": "brewpub",
        "address_1": "822 E 6th St",
        "address_2": null,
        "address_3": null,
        "city": "Little Rock",
        "state_province": "Arkansas",
        "postal_code": "72202-2606",
        "country": "United States",
        "longitude": "-92.26209196",
        "latitude": "34.74211127",
        "phone": "5013742791",
        "website_url": "http://www.rebelkettle.com",
        "state": "Arkansas",
        "street": "822 E 6th St"
    },
    {
        "id": "a4e94650-bbd6-45f5-ba67-b59f9ac661d8",
        "name": "Rebel Toad Brewing Co",
        "brewery_type": "micro",
        "address_1": "425 William St",
        "address_2": null,
        "address_3": null,
        "city": "Corpus Christi",
        "state_province": "Texas",
        "postal_code": "78401-2538",
        "country": "United States",
        "longitude": "-97.3960541",
        "latitude": "27.7946329",
        "phone": "5122211267",
        "website_url": "http://www.rebeltoadbrewing.com",
        "state": "Texas",
        "street": "425 William St"
    },
    {
        "id": "03fb287c-df2c-4d22-8e9f-2ab34dd74219",
        "name": "Rebelle Brewing",
        "brewery_type": "planning",
        "address_1": null,
        "address_2": null,
        "address_3": null,
        "city": "Noblesville",
        "state_province": "Indiana",
        "postal_code": "46060",
        "country": "United States",
        "longitude": null,
        "latitude": null,
        "phone": null,
        "website_url": null,
        "state": "Indiana",
        "street": null
    },
    {
        "id": "37b81531-269f-4642-b251-ad9bb9d8f441",
        "name": "Recess Brewing",
        "brewery_type": "micro",
        "address_1": "307 N Main St",
        "address_2": null,
        "address_3": null,
        "city": "Edwardsville",
        "state_province": "Illinois",
        "postal_code": "62025-1615",
        "country": "United States",
        "longitude": "-89.9590501",
        "latitude": "38.81422443",
        "phone": "6186925101",
        "website_url": "http://www.recessbrewing.com",
        "state": "Illinois",
        "street": "307 N Main St"
    },
    {
        "id": "f0adad3f-a28d-403c-ac19-e4e6cb2bcaa0",
        "name": "Reclaimed Rails Brewing Company",
        "brewery_type": "micro",
        "address_1": "101 Main St. SE",
        "address_2": null,
        "address_3": null,
        "city": "Bondurant",
        "state_province": "Iowa",
        "postal_code": "50035-7722",
        "country": "United States",
        "longitude": "-93.461872",
        "latitude": "41.699717",
        "phone": null,
        "website_url": "http://www.reclaimedrailsbrewing.com",
        "state": "Iowa",
        "street": "101 Main St. SE"
    },
    {
        "id": "7e8e9910-3454-4905-a1c2-0b2e5702f195",
        "name": "Reclamation Brewing Company",
        "brewery_type": "brewpub",
        "address_1": "221 S Main St",
        "address_2": null,
        "address_3": null,
        "city": "Butler",
        "state_province": "Pennsylvania",
        "postal_code": "16001-5908",
        "country": "United States",
        "longitude": "-79.89543627",
        "latitude": "40.85876516",
        "phone": "7242820831",
        "website_url": "http://www.reclamationbrewing.com",
        "state": "Pennsylvania",
        "street": "221 S Main St"
    },
    {
        "id": "2d146fa4-968d-452b-b925-a4684094d2e8",
        "name": "Recon Brewing",
        "brewery_type": "brewpub",
        "address_1": "1747 N Main St Ext",
        "address_2": null,
        "address_3": null,
        "city": "Butler",
        "state_province": "Pennsylvania",
        "postal_code": "16001-1327",
        "country": "United States",
        "longitude": null,
        "latitude": null,
        "phone": "7242568747",
        "website_url": "http://www.reconbrewing.com",
        "state": "Pennsylvania",
        "street": "1747 N Main St Ext"
    },
    {
        "id": "b4440f12-2d59-4dc7-bdec-19df793f27b4",
        "name": "Rectory Ales Ltd",
        "brewery_type": "micro",
        "address_1": "Streat Hill",
        "address_2": null,
        "address_3": null,
        "city": "Hassocks",
        "state_province": "West Sussex",
        "postal_code": "BN6 8RP",
        "country": "England",
        "longitude": "-0.080361",
        "latitude": "50.895782",
        "phone": "1273890570",
        "website_url": null,
        "state": "West Sussex",
        "street": "Streat Hill"
    },
    {
        "id": "ce8288fb-5db6-443d-a55c-4a22d5c9cb2d",
        "name": "Red Barn Brewing",
        "brewery_type": "micro",
        "address_1": "2170 Oneida Rd",
        "address_2": null,
        "address_3": null,
        "city": "Danville",
        "state_province": "Vermont",
        "postal_code": "05828-",
        "country": "United States",
        "longitude": "-72.17748576",
        "latitude": "44.39460429",
        "phone": "8026849749",
        "website_url": "http://www.redbarnbrewingvt.com",
        "state": "Vermont",
        "street": "2170 Oneida Rd"
    },
    {
        "id": "80ebf698-3075-4896-b205-cde24a5a2b91",
        "name": "Red Bear Brewing Co",
        "brewery_type": "planning",
        "address_1": null,
        "address_2": null,
        "address_3": null,
        "city": "Washington",
        "state_province": "District of Columbia",
        "postal_code": "20002-3406",
        "country": "United States",
        "longitude": null,
        "latitude": null,
        "phone": "2062997485",
        "website_url": "http://www.redbear.beer",
        "state": "District of Columbia",
        "street": null
    },
    {
        "id": "f8dad557-f4a4-4ca0-ae18-b8b4411ca6ff",
        "name": "Red Bird",
        "brewery_type": "planning",
        "address_1": null,
        "address_2": null,
        "address_3": null,
        "city": "Waltham",
        "state_province": "Massachusetts",
        "postal_code": "02453-5208",
        "country": "United States",
        "longitude": null,
        "latitude": null,
        "phone": "7818915486",
        "website_url": "http://www.redbirdwaltham.com",
        "state": "Massachusetts",
        "street": null
    },
    {
        "id": "cc45c9bd-f7ff-43c4-bb2c-abc7cda31aec",
        "name": "Red Branch Brewing Company / Rabbits Foot Meadery",
        "brewery_type": "micro",
        "address_1": "1246 Birchwood Dr",
        "address_2": null,
        "address_3": null,
        "city": "Sunnyvale",
        "state_province": "California",
        "postal_code": "94089-2205",
        "country": "United States",
        "longitude": "-121.9920827",
        "latitude": "37.40446295",
        "phone": "4087470770",
        "website_url": "http://www.redbranchcider.com",
        "state": "California",
        "street": "1246 Birchwood Dr"
    },
    {
        "id": "d658726b-aedc-4e15-be17-ebaec8b162b9",
        "name": "Red Brick Brewing Co / Atlanta Brewing Co",
        "brewery_type": "micro",
        "address_1": "2323 Defoor Hills Rd NW",
        "address_2": null,
        "address_3": null,
        "city": "Atlanta",
        "state_province": "Georgia",
        "postal_code": "30318-2207",
        "country": "United States",
        "longitude": "-84.43454138",
        "latitude": "33.81830375",
        "phone": "4043555558",
        "website_url": "http://www.atlantabrewing.com",
        "state": "Georgia",
        "street": "2323 Defoor Hills Rd NW"
    },
    {
        "id": "5379e6e8-6ea8-42eb-83d8-31a290e1420d",
        "name": "Red Bus Brewing Company",
        "brewery_type": "micro",
        "address_1": "802 Reading St Ste A",
        "address_2": null,
        "address_3": null,
        "city": "Folsom",
        "state_province": "California",
        "postal_code": "95630-3061",
        "country": "United States",
        "longitude": "-121.1760242",
        "latitude": "38.67092319",
        "phone": "9169857299",
        "website_url": "http://www.redbusbrew.com",
        "state": "California",
        "street": "802 Reading St Ste A"
    },
    {
        "id": "f151a98d-1f85-4cc8-93c1-d58ffaa3f1d0",
        "name": "Red Car Brewery and Restaurant",
        "brewery_type": "brewpub",
        "address_1": "1266 Sartori Ave",
        "address_2": null,
        "address_3": null,
        "city": "Torrance",
        "state_province": "California",
        "postal_code": "90501-2717",
        "country": "United States",
        "longitude": "-118.3161274",
        "latitude": "33.83534411",
        "phone": "3107820222",
        "website_url": "http://www.redcarbrewery.com",
        "state": "California",
        "street": "1266 Sartori Ave"
    },
    {
        "id": "2f29e159-a768-4404-a2b7-63ef157397bc",
        "name": "Red Clay Brewing Company",
        "brewery_type": "micro",
        "address_1": "704 N Railroad Ave",
        "address_2": null,
        "address_3": null,
        "city": "Opelika",
        "state_province": "Alabama",
        "postal_code": "36801-4344",
        "country": "United States",
        "longitude": "-85.37875418",
        "latitude": "32.64939542",
        "phone": "3347375409",
        "website_url": "http://www.redclaybrewingcompany.com",
        "state": "Alabama",
        "street": "704 N Railroad Ave"
    },
    {
        "id": "91b1bfea-a4e2-487f-b290-b234c582ee0c",
        "name": "Red Crow Brewing Company",
        "brewery_type": "micro",
        "address_1": null,
        "address_2": null,
        "address_3": null,
        "city": "Olathe",
        "state_province": "Kansas",
        "postal_code": "66062",
        "country": "United States",
        "longitude": null,
        "latitude": null,
        "phone": "9132473641",
        "website_url": "http://www.redcrowbrew.com",
        "state": "Kansas",
        "street": null
    },
    {
        "id": "eb2a453b-7104-4863-8631-6aa540f1f27e",
        "name": "Red Cypress Brewery",
        "brewery_type": "micro",
        "address_1": "855 E SR 434",
        "address_2": null,
        "address_3": null,
        "city": "Winter Springs",
        "state_province": "Florida",
        "postal_code": "32708-2704",
        "country": "United States",
        "longitude": null,
        "latitude": null,
        "phone": null,
        "website_url": "http://www.redcypressbrewery.com",
        "state": "Florida",
        "street": "855 E SR 434"
    },
    {
        "id": "92cd0320-bce3-42e4-babb-1192bd8bf678",
        "name": "Red Dirt Brewing Co",
        "brewery_type": "planning",
        "address_1": null,
        "address_2": null,
        "address_3": null,
        "city": "Oklahoma City",
        "state_province": "Oklahoma",
        "postal_code": "73120-5133",
        "country": "United States",
        "longitude": null,
        "latitude": null,
        "phone": "4058231632",
        "website_url": null,
        "state": "Oklahoma",
        "street": null
    },
    {
        "id": "a1daf057-072c-4295-ab5c-ea8a668d0bc6",
        "name": "Red Door Brewing Co",
        "brewery_type": "micro",
        "address_1": "1001 Candelaria Rd NE",
        "address_2": null,
        "address_3": null,
        "city": "Albuquerque",
        "state_province": "New Mexico",
        "postal_code": "87107-2115",
        "country": "United States",
        "longitude": "-106.5864617",
        "latitude": "35.1165072",
        "phone": "5056336675",
        "website_url": "http://www.reddoorbrewing.com",
        "state": "New Mexico",
        "street": "1001 Candelaria Rd NE"
    },
    {
        "id": "9bde954f-21f8-4382-960b-302b52411dbb",
        "name": "Red Dragon Brewery",
        "brewery_type": "micro",
        "address_1": "1419 Princess Anne St",
        "address_2": null,
        "address_3": null,
        "city": "Fredericksburg",
        "state_province": "Virginia",
        "postal_code": "22401-3638",
        "country": "United States",
        "longitude": "-77.46312137",
        "latitude": "38.30737927",
        "phone": null,
        "website_url": "http://www.reddragonbrewery.com",
        "state": "Virginia",
        "street": "1419 Princess Anne St"
    },
    {
        "id": "c4f46e22-5527-4998-8e4c-639b0c8dd51e",
        "name": "Red Eye Brewing Co",
        "brewery_type": "brewpub",
        "address_1": "612 Washington St",
        "address_2": null,
        "address_3": null,
        "city": "Wausau",
        "state_province": "Wisconsin",
        "postal_code": "54403-5439",
        "country": "United States",
        "longitude": "-89.6228425",
        "latitude": "44.9588496",
        "phone": "7158437334",
        "website_url": "http://www.redeyebrewing.com",
        "state": "Wisconsin",
        "street": "612 Washington St"
    },
    {
        "id": "f844c251-07b6-48ee-935e-b30c36f12d88",
        "name": "Red Gap Brewing",
        "brewery_type": "micro",
        "address_1": "712 Conrad Hilton Blvd",
        "address_2": null,
        "address_3": null,
        "city": "Cisco",
        "state_province": "Texas",
        "postal_code": "76437-3140",
        "country": "United States",
        "longitude": "-98.97952884",
        "latitude": "32.38826259",
        "phone": "2544334993",
        "website_url": "http://redgapbrewing.com",
        "state": "Texas",
        "street": "712 Conrad Hilton Blvd"
    },
    {
        "id": "9e5331e9-d870-4e23-b41d-d2c18f2228f7",
        "name": "Red Hare Brewing Company",
        "brewery_type": "micro",
        "address_1": "1998 Delk Industrial Blvd SE",
        "address_2": null,
        "address_3": null,
        "city": "Marietta",
        "state_province": "Georgia",
        "postal_code": "30067-8904",
        "country": "United States",
        "longitude": "-84.4957563",
        "latitude": "33.92440825",
        "phone": "6784010600",
        "website_url": "http://www.redharebrewing.com",
        "state": "Georgia",
        "street": "1998 Delk Industrial Blvd SE"
    },
    {
        "id": "df013da2-85d9-44ad-a6ae-1ba6273caa65",
        "name": "Red Hawk Brewing",
        "brewery_type": "micro",
        "address_1": "4504 Bussey Rd",
        "address_2": null,
        "address_3": null,
        "city": "Syracuse",
        "state_province": "New York",
        "postal_code": "13215-8783",
        "country": "United States",
        "longitude": null,
        "latitude": null,
        "phone": "3154915158",
        "website_url": "http://www.redhawkbrewing.com",
        "state": "New York",
        "street": "4504 Bussey Rd"
    },
    {
        "id": "0ea7eb38-71d2-4166-98e3-827be3878d92",
        "name": "Red Hill Brewing Co",
        "brewery_type": "micro",
        "address_1": "21 Union St S",
        "address_2": null,
        "address_3": null,
        "city": "Concord",
        "state_province": "North Carolina",
        "postal_code": "28025-5009",
        "country": "United States",
        "longitude": "-80.5806658",
        "latitude": "35.41030435",
        "phone": "7047842337",
        "website_url": "http://www.redhillbrewing.com",
        "state": "North Carolina",
        "street": "21 Union St S"
    },
    {
        "id": "38944523-1c18-43bd-85fe-176d06f9dd5b",
        "name": "Red Hills Brewing Co",
        "brewery_type": "micro",
        "address_1": "2823 Central Ave Ste 107",
        "address_2": null,
        "address_3": null,
        "city": "Birmingham",
        "state_province": "Alabama",
        "postal_code": "35209-2581",
        "country": "United States",
        "longitude": null,
        "latitude": null,
        "phone": "2055822897",
        "website_url": "http://www.redhillsbrew.com",
        "state": "Alabama",
        "street": "2823 Central Ave Ste 107"
    },
    {
        "id": "363cbc24-65e7-4124-9885-4aeb6e40a67f",
        "name": "Red Horn Brewing Co.",
        "brewery_type": "brewpub",
        "address_1": "13010 W Parmer Ln Ste 800",
        "address_2": null,
        "address_3": null,
        "city": "Cedar Park",
        "state_province": "Texas",
        "postal_code": "78613-7369",
        "country": "United States",
        "longitude": null,
        "latitude": null,
        "phone": "5125896152",
        "website_url": "http://www.redhornbrew.com",
        "state": "Texas",
        "street": "13010 W Parmer Ln Ste 800"
    },
    {
        "id": "c0a352b5-37a4-4131-9e41-dc49df52747f",
        "name": "Red Iron Brewing Company",
        "brewery_type": "planning",
        "address_1": null,
        "address_2": null,
        "address_3": null,
        "city": "Lincoln",
        "state_province": "Nebraska",
        "postal_code": "68501",
        "country": "United States",
        "longitude": null,
        "latitude": null,
        "phone": "4028126242",
        "website_url": "http://redironbrewing.com",
        "state": "Nebraska",
        "street": null
    },
    {
        "id": "153f0d04-5f71-4096-ab07-6255c3563b4e",
        "name": "Red Jacket Brewing at Michigan House Cafe",
        "brewery_type": "brewpub",
        "address_1": "300 6th St",
        "address_2": null,
        "address_3": null,
        "city": "Calumet",
        "state_province": "Michigan",
        "postal_code": "49913-1508",
        "country": "United States",
        "longitude": "-88.4535254",
        "latitude": "47.2464521",
        "phone": "9063371910",
        "website_url": "http://www.michiganhousecafe.com/brewpub.html",
        "state": "Michigan",
        "street": "300 6th St"
    },
    {
        "id": "cec54270-d377-44b4-8ca8-d847c204b637",
        "name": "Red Leg Brewing Company",
        "brewery_type": "micro",
        "address_1": "4630 Forge Rd Ste B",
        "address_2": null,
        "address_3": null,
        "city": "Colorado Springs",
        "state_province": "Colorado",
        "postal_code": "80907-3556",
        "country": "United States",
        "longitude": null,
        "latitude": null,
        "phone": "7195983776",
        "website_url": "http://www.redlegbrewingco.com",
        "state": "Colorado",
        "street": "4630 Forge Rd Ste B"
    },
    {
        "id": "4f92d7f1-e3da-4f0d-b4e6-c87c58ba37ea",
        "name": "Red Lodge Ales Brewing Co",
        "brewery_type": "micro",
        "address_1": "1445 N Broadway Ave",
        "address_2": null,
        "address_3": null,
        "city": "Red Lodge",
        "state_province": "Montana",
        "postal_code": "59068-9383",
        "country": "United States",
        "longitude": "-109.2465393",
        "latitude": "45.19727053",
        "phone": "4064464607",
        "website_url": "http://www.redlodgeales.net",
        "state": "Montana",
        "street": "1445 N Broadway Ave"
    },
    {
        "id": "3cc2a24c-bf59-42c0-8f83-371c19d049e9",
        "name": "Red Mountain Brewing",
        "brewery_type": "brewpub",
        "address_1": "400 Main St",
        "address_2": null,
        "address_3": null,
        "city": "Ouray",
        "state_province": "Colorado",
        "postal_code": "81427",
        "country": "United States",
        "longitude": "-107.671615",
        "latitude": "38.020713",
        "phone": "9703259858",
        "website_url": "http://www.redmountainbrewingouray.com",
        "state": "Colorado",
        "street": "400 Main St"
    },
    {
        "id": "1b22d595-585c-4818-8e8d-6e62b5ca1d2c",
        "name": "Red Oak Brewing Co",
        "brewery_type": "regional",
        "address_1": "6901 Konica Dr",
        "address_2": null,
        "address_3": null,
        "city": "Whitsett",
        "state_province": "North Carolina",
        "postal_code": "27377-9787",
        "country": "United States",
        "longitude": null,
        "latitude": null,
        "phone": "3362993649",
        "website_url": "http://www.redoakbrewery.com",
        "state": "North Carolina",
        "street": "6901 Konica Dr"
    },
    {
        "id": "76487dbc-aa7e-45d0-b20a-f8f8642f49f9",
        "name": "Red River Brewing Co",
        "brewery_type": "micro",
        "address_1": "1200 Marshall St Ste 500",
        "address_2": null,
        "address_3": null,
        "city": "Shreveport",
        "state_province": "Louisiana",
        "postal_code": "71101-3936",
        "country": "United States",
        "longitude": null,
        "latitude": null,
        "phone": "3183174110",
        "website_url": "http://www.redriverbeer.com",
        "state": "Louisiana",
        "street": "1200 Marshall St Ste 500"
    },
    {
        "id": "98ed229d-aac1-48b0-a562-d954e5f742ec",
        "name": "Red River Brewing Company",
        "brewery_type": "brewpub",
        "address_1": "217 W Main St",
        "address_2": null,
        "address_3": null,
        "city": "Red River",
        "state_province": "New Mexico",
        "postal_code": "87558",
        "country": "United States",
        "longitude": null,
        "latitude": null,
        "phone": "5757702519",
        "website_url": "http://www.redriverbrewing.com",
        "state": "New Mexico",
        "street": "217 W Main St"
    },
    {
        "id": "b83a91e0-b33b-40df-97cc-1c1df6da08aa",
        "name": "Red Rock Brewing Co",
        "brewery_type": "brewpub",
        "address_1": "254 S 200 W",
        "address_2": null,
        "address_3": null,
        "city": "Salt Lake City",
        "state_province": "Utah",
        "postal_code": "84101-1801",
        "country": "United States",
        "longitude": "-111.89671",
        "latitude": "40.77487847",
        "phone": "8015217446",
        "website_url": "http://www.redrockbrewing.com",
        "state": "Utah",
        "street": "254 S 200 W"
    },
    {
        "id": "ded0fdf2-f42b-4aa8-b807-83c9f6fa1b58",
        "name": "Red Rock Brewing Co - Production",
        "brewery_type": "micro",
        "address_1": "443 N 400 W",
        "address_2": null,
        "address_3": null,
        "city": "Salt Lake City",
        "state_province": "Utah",
        "postal_code": "84103-1230",
        "country": "United States",
        "longitude": "-111.9029539",
        "latitude": "40.77956659",
        "phone": "8015217446",
        "website_url": null,
        "state": "Utah",
        "street": "443 N 400 W"
    },
    {
        "id": "491bbd2f-da16-42f3-a4a3-b422d5b324b6",
        "name": "Red Shed Brewing Company",
        "brewery_type": "micro",
        "address_1": "817 Butter Bowl Rd",
        "address_2": null,
        "address_3": null,
        "city": "Cherry Valley",
        "state_province": "New York",
        "postal_code": "13320-3106",
        "country": "United States",
        "longitude": null,
        "latitude": null,
        "phone": "6077316454",
        "website_url": "http://www.redshedbrewing.com",
        "state": "New York",
        "street": "817 Butter Bowl Rd"
    },
    {
        "id": "82f5632c-93f4-43b4-b98b-b33462688c31",
        "name": "Red Shedman Farm Brewery",
        "brewery_type": "micro",
        "address_1": "13601 Glissans Mill Rd",
        "address_2": null,
        "address_3": null,
        "city": "Mount Airy",
        "state_province": "Maryland",
        "postal_code": "21771-8507",
        "country": "United States",
        "longitude": null,
        "latitude": null,
        "phone": "3018315889",
        "website_url": "http://www.redshedman.com",
        "state": "Maryland",
        "street": "13601 Glissans Mill Rd"
    },
    {
        "id": "da6cbd77-a827-4940-8c9c-bc037368f708",
        "name": "Red Silo Brewing Co",
        "brewery_type": "micro",
        "address_1": "118 W 1st St",
        "address_2": null,
        "address_3": null,
        "city": "Cookeville",
        "state_province": "Tennessee",
        "postal_code": "38501-2490",
        "country": "United States",
        "longitude": "-85.50860106",
        "latitude": "36.16535501",
        "phone": "9316512333",
        "website_url": "http://www.redsilo.beer",
        "state": "Tennessee",
        "street": "118 W 1st St"
    },
    {
        "id": "17c75b0f-f416-4ab8-a55f-27eed2cffcce",
        "name": "Red Tandem Brewery",
        "brewery_type": "micro",
        "address_1": "1009 Harbor Blvd",
        "address_2": null,
        "address_3": null,
        "city": "Oxnard",
        "state_province": "California",
        "postal_code": "93035-1131",
        "country": "United States",
        "longitude": "-119.2474328",
        "latitude": "34.2068743",
        "phone": "8058324023",
        "website_url": "http://www.redtandembrewery.com",
        "state": "California",
        "street": "1009 Harbor Blvd"
    },
    {
        "id": "f3fbeb9f-9f53-4d88-b137-44d3472f7af6",
        "name": "Red Truck Beer Company",
        "brewery_type": "planning",
        "address_1": null,
        "address_2": null,
        "address_3": null,
        "city": "Denver",
        "state_province": "Colorado",
        "postal_code": "80216-3612",
        "country": "United States",
        "longitude": null,
        "latitude": null,
        "phone": null,
        "website_url": null,
        "state": "Colorado",
        "street": null
    },
    {
        "id": "78f72432-7c43-4f4b-9eb9-6abadb3e7a07",
        "name": "Red Truck Beer Company Ltd.",
        "brewery_type": "micro",
        "address_1": "1020 E Lincoln Ave",
        "address_2": null,
        "address_3": null,
        "city": "Fort Collins",
        "state_province": "Colorado",
        "postal_code": "80524-2509",
        "country": "United States",
        "longitude": "-105.0584895",
        "latitude": "40.58916845",
        "phone": "6046824733",
        "website_url": null,
        "state": "Colorado",
        "street": "1020 E Lincoln Ave"
    },
    {
        "id": "6ee9898b-1de5-4cd0-8c9e-066b4391ba06",
        "name": "Red Wing Brewing Company",
        "brewery_type": "brewpub",
        "address_1": "1411 Old West Main St",
        "address_2": null,
        "address_3": null,
        "city": "Red Wing",
        "state_province": "Minnesota",
        "postal_code": "55066-2162",
        "country": "United States",
        "longitude": "-92.54698396",
        "latitude": "44.56271063",
        "phone": "6513272200",
        "website_url": "http://www.redwingbrewing.com",
        "state": "Minnesota",
        "street": "1411 Old West Main St"
    },
    {
        "id": "8f85238c-bf90-4c54-b8a8-1469cb5b08a9",
        "name": "Redbeard Brewing Co",
        "brewery_type": "micro",
        "address_1": "120 S Lewis St",
        "address_2": null,
        "address_3": null,
        "city": "Staunton",
        "state_province": "Virginia",
        "postal_code": "24401-4256",
        "country": "United States",
        "longitude": "-79.074515",
        "latitude": "38.147407",
        "phone": "5404303532",
        "website_url": "http://redbeardbrews.com",
        "state": "Virginia",
        "street": "120 S Lewis St"
    },
    {
        "id": "243a4b48-c47d-405e-bffb-2a2a10d30b04",
        "name": "Redemption Alewerks",
        "brewery_type": "brewpub",
        "address_1": "7035 E 96th St Ste K",
        "address_2": null,
        "address_3": null,
        "city": "Indianapolis",
        "state_province": "Indiana",
        "postal_code": "46250-3303",
        "country": "United States",
        "longitude": null,
        "latitude": null,
        "phone": "3173483330",
        "website_url": "http://www.redemptionalewerks.com",
        "state": "Indiana",
        "street": "7035 E 96th St Ste K"
    },
    {
        "id": "7afa7b01-585a-45e5-9d68-843617aa592e",
        "name": "Redgarden Brewery",
        "brewery_type": "brewpub",
        "address_1": "1700 Dogwood St",
        "address_2": null,
        "address_3": null,
        "city": "Louisville",
        "state_province": "Colorado",
        "postal_code": "80027-1102",
        "country": "United States",
        "longitude": "-105.1138827",
        "latitude": "39.9674475",
        "phone": "3036199601",
        "website_url": "http://www.redgardenbrewery.com",
        "state": "Colorado",
        "street": "1700 Dogwood St"
    },
    {
        "id": "cd9739f8-8782-4827-91c8-fcfefdc212fb",
        "name": "Redhook - Cataqua Public House",
        "brewery_type": "regional",
        "address_1": "35 Corporate Dr",
        "address_2": null,
        "address_3": null,
        "city": "Portsmouth",
        "state_province": "New Hampshire",
        "postal_code": "03801-",
        "country": "United States",
        "longitude": "-70.80233269",
        "latitude": "43.08582951",
        "phone": "6034308600",
        "website_url": "http://www.redhook.com",
        "state": "New Hampshire",
        "street": "35 Corporate Dr"
    },
    {
        "id": "8a15b08c-cf17-45ad-aff1-a07804e26e36",
        "name": "Redhook Brewery",
        "brewery_type": "regional",
        "address_1": "714 E Pike St",
        "address_2": null,
        "address_3": null,
        "city": "Seattle",
        "state_province": "Washington",
        "postal_code": "98122-4697",
        "country": "United States",
        "longitude": "-122.3227119",
        "latitude": "47.6144468",
        "phone": "4254833232",
        "website_url": "http://www.redhook.com",
        "state": "Washington",
        "street": "714 E Pike St"
    },
    {
        "id": "f6774aa1-f73e-42d5-bf3b-3f2e3e81b3a6",
        "name": "Redifer Brewing Co",
        "brewery_type": "micro",
        "address_1": "123 E Yakima Ave",
        "address_2": null,
        "address_3": null,
        "city": "Yakima",
        "state_province": "Washington",
        "postal_code": "98901-2696",
        "country": "United States",
        "longitude": "-120.5057229",
        "latitude": "46.60240198",
        "phone": "5094243400",
        "website_url": "http://www.rediferbrewing.com",
        "state": "Washington",
        "street": "123 E Yakima Ave"
    },
    {
        "id": "572a822f-eb09-4d2d-b701-0e179fc91713",
        "name": "Redlight Redlight Beer Parlour and Brewery",
        "brewery_type": "micro",
        "address_1": "2810 Corrine Dr",
        "address_2": null,
        "address_3": null,
        "city": "Orlando",
        "state_province": "Florida",
        "postal_code": "32803-2226",
        "country": "United States",
        "longitude": "-81.34851757",
        "latitude": "28.567899",
        "phone": "4078939832",
        "website_url": "http://www.redlightredlightbeerparlour.com",
        "state": "Florida",
        "street": "2810 Corrine Dr"
    },
    {
        "id": "396f0a00-1910-4667-a65d-79ce19556af7",
        "name": "Redline Brewing Company",
        "brewery_type": "micro",
        "address_1": "5470 Lapeer Rd",
        "address_2": null,
        "address_3": null,
        "city": "Burton",
        "state_province": "Michigan",
        "postal_code": "48509-2235",
        "country": "United States",
        "longitude": "-83.59795244",
        "latitude": "43.01100775",
        "phone": "8102592009",
        "website_url": "http://redlinebrewingcompany.com",
        "state": "Michigan",
        "street": "5470 Lapeer Rd"
    },
    {
        "id": "cdc826d3-05d0-42b1-85c8-3c12724c1ac0",
        "name": "Redwood Brewing Co",
        "brewery_type": "brewpub",
        "address_1": "5304 Gateway Ctr",
        "address_2": null,
        "address_3": null,
        "city": "Flint",
        "state_province": "Michigan",
        "postal_code": "48507-3930",
        "country": "United States",
        "longitude": null,
        "latitude": null,
        "phone": "8102338000",
        "website_url": "http://www.redwoodbrewingco.com",
        "state": "Michigan",
        "street": "5304 Gateway Ctr"
    },
    {
        "id": "71ea6d50-e621-4f6e-b986-dda5fb564167",
        "name": "Redwood Curtain Brewing Co",
        "brewery_type": "micro",
        "address_1": "550 S G St Ste 6",
        "address_2": null,
        "address_3": null,
        "city": "Arcata",
        "state_province": "California",
        "postal_code": "95521-6683",
        "country": "United States",
        "longitude": "-124.0894667",
        "latitude": "40.85730505",
        "phone": "7078267222",
        "website_url": "http://www.redwoodcurtainbrewing.com",
        "state": "California",
        "street": "550 S G St Ste 6"
    },
    {
        "id": "10ae1611-0e26-4195-9a07-9bd852278260",
        "name": "Redwood Curtain Brewing Co",
        "brewery_type": "micro",
        "address_1": "1595 Myrtle Avenue Ste B",
        "address_2": null,
        "address_3": null,
        "city": "Eureka",
        "state_province": "California",
        "postal_code": "95501",
        "country": "United States",
        "longitude": "-124.1363598",
        "latitude": "40.79546264",
        "phone": "7072697143",
        "website_url": "http://www.redwoodcurtainbrewing.com",
        "state": "California",
        "street": "1595 Myrtle Avenue Ste B"
    },
    {
        "id": "cfc4d4d4-7f70-4648-b744-9f397f782dad",
        "name": "Reed City Brewing Company",
        "brewery_type": "brewpub",
        "address_1": "141 W Upton Ave",
        "address_2": null,
        "address_3": null,
        "city": "Reed City",
        "state_province": "Michigan",
        "postal_code": "49677-1129",
        "country": "United States",
        "longitude": "-85.51071976",
        "latitude": "43.875879",
        "phone": "2314654222",
        "website_url": null,
        "state": "Michigan",
        "street": "141 W Upton Ave"
    },
    {
        "id": "a8a965c8-b4d8-4699-b418-ad6cf8d9133e",
        "name": "Reel Brew Co",
        "brewery_type": "closed",
        "address_1": "7037 Laurel Canyon Boulevard",
        "address_2": null,
        "address_3": null,
        "city": "Los Angeles",
        "state_province": "California",
        "postal_code": "91605",
        "country": "United States",
        "longitude": "-118.3973933",
        "latitude": "34.19896605",
        "phone": null,
        "website_url": null,
        "state": "California",
        "street": "7037 Laurel Canyon Boulevard"
    },
    {
        "id": "e5a098bc-3a39-415c-b78d-73eca850b43b",
        "name": "Reel Deel Brewery",
        "brewery_type": "micro",
        "address_1": "Unit 1 Ind Park",
        "address_2": "Knockalegan",
        "address_3": null,
        "city": "Crossmolina",
        "state_province": "Mayo",
        "postal_code": "F26 FA09",
        "country": "Ireland",
        "longitude": "-9.312703",
        "latitude": "54.1008129",
        "phone": "353860779391",
        "website_url": "http://reeldeelbrewery.ie/",
        "state": "Mayo",
        "street": "Unit 1 Ind Park"
    },
    {
        "id": "e92e0af6-5653-4bbc-ab68-1f25ec0c3155",
        "name": "Refined Ale Brewery",
        "brewery_type": "micro",
        "address_1": "2221 S Cedar St",
        "address_2": null,
        "address_3": null,
        "city": "Little Rock",
        "state_province": "Arkansas",
        "postal_code": "72204-5452",
        "country": "United States",
        "longitude": "-92.3184697",
        "latitude": "34.73083447",
        "phone": "5012800556",
        "website_url": "http://www.refinedale.com",
        "state": "Arkansas",
        "street": "2221 S Cedar St"
    },
    {
        "id": "fa38e7a1-3cbe-4dd4-a3c0-5830257c1427",
        "name": "Reformation Brewery",
        "brewery_type": "micro",
        "address_1": "500 Arnold Mill Way Ste A",
        "address_2": null,
        "address_3": null,
        "city": "Woodstock",
        "state_province": "Georgia",
        "postal_code": "30188-6842",
        "country": "United States",
        "longitude": null,
        "latitude": null,
        "phone": "6783410828",
        "website_url": "http://www.reformationbrewery.com",
        "state": "Georgia",
        "street": "500 Arnold Mill Way Ste A"
    },
    {
        "id": "56378cd6-a68b-4a17-8ed9-fdea030f9a1f",
        "name": "Refuge Brewery, Inc.",
        "brewery_type": "micro",
        "address_1": "43040 Rancho Way Ste 200",
        "address_2": null,
        "address_3": null,
        "city": "Temecula",
        "state_province": "California",
        "postal_code": "92590-5400",
        "country": "United States",
        "longitude": "-117.1587817",
        "latitude": "33.50442958",
        "phone": "9515060609",
        "website_url": "http://www.refugebrew.com",
        "state": "California",
        "street": "43040 Rancho Way Ste 200"
    },
    {
        "id": "1a7a4909-e241-43d6-bba6-8631d36a9c78",
        "name": "Reinvention Brewing Co.",
        "brewery_type": "micro",
        "address_1": "9 N Main St PO Box 57",
        "address_2": null,
        "address_3": null,
        "city": "Manchester",
        "state_province": "New York",
        "postal_code": "14504-9713",
        "country": "United States",
        "longitude": null,
        "latitude": null,
        "phone": "5852897309",
        "website_url": "http://www.reinventionbrewing.com",
        "state": "New York",
        "street": "9 N Main St PO Box 57"
    },
    {
        "id": "4a65c3de-531c-4190-a9d8-d61612593d13",
        "name": "Rek-Lis Brewing Company",
        "brewery_type": "micro",
        "address_1": "2085 Main Street",
        "address_2": null,
        "address_3": null,
        "city": "Bethlehem",
        "state_province": "New Hampshire",
        "postal_code": "03574",
        "country": "United States",
        "longitude": "-71.687376",
        "latitude": "44.28042825",
        "phone": "6033701932",
        "website_url": "http://tbd",
        "state": "New Hampshire",
        "street": "2085 Main Street"
    },
    {
        "id": "72a60ed2-ef24-4327-9d59-b1b50973be35",
        "name": "Relentless Brewing Co",
        "brewery_type": "micro",
        "address_1": "42030 Avenida Alvarado Ste F",
        "address_2": null,
        "address_3": null,
        "city": "Temecula",
        "state_province": "California",
        "postal_code": "92590-3404",
        "country": "United States",
        "longitude": "-117.1680654",
        "latitude": "33.51260913",
        "phone": "9512969400",
        "website_url": "http://www.relentlessbrewing.com",
        "state": "California",
        "street": "42030 Avenida Alvarado Ste F"
    },
    {
        "id": "c6e4a5e5-5b10-40ed-9621-11bf1e73fd1a",
        "name": "Relic Brewing",
        "brewery_type": "micro",
        "address_1": "95 Whiting St Unit B",
        "address_2": null,
        "address_3": null,
        "city": "Plainville",
        "state_province": "Connecticut",
        "postal_code": "06062-2842",
        "country": "United States",
        "longitude": null,
        "latitude": null,
        "phone": null,
        "website_url": null,
        "state": "Connecticut",
        "street": "95 Whiting St Unit B"
    },
    {
        "id": "317c75e5-7628-4d17-b683-d734c225349c",
        "name": "Remedy Brewing Company",
        "brewery_type": "micro",
        "address_1": "401 E 8th St #120",
        "address_2": null,
        "address_3": null,
        "city": "Sioux Falls",
        "state_province": "South Dakota",
        "postal_code": "57103-7012",
        "country": "United States",
        "longitude": "-96.72223225",
        "latitude": "43.54791493",
        "phone": "6052716193",
        "website_url": "http://www.remedybrewco.com",
        "state": "South Dakota",
        "street": "401 E 8th St #120"
    },
    {
        "id": "8fe6ed9e-872b-46dd-a33d-1a2661bb1fbf",
        "name": "Remnant Brewing",
        "brewery_type": "micro",
        "address_1": "2 Bow Market Way",
        "address_2": null,
        "address_3": null,
        "city": "Somerville",
        "state_province": "Massachusetts",
        "postal_code": "02143",
        "country": "United States",
        "longitude": null,
        "latitude": null,
        "phone": null,
        "website_url": "http://www.remnantsomerville.com",
        "state": "Massachusetts",
        "street": "2 Bow Market Way"
    },
    {
        "id": "20e23a04-49d8-4e74-afd6-f6f03e10489a",
        "name": "Renaissance Brewing Co",
        "brewery_type": "micro",
        "address_1": "1147 S Lewis Ave",
        "address_2": null,
        "address_3": null,
        "city": "Tulsa",
        "state_province": "Oklahoma",
        "postal_code": "74104-3905",
        "country": "United States",
        "longitude": "-95.9578601",
        "latitude": "36.0617778",
        "phone": "9184090551",
        "website_url": "http://www.renaissancebeer.com",
        "state": "Oklahoma",
        "street": "1147 S Lewis Ave"
    },
    {
        "id": "72bfaaf5-2542-45ea-912a-b0b2ed340f06",
        "name": "Rendezvous Junction Brewing Company",
        "brewery_type": "micro",
        "address_1": "2001 S Bellview Rd Ste 2",
        "address_2": null,
        "address_3": null,
        "city": "Rogers",
        "state_province": "Arkansas",
        "postal_code": "72758-4050",
        "country": "United States",
        "longitude": null,
        "latitude": null,
        "phone": "4793817501",
        "website_url": "http://www.rendezvousjunction.com",
        "state": "Arkansas",
        "street": "2001 S Bellview Rd Ste 2"
    },
    {
        "id": "c7fb56c0-daf1-42d7-a6dd-5b75953838c9",
        "name": "Renegade Brewing Company",
        "brewery_type": "micro",
        "address_1": "918 W 1st Ave",
        "address_2": null,
        "address_3": null,
        "city": "Denver",
        "state_province": "Colorado",
        "postal_code": "80223-1534",
        "country": "United States",
        "longitude": "-104.9992637",
        "latitude": "39.71831392",
        "phone": "3035345407",
        "website_url": "http://renegadebrewing.com",
        "state": "Colorado",
        "street": "918 W 1st Ave"
    },
    {
        "id": "3881ce7f-1556-4ef0-aef7-ed55283678d8",
        "name": "Renegade Brewing Company - Production",
        "brewery_type": "micro",
        "address_1": "918 W 1st Ave",
        "address_2": null,
        "address_3": null,
        "city": "Denver",
        "state_province": "Colorado",
        "postal_code": "80223-1534",
        "country": "United States",
        "longitude": "-104.9992637",
        "latitude": "39.71831392",
        "phone": "7204014089",
        "website_url": "http://www.renegadebrewing.com",
        "state": "Colorado",
        "street": "918 W 1st Ave"
    }
]